$GNGGA,113258.30,3604.9499036,N,14004.6170512,E,4,09,1.54,26.748,M,39.399,M,1.3,0000*55
$GNGGA,113259.60,3604.9499588,N,14004.6170764,E,4,09,1.54,26.747,M,39.399,M,2.6,0000*5B
$GNGGA,113300.20,3604.9500153,N,14004.6170865,E,4,09,1.54,26.759,M,39.399,M,3.2,0000*55
$GNGGA,113301.10,3604.9499566,N,14004.6170658,E,4,09,1.54,26.777,M,39.399,M,4.1,0000*5C
$GNGGA,113301.70,3604.9499181,N,14004.6171288,E,4,09,1.54,26.740,M,39.399,M,4.7,0000*5D
$GNGGA,113302.50,3604.9499513,N,14004.6170519,E,4,09,1.54,26.693,M,39.399,M,5.5,0000*51
$GNGGA,113302.70,3604.9499624,N,14004.6169561,E,4,09,1.54,26.726,M,39.399,M,5.7,0000*5E
$GNGGA,113302.90,3604.9499574,N,14004.6168762,E,4,09,1.54,26.723,M,39.399,M,5.9,0000*5D
$GNGGA,113303.10,3604.9499679,N,14004.6168056,E,4,09,1.54,26.702,M,39.399,M,6.1,0000*52
$GNGGA,113303.30,3604.9499937,N,14004.6167385,E,4,09,1.54,26.706,M,39.399,M,1.3,0000*56
$GNGGA,113303.50,3604.9500319,N,14004.6166614,E,4,09,1.54,26.712,M,39.399,M,1.5,0000*58
$GNGGA,113303.70,3604.9500739,N,14004.6166054,E,4,09,1.54,26.712,M,39.399,M,1.7,0000*5C
$GNGGA,113303.90,3604.9501275,N,14004.6165433,E,4,09,1.54,26.713,M,39.399,M,1.9,0000*57
$GNGGA,113304.10,3604.9501970,N,14004.6164940,E,4,09,1.54,26.701,M,39.399,M,2.1,0000*56
$GNGGA,113304.30,3604.9502799,N,14004.6164464,E,4,09,1.54,26.660,M,39.399,M,2.3,0000*51
$GNGGA,113304.50,3604.9503566,N,14004.6163980,E,4,09,1.54,26.656,M,39.399,M,2.5,0000*57
$GNGGA,113304.70,3604.9504319,N,14004.6163411,E,4,09,1.54,26.634,M,39.399,M,2.7,0000*5F
$GNGGA,113304.80,3604.9504846,N,14004.6163090,E,4,09,1.54,26.625,M,39.399,M,2.8,0000*53
$GNGGA,113305.00,3604.9505785,N,14004.6162687,E,4,09,1.54,26.648,M,39.399,M,3.0,0000*58
$GNGGA,113305.20,3604.9506780,N,14004.6162230,E,4,09,1.54,26.655,M,39.399,M,3.2,0000*5A
$GNGGA,113305.40,3604.9507813,N,14004.6162015,E,4,09,1.54,26.648,M,39.399,M,3.4,0000*57
$GNGGA,113305.60,3604.9508800,N,14004.6161796,E,4,09,1.54,26.636,M,39.399,M,3.6,0000*5C
$GNGGA,113305.80,3604.9509867,N,14004.6161498,E,4,09,1.54,26.626,M,39.399,M,3.8,0000*50
$GNGGA,113305.90,3604.9510506,N,14004.6161329,E,4,09,1.54,26.629,M,39.399,M,3.9,0000*50
$GNGGA,113306.00,3604.9511110,N,14004.6161253,E,4,09,1.54,26.649,M,39.399,M,4.0,0000*5C
$GNGGA,113306.10,3604.9511777,N,14004.6161212,E,4,09,1.54,26.669,M,39.399,M,4.1,0000*5C
$GNGGA,113306.20,3604.9512354,N,14004.6161261,E,4,09,1.54,26.667,M,39.399,M,4.2,0000*50
$GNGGA,113306.30,3604.9512990,N,14004.6161225,E,4,09,1.54,26.670,M,39.399,M,4.3,0000*54
$GNGGA,113306.40,3604.9513556,N,14004.6161257,E,4,09,1.54,26.663,M,39.399,M,4.4,0000*54
$GNGGA,113306.50,3604.9514191,N,14004.6161417,E,4,09,1.54,26.666,M,39.399,M,4.5,0000*5B
$GNGGA,113306.60,3604.9514843,N,14004.6161439,E,4,09,1.54,26.684,M,39.399,M,4.6,0000*5D
$GNGGA,113306.80,3604.9515894,N,14004.6161436,E,4,09,1.54,26.644,M,39.399,M,4.8,0000*55
$GNGGA,113306.90,3604.9516575,N,14004.6161472,E,4,09,1.54,26.652,M,39.399,M,4.9,0000*53
$GNGGA,113307.00,3604.9517259,N,14004.6161456,E,4,09,1.54,26.648,M,39.399,M,5.0,0000*56
$GNGGA,113307.10,3604.9517952,N,14004.6161554,E,4,09,1.54,26.639,M,39.399,M,5.1,0000*53
$GNGGA,113307.20,3604.9518572,N,14004.6161706,E,4,09,1.54,26.645,M,39.399,M,5.2,0000*5C
$GNGGA,113307.30,3604.9519170,N,14004.6161911,E,4,09,1.54,26.629,M,39.399,M,5.3,0000*59
$GNGGA,113307.40,3604.9519790,N,14004.6162008,E,4,09,1.54,26.622,M,39.399,M,5.4,0000*58
$GNGGA,113307.50,3604.9520361,N,14004.6162155,E,4,09,1.54,26.634,M,39.399,M,5.5,0000*56
$GNGGA,113307.60,3604.9520905,N,14004.6162293,E,4,09,1.54,26.636,M,39.399,M,5.6,0000*55
$GNGGA,113307.80,3604.9521933,N,14004.6162308,E,4,09,1.54,26.636,M,39.399,M,5.8,0000*52
$GNGGA,113307.90,3604.9522519,N,14004.6162313,E,4,09,1.54,26.659,M,39.399,M,5.9,0000*56
$GNGGA,113308.00,3604.9523063,N,14004.6162311,E,4,09,1.54,26.664,M,39.399,M,6.0,0000*5F
$GNGGA,113308.10,3604.9523659,N,14004.6162402,E,4,09,1.54,26.657,M,39.399,M,6.1,0000*55
$GNGGA,113308.20,3604.9524242,N,14004.6162476,E,4,09,1.54,26.693,M,39.399,M,1.2,0000*50
$GNGGA,113308.30,3604.9524780,N,14004.6162647,E,4,09,1.54,26.695,M,39.399,M,1.3,0000*5D
$GNGGA,113308.40,3604.9525355,N,14004.6162808,E,4,09,1.54,26.677,M,39.399,M,1.4,0000*59
$GNGGA,113308.50,3604.9525896,N,14004.6162963,E,4,09,1.54,26.699,M,39.399,M,1.5,0000*51
$GNGGA,113308.60,3604.9526449,N,14004.6163102,E,4,09,1.54,26.705,M,39.399,M,1.6,0000*56
$GNGGA,113308.80,3604.9527432,N,14004.6163294,E,4,09,1.54,26.726,M,39.399,M,1.8,0000*56
$GNGGA,113309.00,3604.9528529,N,14004.6163450,E,4,09,1.54,26.717,M,39.399,M,2.0,0000*5C
$GNGGA,113309.10,3604.9529082,N,14004.6163501,E,4,09,1.54,26.732,M,39.399,M,2.1,0000*5B
$GNGGA,113309.20,3604.9529693,N,14004.6163595,E,4,09,1.54,26.720,M,39.399,M,2.2,0000*53
$GNGGA,113309.30,3604.9530316,N,14004.6163800,E,4,09,1.54,26.724,M,39.399,M,2.3,0000*56
$GNGGA,113309.40,3604.9530885,N,14004.6163976,E,4,09,1.54,26.752,M,39.399,M,2.4,0000*56
$GNGGA,113309.50,3604.9531429,N,14004.6164150,E,4,09,1.54,26.752,M,39.399,M,2.5,0000*56
$GNGGA,113309.60,3604.9532042,N,14004.6164383,E,4,09,1.54,26.758,M,39.399,M,2.6,0000*5A
$GNGGA,113309.70,3604.9532568,N,14004.6164619,E,4,09,1.54,26.760,M,39.399,M,2.7,0000*5A
$GNGGA,113309.90,3604.9533583,N,14004.6164883,E,4,09,1.54,26.774,M,39.399,M,2.9,0000*56
$GNGGA,113310.00,3604.9534142,N,14004.6164965,E,4,09,1.54,26.772,M,39.399,M,3.0,0000*5E
$GNGGA,113310.10,3604.9534743,N,14004.6165006,E,4,09,1.54,26.781,M,39.399,M,3.1,0000*58
$GNGGA,113310.20,3604.9535327,N,14004.6165111,E,4,09,1.54,26.779,M,39.399,M,3.2,0000*5F
$GNGGA,113310.30,3604.9535955,N,14004.6165221,E,4,09,1.54,26.784,M,39.399,M,3.3,0000*52
$GNGGA,113310.40,3604.9536563,N,14004.6165371,E,4,09,1.54,26.792,M,39.399,M,3.4,0000*5B
$GNGGA,113310.60,3604.9537628,N,14004.6165688,E,4,09,1.54,26.797,M,39.399,M,3.6,0000*50
$GNGGA,113310.70,3604.9538177,N,14004.6165859,E,4,09,1.54,26.801,M,39.399,M,3.7,0000*50
$GNGGA,113310.80,3604.9538714,N,14004.6166066,E,4,09,1.54,26.793,M,39.399,M,3.8,0000*50
$GNGGA,113311.00,3604.9539661,N,14004.6166241,E,4,09,1.54,26.810,M,39.399,M,4.0,0000*57
$GNGGA,113311.10,3604.9540211,N,14004.6166326,E,4,09,1.54,26.808,M,39.399,M,4.1,0000*53
$GNGGA,113311.20,3604.9540776,N,14004.6166404,E,4,09,1.54,26.813,M,39.399,M,4.2,0000*5A
$GNGGA,113311.30,3604.9541396,N,14004.6166476,E,4,09,1.54,26.810,M,39.399,M,4.3,0000*57
$GNGGA,113311.40,3604.9542018,N,14004.6166616,E,4,09,1.54,26.818,M,39.399,M,4.4,0000*5D
$GNGGA,113311.50,3604.9542573,N,14004.6166822,E,4,09,1.54,26.821,M,39.399,M,4.5,0000*56
$GNGGA,113311.60,3604.9543156,N,14004.6167074,E,4,09,1.54,26.814,M,39.399,M,4.6,0000*58
$GNGGA,113311.70,3604.9543773,N,14004.6167314,E,4,09,1.54,26.817,M,39.399,M,4.7,0000*5F
$GNGGA,113311.80,3604.9544333,N,14004.6167551,E,4,09,1.54,26.821,M,39.399,M,4.8,0000*5A
$GNGGA,113311.90,3604.9544856,N,14004.6167764,E,4,09,1.54,26.824,M,39.399,M,4.9,0000*53
$GNGGA,113312.00,3604.9545429,N,14004.6167981,E,4,09,1.54,26.823,M,39.399,M,5.0,0000*56
$GNGGA,113312.10,3604.9545990,N,14004.6168100,E,4,09,1.54,26.827,M,39.399,M,5.1,0000*53
$GNGGA,113312.20,3604.9546595,N,14004.6168321,E,4,09,1.54,26.821,M,39.399,M,5.2,0000*5E
$GNGGA,113312.30,3604.9547237,N,14004.6168458,E,4,09,1.54,26.825,M,39.399,M,5.3,0000*5D
$GNGGA,113312.40,3604.9547890,N,14004.6168549,E,4,09,1.54,26.826,M,39.399,M,5.4,0000*58
$GNGGA,113312.60,3604.9548949,N,14004.6168812,E,4,09,1.54,26.837,M,39.399,M,5.6,0000*51
$GNGGA,113312.80,3604.9549973,N,14004.6168906,E,4,09,1.54,26.833,M,39.399,M,5.8,0000*59
$GNGGA,113313.00,3604.9550710,N,14004.6168931,E,4,09,1.54,26.858,M,39.399,M,6.0,0000*51
$GNGGA,113313.20,3604.9551319,N,14004.6168876,E,4,09,1.54,26.864,M,39.399,M,6.2,0000*50
$GNGGA,113313.50,3604.9552013,N,14004.6169070,E,4,09,1.54,26.870,M,39.399,M,6.5,0000*50
$GNGGA,113313.90,3604.9552013,N,14004.6169801,E,4,09,1.54,26.885,M,39.399,M,6.9,0000*54
$GNGGA,113314.20,3604.9551516,N,14004.6170386,E,4,09,1.54,26.888,M,39.399,M,2.2,0000*55
$GNGGA,113314.60,3604.9551088,N,14004.6170828,E,4,09,1.54,26.903,M,39.399,M,2.6,0000*5A
$GNGGA,113316.10,3604.9551629,N,14004.6170401,E,4,09,1.54,26.923,M,39.399,M,4.1,0000*56
$GNGGA,113316.50,3604.9552300,N,14004.6170173,E,4,09,1.54,26.911,M,39.399,M,4.5,0000*5A
$GNGGA,113316.70,3604.9553030,N,14004.6170299,E,4,09,1.54,26.893,M,39.399,M,4.7,0000*57
$GNGGA,113316.90,3604.9553905,N,14004.6170501,E,4,09,1.54,26.868,M,39.399,M,4.9,0000*5A
$GNGGA,113317.10,3604.9554898,N,14004.6170685,E,4,09,1.54,26.858,M,39.399,M,5.1,0000*54
$GNGGA,113317.30,3604.9555993,N,14004.6170708,E,4,09,1.54,26.845,M,39.399,M,5.3,0000*57
$GNGGA,113317.40,3604.9556561,N,14004.6170682,E,4,09,1.54,26.840,M,39.399,M,5.4,0000*53
$GNGGA,113317.50,3604.9557217,N,14004.6170724,E,4,09,1.54,26.842,M,39.399,M,5.5,0000*5B
$GNGGA,113317.60,3604.9557862,N,14004.6170843,E,4,09,1.54,26.850,M,39.399,M,5.6,0000*5E
$GNGGA,113317.70,3604.9558465,N,14004.6171041,E,4,09,1.54,26.854,M,39.399,M,5.7,0000*55
$GNGGA,113317.80,3604.9559035,N,14004.6171310,E,4,09,1.54,26.839,M,39.399,M,5.8,0000*59
$GNGGA,113317.90,3604.9559707,N,14004.6171596,E,4,09,1.54,26.832,M,39.399,M,5.9,0000*5C
$GNGGA,113318.00,3604.9560215,N,14004.6171855,E,4,09,1.54,26.819,M,39.399,M,6.0,0000*57
$GNGGA,113318.10,3604.9560730,N,14004.6172054,E,4,09,1.54,26.816,M,39.399,M,6.1,0000*50
$GNGGA,113318.30,3604.9561773,N,14004.6172229,E,4,09,1.54,26.815,M,39.399,M,1.3,0000*5A
$GNGGA,113318.40,3604.9562437,N,14004.6172269,E,4,09,1.54,26.802,M,39.399,M,1.4,0000*58
$GNGGA,113318.50,3604.9563035,N,14004.6172296,E,4,09,1.54,26.802,M,39.399,M,1.5,0000*5F
$GNGGA,113318.60,3604.9563671,N,14004.6172425,E,4,09,1.54,26.784,M,39.399,M,1.6,0000*56
$GNGGA,113318.70,3604.9564328,N,14004.6172553,E,4,09,1.54,26.767,M,39.399,M,1.7,0000*55
$GNGGA,113318.80,3604.9564897,N,14004.6172673,E,4,09,1.54,26.746,M,39.399,M,1.8,0000*58
$GNGGA,113318.90,3604.9565574,N,14004.6172768,E,4,09,1.54,26.733,M,39.399,M,1.9,0000*50
$GNGGA,113319.00,3604.9566183,N,14004.6172889,E,4,09,1.54,26.734,M,39.399,M,2.0,0000*5A
$GNGGA,113319.10,3604.9566826,N,14004.6172977,E,4,09,1.54,26.749,M,39.399,M,2.1,0000*56
$GNGGA,113319.20,3604.9567411,N,14004.6172937,E,4,09,1.54,26.767,M,39.399,M,2.2,0000*57
$GNGGA,113319.40,3604.9568587,N,14004.6173024,E,4,09,1.54,26.739,M,39.399,M,2.4,0000*57
$GNGGA,113319.50,3604.9569274,N,14004.6172967,E,4,09,1.54,26.757,M,39.399,M,2.5,0000*5A
$GNGGA,113319.60,3604.9569939,N,14004.6173089,E,4,09,1.54,26.758,M,39.399,M,2.6,0000*5F
$GNGGA,113319.70,3604.9570619,N,14004.6173282,E,4,09,1.54,26.753,M,39.399,M,2.7,0000*58
$GNGGA,113319.80,3604.9571204,N,14004.6173457,E,4,09,1.54,26.766,M,39.399,M,2.8,0000*59
$GNGGA,113319.90,3604.9571841,N,14004.6173603,E,4,09,1.54,26.787,M,39.399,M,2.9,0000*5E
$GNGGA,113320.00,3604.9572481,N,14004.6173813,E,4,09,1.54,26.776,M,39.399,M,3.0,0000*57
$GNGGA,113320.10,3604.9573086,N,14004.6174015,E,4,09,1.54,26.797,M,39.399,M,3.1,0000*53
$GNGGA,113320.20,3604.9573675,N,14004.6174180,E,4,09,1.54,26.819,M,39.399,M,3.2,0000*5D
$GNGGA,113320.30,3604.9574271,N,14004.6174287,E,4,09,1.54,26.825,M,39.399,M,3.3,0000*51
$GNGGA,113320.40,3604.9574888,N,14004.6174334,E,4,09,1.54,26.825,M,39.399,M,3.4,0000*54
$GNGGA,113320.50,3604.9575526,N,14004.6174368,E,4,09,1.54,26.821,M,39.399,M,3.5,0000*51
$GNGGA,113320.60,3604.9576159,N,14004.6174496,E,4,09,1.54,26.821,M,39.399,M,3.6,0000*58
$GNGGA,113320.70,3604.9576725,N,14004.6174667,E,4,09,1.54,26.833,M,39.399,M,3.7,0000*5A
$GNGGA,113320.80,3604.9577270,N,14004.6174791,E,4,09,1.54,26.828,M,39.399,M,3.8,0000*5C
$GNGGA,113320.90,3604.9577899,N,14004.6174864,E,4,09,1.54,26.823,M,39.399,M,3.9,0000*5F
$GNGGA,113321.00,3604.9578486,N,14004.6174987,E,4,09,1.54,26.812,M,39.399,M,4.0,0000*5A
$GNGGA,113321.10,3604.9579118,N,14004.6175085,E,4,09,1.54,26.804,M,39.399,M,4.1,0000*54
$GNGGA,113321.30,3604.9580091,N,14004.6175089,E,4,09,1.54,26.821,M,39.399,M,4.3,0000*59
$GNGGA,113321.40,3604.9580691,N,14004.6174986,E,4,09,1.54,26.821,M,39.399,M,4.4,0000*58
$GNGGA,113321.50,3604.9581279,N,14004.6174810,E,4,09,1.54,26.824,M,39.399,M,4.5,0000*50
$GNGGA,113321.60,3604.9581901,N,14004.6174632,E,4,09,1.54,26.822,M,39.399,M,4.6,0000*5C
$GNGGA,113321.70,3604.9582565,N,14004.6174495,E,4,09,1.54,26.821,M,39.399,M,4.7,0000*5D
$GNGGA,113321.80,3604.9583192,N,14004.6174445,E,4,09,1.54,26.828,M,39.399,M,4.8,0000*54
$GNGGA,113321.90,3604.9583814,N,14004.6174500,E,4,09,1.54,26.813,M,39.399,M,4.9,0000*5B
$GNGGA,113322.00,3604.9584485,N,14004.6174557,E,4,09,1.54,26.800,M,39.399,M,5.0,0000*5A
$GNGGA,113322.10,3604.9585155,N,14004.6174659,E,4,09,1.54,26.792,M,39.399,M,5.1,0000*5A
$GNGGA,113322.30,3604.9586102,N,14004.6174861,E,4,09,1.54,26.782,M,39.399,M,5.3,0000*5F
$GNGGA,113322.50,3604.9587181,N,14004.6175055,E,4,09,1.54,26.786,M,39.399,M,5.5,0000*5F
$GNGGA,113322.60,3604.9587764,N,14004.6175188,E,4,09,1.54,26.776,M,39.399,M,5.6,0000*5C
$GNGGA,113322.70,3604.9588372,N,14004.6175234,E,4,09,1.54,26.775,M,39.399,M,5.7,0000*57
$GNGGA,113322.80,3604.9588960,N,14004.6175328,E,4,09,1.54,26.779,M,39.399,M,5.8,0000*5E
$GNGGA,113322.90,3604.9589494,N,14004.6175472,E,4,09,1.54,26.780,M,39.399,M,5.9,0000*57
$GNGGA,113323.00,3604.9590081,N,14004.6175542,E,4,09,1.54,26.771,M,39.399,M,6.0,0000*51
$GNGGA,113323.10,3604.9590666,N,14004.6175648,E,4,09,1.54,26.772,M,39.399,M,6.1,0000*54
$GNGGA,113323.20,3604.9591271,N,14004.6175745,E,4,09,1.54,26.774,M,39.399,M,1.2,0000*5A
$GNGGA,113323.40,3604.9592318,N,14004.6175862,E,4,09,1.54,26.786,M,39.399,M,1.4,0000*50
$GNGGA,113323.50,3604.9592877,N,14004.6175932,E,4,09,1.54,26.781,M,39.399,M,1.5,0000*51
$GNGGA,113323.60,3604.9593475,N,14004.6175939,E,4,09,1.54,26.786,M,39.399,M,1.6,0000*52
$GNGGA,113323.70,3604.9594034,N,14004.6175861,E,4,09,1.54,26.788,M,39.399,M,1.7,0000*56
$GNGGA,113323.80,3604.9594599,N,14004.6175911,E,4,09,1.54,26.789,M,39.399,M,1.8,0000*53
$GNGGA,113324.00,3604.9595636,N,14004.6175972,E,4,09,1.54,26.790,M,39.399,M,2.0,0000*5D
$GNGGA,113324.20,3604.9596707,N,14004.6176089,E,4,09,1.54,26.777,M,39.399,M,2.2,0000*5A
$GNGGA,113324.30,3604.9597303,N,14004.6176113,E,4,09,1.54,26.771,M,39.399,M,2.3,0000*5F
$GNGGA,113324.50,3604.9598311,N,14004.6176077,E,4,09,1.54,26.793,M,39.399,M,2.5,0000*5C
$GNGGA,113324.60,3604.9598861,N,14004.6176069,E,4,09,1.54,26.780,M,39.399,M,2.6,0000*5D
$GNGGA,113324.70,3604.9599428,N,14004.6175980,E,4,09,1.54,26.782,M,39.399,M,2.7,0000*52
$GNGGA,113324.80,3604.9600007,N,14004.6175857,E,4,09,1.54,26.781,M,39.399,M,2.8,0000*50
$GNGGA,113324.90,3604.9600650,N,14004.6175727,E,4,09,1.54,26.780,M,39.399,M,2.9,0000*5D
$GNGGA,113325.00,3604.9601229,N,14004.6175737,E,4,09,1.54,26.786,M,39.399,M,3.0,0000*51
$GNGGA,113325.10,3604.9601837,N,14004.6175760,E,4,09,1.54,26.780,M,39.399,M,3.1,0000*50
$GNGGA,113325.20,3604.9602463,N,14004.6175754,E,4,09,1.54,26.768,M,39.399,M,3.2,0000*5F
$GNGGA,113325.30,3604.9603047,N,14004.6175887,E,4,09,1.54,26.753,M,39.399,M,3.3,0000*55
$GNGGA,113325.40,3604.9603593,N,14004.6175925,E,4,09,1.54,26.753,M,39.399,M,3.4,0000*50
$GNGGA,113325.50,3604.9604183,N,14004.6175883,E,4,09,1.54,26.759,M,39.399,M,3.5,0000*55
$GNGGA,113325.60,3604.9604773,N,14004.6175847,E,4,09,1.54,26.749,M,39.399,M,3.6,0000*55
$GNGGA,113325.70,3604.9605400,N,14004.6175810,E,4,09,1.54,26.742,M,39.399,M,3.7,0000*5A
$GNGGA,113325.80,3604.9606040,N,14004.6175765,E,4,09,1.54,26.745,M,39.399,M,3.8,0000*53
$GNGGA,113325.90,3604.9606684,N,14004.6175856,E,4,09,1.54,26.745,M,39.399,M,3.9,0000*52
$GNGGA,113326.00,3604.9607352,N,14004.6175911,E,4,09,1.54,26.750,M,39.399,M,4.0,0000*5F
$GNGGA,113326.10,3604.9607969,N,14004.6175907,E,4,09,1.54,26.757,M,39.399,M,4.1,0000*5D
$GNGGA,113326.20,3604.9608602,N,14004.6175982,E,4,09,1.54,26.748,M,39.399,M,4.2,0000*53
$GNGGA,113326.30,3604.9609262,N,14004.6176102,E,4,09,1.54,26.730,M,39.399,M,4.3,0000*5C
$GNGGA,113326.40,3604.9609924,N,14004.6176110,E,4,09,1.54,26.729,M,39.399,M,4.4,0000*5E
$GNGGA,113326.50,3604.9610519,N,14004.6176137,E,4,09,1.54,26.719,M,39.399,M,4.5,0000*52
$GNGGA,113326.60,3604.9611121,N,14004.6176194,E,4,09,1.54,26.708,M,39.399,M,4.6,0000*55
$GNGGA,113326.70,3604.9611766,N,14004.6176147,E,4,09,1.54,26.689,M,39.399,M,4.7,0000*56
$GNGGA,113326.80,3604.9612416,N,14004.6176165,E,4,09,1.54,26.674,M,39.399,M,4.8,0000*53
$GNGGA,113326.90,3604.9613115,N,14004.6176204,E,4,09,1.54,26.662,M,39.399,M,4.9,0000*57
$GNGGA,113327.00,3604.9613766,N,14004.6176306,E,4,09,1.54,26.666,M,39.399,M,5.0,0000*52
$GNGGA,113327.10,3604.9614398,N,14004.6176394,E,4,09,1.54,26.651,M,39.399,M,5.1,0000*5F
$GNGGA,113327.20,3604.9615071,N,14004.6176502,E,4,09,1.54,26.624,M,39.399,M,5.2,0000*51
$GNGGA,113327.30,3604.9615649,N,14004.6176590,E,4,09,1.54,26.626,M,39.399,M,5.3,0000*55
$GNGGA,113327.40,3604.9616280,N,14004.6176659,E,4,09,1.54,26.629,M,39.399,M,5.4,0000*5E
$GNGGA,113327.50,3604.9616929,N,14004.6176675,E,4,09,1.54,26.631,M,39.399,M,5.5,0000*51
$GNGGA,113327.70,3604.9618114,N,14004.6176554,E,4,09,1.54,26.617,M,39.399,M,5.7,0000*5D
$GNGGA,113327.80,3604.9618794,N,14004.6176414,E,4,09,1.54,26.638,M,39.399,M,5.8,0000*5B
$GNGGA,113327.90,3604.9619424,N,14004.6176405,E,4,09,1.54,26.632,M,39.399,M,5.9,0000*58
$GNGGA,113328.00,3604.9620140,N,14004.6176483,E,4,09,1.54,26.615,M,39.399,M,6.0,0000*52
$GNGGA,113328.10,3604.9620746,N,14004.6176581,E,4,09,1.54,26.621,M,39.399,M,6.1,0000*56
$GNGGA,113328.20,3604.9621349,N,14004.6176750,E,4,09,1.54,26.602,M,39.399,M,1.2,0000*54
$GNGGA,113328.30,3604.9622011,N,14004.6176855,E,4,09,1.54,26.601,M,39.399,M,1.3,0000*50
$GNGGA,113328.40,3604.9622639,N,14004.6176896,E,4,09,1.54,26.604,M,39.399,M,1.4,0000*56
$GNGGA,113328.50,3604.9623223,N,14004.6177057,E,4,09,1.54,26.590,M,39.399,M,1.5,0000*52
$GNGGA,113328.60,3604.9623798,N,14004.6176995,E,4,09,1.54,26.599,M,39.399,M,1.6,0000*58
$GNGGA,113328.70,3604.9624464,N,14004.6176975,E,4,09,1.54,26.609,M,39.399,M,1.7,0000*5B
$GNGGA,113328.80,3604.9625129,N,14004.6177010,E,4,09,1.54,26.617,M,39.399,M,1.8,0000*52
$GNGGA,113328.90,3604.9625799,N,14004.6176976,E,4,09,1.54,26.635,M,39.399,M,1.9,0000*57
$GNGGA,113329.00,3604.9626502,N,14004.6177025,E,4,09,1.54,26.660,M,39.399,M,2.0,0000*58
$GNGGA,113329.10,3604.9627132,N,14004.6177155,E,4,09,1.54,26.666,M,39.399,M,2.1,0000*5E
$GNGGA,113329.20,3604.9627757,N,14004.6177150,E,4,09,1.54,26.684,M,39.399,M,2.2,0000*52
$GNGGA,113329.30,3604.9628418,N,14004.6177339,E,4,09,1.54,26.662,M,39.399,M,2.3,0000*50
$GNGGA,113329.40,3604.9629074,N,14004.6177431,E,4,09,1.54,26.664,M,39.399,M,2.4,0000*56
$GNGGA,113329.50,3604.9629686,N,14004.6177497,E,4,09,1.54,26.680,M,39.399,M,2.5,0000*5B
$GNGGA,113329.60,3604.9630310,N,14004.6177547,E,4,09,1.54,26.677,M,39.399,M,2.6,0000*5D
$GNGGA,113329.70,3604.9630962,N,14004.6177453,E,4,09,1.54,26.680,M,39.399,M,2.7,0000*5E
$GNGGA,113329.80,3604.9631633,N,14004.6177450,E,4,09,1.54,26.681,M,39.399,M,2.8,0000*56
$GNGGA,113329.90,3604.9632345,N,14004.6177473,E,4,09,1.54,26.680,M,39.399,M,2.9,0000*51
$GNGGA,113330.00,3604.9633048,N,14004.6177544,E,4,09,1.54,26.684,M,39.399,M,3.0,0000*56
$GNGGA,113330.10,3604.9633650,N,14004.6177639,E,4,09,1.54,26.686,M,39.399,M,3.1,0000*52
$GNGGA,113330.20,3604.9634259,N,14004.6177727,E,4,09,1.54,26.681,M,39.399,M,3.2,0000*51
$GNGGA,113330.30,3604.9634872,N,14004.6177864,E,4,09,1.54,26.686,M,39.399,M,3.3,0000*5D
$GNGGA,113330.40,3604.9635449,N,14004.6177977,E,4,09,1.54,26.704,M,39.399,M,3.4,0000*50
$GNGGA,113330.50,3604.9636034,N,14004.6178013,E,4,09,1.54,26.715,M,39.399,M,3.5,0000*59
$GNGGA,113330.60,3604.9636609,N,14004.6178089,E,4,09,1.54,26.725,M,39.399,M,3.6,0000*51
$GNGGA,113330.70,3604.9637208,N,14004.6177996,E,4,09,1.54,26.728,M,39.399,M,3.7,0000*50
$GNGGA,113330.80,3604.9637865,N,14004.6177995,E,4,09,1.54,26.731,M,39.399,M,3.8,0000*5A
$GNGGA,113330.90,3604.9638512,N,14004.6177983,E,4,09,1.54,26.736,M,39.399,M,3.9,0000*58
$GNGGA,113331.00,3604.9639111,N,14004.6178035,E,4,09,1.54,26.743,M,39.399,M,4.0,0000*51
$GNGGA,113331.10,3604.9639699,N,14004.6178155,E,4,09,1.54,26.747,M,39.399,M,4.1,0000*55
$GNGGA,113331.30,3604.9640783,N,14004.6178348,E,4,09,1.54,26.742,M,39.399,M,4.3,0000*5A
$GNGGA,113331.50,3604.9641718,N,14004.6178546,E,4,09,1.54,26.740,M,39.399,M,4.5,0000*53
$GNGGA,113331.70,3604.9642697,N,14004.6178612,E,4,09,1.54,26.743,M,39.399,M,4.7,0000*57
$GNGGA,113331.90,3604.9643744,N,14004.6178673,E,4,09,1.54,26.718,M,39.399,M,4.9,0000*50
$GNGGA,113332.10,3604.9644770,N,14004.6178769,E,4,09,1.54,26.709,M,39.399,M,5.1,0000*58
$GNGGA,113332.30,3604.9645746,N,14004.6178904,E,4,09,1.54,26.699,M,39.399,M,5.3,0000*51
$GNGGA,113332.50,3604.9646792,N,14004.6179042,E,4,09,1.54,26.677,M,39.399,M,5.5,0000*51
$GNGGA,113332.70,3604.9647741,N,14004.6179122,E,4,09,1.54,26.677,M,39.399,M,5.7,0000*59
$GNGGA,113332.90,3604.9648670,N,14004.6179110,E,4,09,1.54,26.668,M,39.399,M,5.9,0000*5A
$GNGGA,113333.10,3604.9649653,N,14004.6179020,E,4,09,1.54,26.669,M,39.399,M,6.1,0000*5B
$GNGGA,113333.30,3604.9650412,N,14004.6179067,E,4,09,1.54,26.691,M,39.399,M,1.3,0000*57
$GNGGA,113333.60,3604.9650918,N,14004.6178704,E,4,09,1.54,26.722,M,39.399,M,1.6,0000*5A
$GNGGA,113333.90,3604.9650410,N,14004.6178278,E,4,09,1.54,26.734,M,39.399,M,1.9,0000*56
$GNGGA,113334.10,3604.9649610,N,14004.6178510,E,4,09,1.54,26.751,M,39.399,M,2.1,0000*52
$GNGGA,113334.30,3604.9648863,N,14004.6179161,E,4,09,1.54,26.746,M,39.399,M,2.3,0000*5C
$GNGGA,113334.50,3604.9648415,N,14004.6179794,E,4,09,1.54,26.740,M,39.399,M,2.5,0000*5B
$GNGGA,113334.80,3604.9648187,N,14004.6180402,E,4,09,1.54,26.742,M,39.399,M,2.8,0000*5D
$GNGGA,113335.60,3604.9648481,N,14004.6179685,E,4,09,1.54,26.705,M,39.399,M,3.6,0000*56
$GNGGA,113335.90,3604.9649093,N,14004.6179333,E,4,09,1.54,26.704,M,39.399,M,3.9,0000*59
$GNGGA,113336.10,3604.9649736,N,14004.6179189,E,4,09,1.54,26.723,M,39.399,M,4.1,0000*53
$GNGGA,113336.30,3604.9650446,N,14004.6179065,E,4,09,1.54,26.733,M,39.399,M,4.3,0000*5D
$GNGGA,113336.50,3604.9651326,N,14004.6178872,E,4,09,1.54,26.728,M,39.399,M,4.5,0000*58
$GNGGA,113336.60,3604.9651872,N,14004.6178853,E,4,09,1.54,26.735,M,39.399,M,4.6,0000*5D
$GNGGA,113336.70,3604.9652466,N,14004.6178851,E,4,09,1.54,26.724,M,39.399,M,4.7,0000*55
$GNGGA,113336.80,3604.9653047,N,14004.6178923,E,4,09,1.54,26.712,M,39.399,M,4.8,0000*52
$GNGGA,113336.90,3604.9653650,N,14004.6178948,E,4,09,1.54,26.710,M,39.399,M,4.9,0000*5D
$GNGGA,113337.00,3604.9654267,N,14004.6178978,E,4,09,1.54,26.703,M,39.399,M,5.0,0000*5B
$GNGGA,113337.10,3604.9654886,N,14004.6179050,E,4,09,1.54,26.688,M,39.399,M,5.1,0000*5E
$GNGGA,113337.20,3604.9655525,N,14004.6179149,E,4,09,1.54,26.696,M,39.399,M,5.2,0000*5D
$GNGGA,113337.30,3604.9656148,N,14004.6179409,E,4,09,1.54,26.682,M,39.399,M,5.3,0000*55
$GNGGA,113337.40,3604.9656748,N,14004.6179657,E,4,09,1.54,26.680,M,39.399,M,5.4,0000*58
$GNGGA,113337.50,3604.9657328,N,14004.6179921,E,4,09,1.54,26.678,M,39.399,M,5.5,0000*52
$GNGGA,113337.60,3604.9657860,N,14004.6180244,E,4,09,1.54,26.669,M,39.399,M,5.6,0000*5B
$GNGGA,113337.80,3604.9658891,N,14004.6180802,E,4,09,1.54,26.664,M,39.399,M,5.8,0000*5F
$GNGGA,113337.90,3604.9659436,N,14004.6181064,E,4,09,1.54,26.662,M,39.399,M,5.9,0000*50
$GNGGA,113338.00,3604.9660021,N,14004.6181243,E,4,09,1.54,26.650,M,39.399,M,6.0,0000*52
$GNGGA,113338.10,3604.9660648,N,14004.6181391,E,4,09,1.54,26.645,M,39.399,M,6.1,0000*51
$GNGGA,113338.20,3604.9661292,N,14004.6181600,E,4,09,1.54,26.640,M,39.399,M,1.2,0000*5C
$GNGGA,113338.30,3604.9661918,N,14004.6181857,E,4,09,1.54,26.643,M,39.399,M,1.3,0000*5A
$GNGGA,113338.40,3604.9662529,N,14004.6182092,E,4,09,1.54,26.645,M,39.399,M,1.4,0000*53
$GNGGA,113338.50,3604.9663127,N,14004.6182380,E,4,09,1.54,26.637,M,39.399,M,1.5,0000*5D
$GNGGA,113338.60,3604.9663780,N,14004.6182742,E,4,09,1.54,26.629,M,39.399,M,1.6,0000*53
$GNGGA,113338.70,3604.9664368,N,14004.6183051,E,4,09,1.54,26.621,M,39.399,M,1.7,0000*5A
$GNGGA,113338.80,3604.9664955,N,14004.6183391,E,4,09,1.54,26.626,M,39.399,M,1.8,0000*56
$GNGGA,113338.90,3604.9665539,N,14004.6183681,E,4,09,1.54,26.622,M,39.399,M,1.9,0000*51
$GNGGA,113339.00,3604.9666185,N,14004.6183851,E,4,09,1.54,26.623,M,39.399,M,2.0,0000*51
$GNGGA,113339.10,3604.9666850,N,14004.6184047,E,4,09,1.54,26.618,M,39.399,M,2.1,0000*50
$GNGGA,113339.20,3604.9667536,N,14004.6184192,E,4,09,1.54,26.618,M,39.399,M,2.2,0000*55
$GNGGA,113339.30,3604.9668175,N,14004.6184420,E,4,09,1.54,26.629,M,39.399,M,2.3,0000*57
$GNGGA,113339.40,3604.9668784,N,14004.6184643,E,4,09,1.54,26.634,M,39.399,M,2.4,0000*54
$GNGGA,113339.50,3604.9669426,N,14004.6184880,E,4,09,1.54,26.635,M,39.399,M,2.5,0000*5E
$GNGGA,113339.60,3604.9670061,N,14004.6185088,E,4,09,1.54,26.627,M,39.399,M,2.6,0000*53
$GNGGA,113339.70,3604.9670671,N,14004.6185277,E,4,09,1.54,26.637,M,39.399,M,2.7,0000*57
$GNGGA,113339.80,3604.9671274,N,14004.6185470,E,4,09,1.54,26.642,M,39.399,M,2.8,0000*54
$GNGGA,113339.90,3604.9671875,N,14004.6185539,E,4,09,1.54,26.643,M,39.399,M,2.9,0000*52
$GNGGA,113340.00,3604.9672498,N,14004.6185563,E,4,09,1.54,26.643,M,39.399,M,3.0,0000*5E
$GNGGA,113340.10,3604.9673140,N,14004.6185630,E,4,09,1.54,26.647,M,39.399,M,3.1,0000*5E
$GNGGA,113340.20,3604.9673831,N,14004.6185698,E,4,09,1.54,26.645,M,39.399,M,3.2,0000*51
$GNGGA,113340.30,3604.9674485,N,14004.6185808,E,4,09,1.54,26.658,M,39.399,M,3.3,0000*5E
$GNGGA,113340.40,3604.9675097,N,14004.6185915,E,4,09,1.54,26.659,M,39.399,M,3.4,0000*54
$GNGGA,113340.50,3604.9675723,N,14004.6186019,E,4,09,1.54,26.660,M,39.399,M,3.5,0000*50
$GNGGA,113340.60,3604.9676382,N,14004.6186182,E,4,09,1.54,26.664,M,39.399,M,3.6,0000*5B
$GNGGA,113340.70,3604.9676996,N,14004.6186327,E,4,09,1.54,26.667,M,39.399,M,3.7,0000*5A
$GNGGA,113340.80,3604.9677573,N,14004.6186421,E,4,09,1.54,26.677,M,39.399,M,3.8,0000*5C
$GNGGA,113340.90,3604.9678186,N,14004.6186480,E,4,09,1.54,26.678,M,39.399,M,3.9,0000*59
$GNGGA,113341.00,3604.9678837,N,14004.6186475,E,4,09,1.54,26.680,M,39.399,M,4.0,0000*51
$GNGGA,113341.10,3604.9679481,N,14004.6186489,E,4,09,1.54,26.674,M,39.399,M,4.1,0000*59
$GNGGA,113341.20,3604.9680167,N,14004.6186489,E,4,09,1.54,26.679,M,39.399,M,4.2,0000*5F
$GNGGA,113341.30,3604.9680817,N,14004.6186543,E,4,09,1.54,26.681,M,39.399,M,4.3,0000*51
$GNGGA,113341.40,3604.9681422,N,14004.6186565,E,4,09,1.54,26.682,M,39.399,M,4.4,0000*5D
$GNGGA,113341.50,3604.9682060,N,14004.6186582,E,4,09,1.54,26.685,M,39.399,M,4.5,0000*52
$GNGGA,113341.60,3604.9682739,N,14004.6186607,E,4,09,1.54,26.681,M,39.399,M,4.6,0000*53
$GNGGA,113341.70,3604.9683359,N,14004.6186662,E,4,09,1.54,26.681,M,39.399,M,4.7,0000*53
$GNGGA,113341.80,3604.9683958,N,14004.6186697,E,4,09,1.54,26.684,M,39.399,M,4.8,0000*57
$GNGGA,113341.90,3604.9684554,N,14004.6186659,E,4,09,1.54,26.685,M,39.399,M,4.9,0000*53
$GNGGA,113342.00,3604.9685194,N,14004.6186588,E,4,09,1.54,26.677,M,39.399,M,5.0,0000*5A
$GNGGA,113342.10,3604.9685881,N,14004.6186538,E,4,09,1.54,26.671,M,39.399,M,5.1,0000*5A
$GNGGA,113342.20,3604.9686547,N,14004.6186529,E,4,09,1.54,26.671,M,39.399,M,5.2,0000*5E
$GNGGA,113342.30,3604.9687244,N,14004.6186566,E,4,09,1.54,26.675,M,39.399,M,5.3,0000*54
$GNGGA,113342.40,3604.9687902,N,14004.6186608,E,4,09,1.54,26.675,M,39.399,M,5.4,0000*56
$GNGGA,113342.50,3604.9688558,N,14004.6186609,E,4,09,1.54,26.675,M,39.399,M,5.5,0000*5B
$GNGGA,113342.60,3604.9689240,N,14004.6186633,E,4,09,1.54,26.673,M,39.399,M,5.6,0000*5B
$GNGGA,113342.70,3604.9689882,N,14004.6186656,E,4,09,1.54,26.663,M,39.399,M,5.7,0000*5D
$GNGGA,113342.80,3604.9690471,N,14004.6186635,E,4,09,1.54,26.671,M,39.399,M,5.8,0000*53
$GNGGA,113342.90,3604.9691055,N,14004.6186568,E,4,09,1.54,26.666,M,39.399,M,5.9,0000*5D
$GNGGA,113343.00,3604.9691713,N,14004.6186480,E,4,09,1.54,26.661,M,39.399,M,6.0,0000*5A
$GNGGA,113343.10,3604.9692393,N,14004.6186389,E,4,09,1.54,26.646,M,39.399,M,6.1,0000*5E
$GNGGA,113343.20,3604.9693064,N,14004.6186364,E,4,09,1.54,26.644,M,39.399,M,6.2,0000*55
$GNGGA,113343.30,3604.9693739,N,14004.6186334,E,4,09,1.54,26.652,M,39.399,M,6.3,0000*58
$GNGGA,113343.40,3604.9694396,N,14004.6186349,E,4,09,1.54,26.648,M,39.399,M,6.4,0000*5F
$GNGGA,113343.50,3604.9695066,N,14004.6186342,E,4,09,1.54,26.651,M,39.399,M,6.5,0000*51
$GNGGA,113343.60,3604.9695763,N,14004.6186337,E,4,09,1.54,26.636,M,39.399,M,6.6,0000*50
$GNGGA,113343.70,3604.9696410,N,14004.6186329,E,4,09,1.54,26.636,M,39.399,M,6.7,0000*5B
$GNGGA,113343.80,3604.9697040,N,14004.6186303,E,4,09,1.54,26.637,M,39.399,M,6.8,0000*52
$GNGGA,113343.90,3604.9697637,N,14004.6186182,E,4,09,1.54,26.632,M,39.399,M,6.9,0000*5A
$GNGGA,113344.00,3604.9698320,N,14004.6186030,E,4,09,1.54,26.617,M,39.399,M,7.0,0000*5F
$GNGGA,113344.10,3604.9699055,N,14004.6185898,E,4,09,1.54,26.617,M,39.399,M,7.1,0000*56
$GNGGA,113344.20,3604.9699774,N,14004.6185814,E,4,09,1.54,26.614,M,39.399,M,2.2,0000*50
$GNGGA,113344.30,3604.9700414,N,14004.6185809,E,4,09,1.54,26.617,M,39.399,M,2.3,0000*5B
$GNGGA,113344.40,3604.9701088,N,14004.6185832,E,4,09,1.54,26.619,M,39.399,M,2.4,0000*5D
$GNGGA,113344.50,3604.9701812,N,14004.6185823,E,4,09,1.54,26.617,M,39.399,M,2.5,0000*58
$GNGGA,113344.60,3604.9702481,N,14004.6185840,E,4,09,1.54,26.626,M,39.399,M,2.6,0000*5A
$GNGGA,113344.70,3604.9703155,N,14004.6185819,E,4,09,1.54,26.626,M,39.399,M,2.7,0000*5B
$GNGGA,113344.80,3604.9703793,N,14004.6185763,E,4,09,1.54,26.629,M,39.399,M,2.8,0000*5A
$GNGGA,113344.90,3604.9704505,N,14004.6185625,E,4,09,1.54,26.636,M,39.399,M,2.9,0000*5D
$GNGGA,113345.00,3604.9705209,N,14004.6185469,E,4,09,1.54,26.637,M,39.399,M,3.0,0000*5C
$GNGGA,113345.10,3604.9705917,N,14004.6185420,E,4,09,1.54,26.631,M,39.399,M,3.1,0000*53
$GNGGA,113345.20,3604.9706625,N,14004.6185429,E,4,09,1.54,26.643,M,39.399,M,3.2,0000*52
$GNGGA,113345.30,3604.9707313,N,14004.6185407,E,4,09,1.54,26.657,M,39.399,M,3.3,0000*5A
$GNGGA,113345.40,3604.9707987,N,14004.6185332,E,4,09,1.54,26.657,M,39.399,M,3.4,0000*5C
$GNGGA,113345.50,3604.9708675,N,14004.6185261,E,4,09,1.54,26.664,M,39.399,M,3.5,0000*56
$GNGGA,113345.60,3604.9709309,N,14004.6185231,E,4,09,1.54,26.671,M,39.399,M,3.6,0000*58
$GNGGA,113345.70,3604.9709928,N,14004.6185140,E,4,09,1.54,26.681,M,39.399,M,3.7,0000*5B
$GNGGA,113345.80,3604.9710505,N,14004.6184964,E,4,09,1.54,26.684,M,39.399,M,3.8,0000*5A
$GNGGA,113345.90,3604.9711149,N,14004.6184690,E,4,09,1.54,26.692,M,39.399,M,3.9,0000*54
$GNGGA,113346.00,3604.9711810,N,14004.6184384,E,4,09,1.54,26.688,M,39.399,M,4.0,0000*5E
$GNGGA,113346.10,3604.9712471,N,14004.6184162,E,4,09,1.54,26.692,M,39.399,M,4.1,0000*57
$GNGGA,113346.20,3604.9713212,N,14004.6183930,E,4,09,1.54,26.702,M,39.399,M,4.2,0000*55
$GNGGA,113346.30,3604.9713897,N,14004.6183793,E,4,09,1.54,26.714,M,39.399,M,4.3,0000*52
$GNGGA,113346.40,3604.9714537,N,14004.6183664,E,4,09,1.54,26.714,M,39.399,M,4.4,0000*5B
$GNGGA,113346.50,3604.9715274,N,14004.6183452,E,4,09,1.54,26.713,M,39.399,M,4.5,0000*5A
$GNGGA,113346.60,3604.9715963,N,14004.6183325,E,4,09,1.54,26.725,M,39.399,M,4.6,0000*55
$GNGGA,113346.70,3604.9716543,N,14004.6183170,E,4,09,1.54,26.730,M,39.399,M,4.7,0000*5E
$GNGGA,113346.80,3604.9717121,N,14004.6182929,E,4,09,1.54,26.736,M,39.399,M,4.8,0000*5C
$GNGGA,113346.90,3604.9717750,N,14004.6182675,E,4,09,1.54,26.739,M,39.399,M,4.9,0000*55
$GNGGA,113347.00,3604.9718419,N,14004.6182398,E,4,09,1.54,26.740,M,39.399,M,5.0,0000*5C
$GNGGA,113347.10,3604.9719076,N,14004.6182100,E,4,09,1.54,26.745,M,39.399,M,5.1,0000*56
$GNGGA,113347.20,3604.9719759,N,14004.6181888,E,4,09,1.54,26.752,M,39.399,M,5.2,0000*50
$GNGGA,113347.30,3604.9720385,N,14004.6181740,E,4,09,1.54,26.761,M,39.399,M,5.3,0000*54
$GNGGA,113347.40,3604.9721001,N,14004.6181543,E,4,09,1.54,26.765,M,39.399,M,5.4,0000*5F
$GNGGA,113347.50,3604.9721687,N,14004.6181301,E,4,09,1.54,26.766,M,39.399,M,5.5,0000*54
$GNGGA,113347.60,3604.9722301,N,14004.6181162,E,4,09,1.54,26.774,M,39.399,M,5.6,0000*58
$GNGGA,113347.70,3604.9722887,N,14004.6180968,E,4,09,1.54,26.786,M,39.399,M,5.7,0000*53
$GNGGA,113347.80,3604.9723454,N,14004.6180775,E,4,09,1.54,26.792,M,39.399,M,5.8,0000*57
$GNGGA,113347.90,3604.9724048,N,14004.6180539,E,4,09,1.54,26.794,M,39.399,M,5.9,0000*55
$GNGGA,113348.00,3604.9724660,N,14004.6180219,E,4,09,1.54,26.799,M,39.399,M,6.0,0000*5D
$GNGGA,113348.10,3604.9725266,N,14004.6180011,E,4,09,1.54,26.798,M,39.399,M,6.1,0000*55
$GNGGA,113348.20,3604.9725902,N,14004.6179760,E,4,09,1.54,26.803,M,39.399,M,1.2,0000*51
$GNGGA,113348.30,3604.9726518,N,14004.6179589,E,4,09,1.54,26.812,M,39.399,M,1.3,0000*50
$GNGGA,113348.40,3604.9727119,N,14004.6179425,E,4,09,1.54,26.809,M,39.399,M,1.4,0000*59
$GNGGA,113348.50,3604.9727737,N,14004.6179198,E,4,09,1.54,26.819,M,39.399,M,1.5,0000*51
$GNGGA,113348.60,3604.9728354,N,14004.6179060,E,4,09,1.54,26.823,M,39.399,M,1.6,0000*50
$GNGGA,113348.70,3604.9728924,N,14004.6178895,E,4,09,1.54,26.832,M,39.399,M,1.7,0000*5E
$GNGGA,113348.90,3604.9729936,N,14004.6178481,E,4,09,1.54,26.839,M,39.399,M,1.9,0000*5E
$GNGGA,113349.00,3604.9730509,N,14004.6178142,E,4,09,1.54,26.845,M,39.399,M,2.0,0000*55
$GNGGA,113349.10,3604.9731055,N,14004.6177813,E,4,09,1.54,26.845,M,39.399,M,2.1,0000*5A
$GNGGA,113349.20,3604.9731638,N,14004.6177455,E,4,09,1.54,26.845,M,39.399,M,2.2,0000*59
$GNGGA,113349.30,3604.9732252,N,14004.6177193,E,4,09,1.54,26.855,M,39.399,M,2.3,0000*5C
$GNGGA,113349.40,3604.9732799,N,14004.6176957,E,4,09,1.54,26.853,M,39.399,M,2.4,0000*59
$GNGGA,113349.50,3604.9733378,N,14004.6176698,E,4,09,1.54,26.862,M,39.399,M,2.5,0000*5D
$GNGGA,113349.60,3604.9733981,N,14004.6176456,E,4,09,1.54,26.864,M,39.399,M,2.6,0000*57
$GNGGA,113349.70,3604.9734545,N,14004.6176225,E,4,09,1.54,26.870,M,39.399,M,2.7,0000*53
$GNGGA,113349.80,3604.9735073,N,14004.6175979,E,4,09,1.54,26.881,M,39.399,M,2.8,0000*5D
$GNGGA,113350.00,3604.9736080,N,14004.6175287,E,4,09,1.54,26.886,M,39.399,M,3.0,0000*56
$GNGGA,113350.10,3604.9736669,N,14004.6174888,E,4,09,1.54,26.885,M,39.399,M,3.1,0000*50
$GNGGA,113350.20,3604.9737247,N,14004.6174527,E,4,09,1.54,26.879,M,39.399,M,3.2,0000*52
$GNGGA,113350.30,3604.9737893,N,14004.6174174,E,4,09,1.54,26.892,M,39.399,M,3.3,0000*56
$GNGGA,113350.40,3604.9738458,N,14004.6173909,E,4,09,1.54,26.897,M,39.399,M,3.4,0000*52
$GNGGA,113350.50,3604.9739008,N,14004.6173592,E,4,09,1.54,26.899,M,39.399,M,3.5,0000*52
$GNGGA,113350.60,3604.9739621,N,14004.6173247,E,4,09,1.54,26.898,M,39.399,M,3.6,0000*51
$GNGGA,113350.70,3604.9740181,N,14004.6172970,E,4,09,1.54,26.902,M,39.399,M,3.7,0000*5E
$GNGGA,113350.80,3604.9740686,N,14004.6172697,E,4,09,1.54,26.912,M,39.399,M,3.8,0000*59
$GNGGA,113351.00,3604.9741601,N,14004.6171929,E,4,09,1.54,26.925,M,39.399,M,4.0,0000*5C
$GNGGA,113351.10,3604.9742103,N,14004.6171441,E,4,09,1.54,26.925,M,39.399,M,4.1,0000*59
$GNGGA,113351.20,3604.9742601,N,14004.6170953,E,4,09,1.54,26.923,M,39.399,M,4.2,0000*55
$GNGGA,113351.30,3604.9743160,N,14004.6170439,E,4,09,1.54,26.925,M,39.399,M,4.3,0000*53
$GNGGA,113351.40,3604.9743699,N,14004.6170033,E,4,09,1.54,26.936,M,39.399,M,4.4,0000*5E
$GNGGA,113351.50,3604.9744171,N,14004.6169691,E,4,09,1.54,26.938,M,39.399,M,4.5,0000*50
$GNGGA,113351.60,3604.9744712,N,14004.6169166,E,4,09,1.54,26.938,M,39.399,M,4.6,0000*5C
$GNGGA,113351.70,3604.9745211,N,14004.6168764,E,4,09,1.54,26.942,M,39.399,M,4.7,0000*53
$GNGGA,113351.80,3604.9745676,N,14004.6168409,E,4,09,1.54,26.948,M,39.399,M,4.8,0000*54
$GNGGA,113352.00,3604.9746491,N,14004.6167626,E,4,09,1.54,26.966,M,39.399,M,5.0,0000*52
$GNGGA,113352.10,3604.9746895,N,14004.6167101,E,4,09,1.54,26.972,M,39.399,M,5.1,0000*5D
$GNGGA,113352.20,3604.9747304,N,14004.6166574,E,4,09,1.54,26.966,M,39.399,M,5.2,0000*5D
$GNGGA,113352.30,3604.9747717,N,14004.6166034,E,4,09,1.54,26.964,M,39.399,M,5.3,0000*58
$GNGGA,113352.50,3604.9748478,N,14004.6165312,E,4,09,1.54,26.986,M,39.399,M,5.5,0000*55
$GNGGA,113352.70,3604.9749082,N,14004.6164629,E,4,09,1.54,26.998,M,39.399,M,5.7,0000*56
$GNGGA,113352.90,3604.9749573,N,14004.6164150,E,4,09,1.54,27.017,M,39.399,M,5.9,0000*5B
$GNGGA,113353.20,3604.9749892,N,14004.6163582,E,4,09,1.54,27.035,M,39.399,M,1.2,0000*50
$GNGGA,113353.50,3604.9750068,N,14004.6162935,E,4,09,1.54,27.051,M,39.399,M,1.5,0000*56
$GNGGA,113353.80,3604.9750247,N,14004.6162263,E,4,09,1.54,27.057,M,39.399,M,1.8,0000*57
$GNGGA,113355.60,3604.9750295,N,14004.6161568,E,4,09,1.54,27.023,M,39.399,M,3.6,0000*50
$GNGGA,113356.10,3604.9750303,N,14004.6160795,E,4,09,1.54,27.015,M,39.399,M,4.1,0000*5E
$GNGGA,113356.40,3604.9750427,N,14004.6160048,E,4,09,1.54,27.035,M,39.399,M,4.4,0000*5A
$GNGGA,113356.80,3604.9750422,N,14004.6159216,E,4,09,1.54,27.056,M,39.399,M,4.8,0000*59
$GNGGA,113357.10,3604.9750239,N,14004.6158489,E,4,09,1.54,27.066,M,39.399,M,5.1,0000*57
$GNGGA,113357.40,3604.9749955,N,14004.6157831,E,4,09,1.54,27.076,M,39.399,M,5.4,0000*5F
$GNGGA,113357.80,3604.9749760,N,14004.6157063,E,4,09,1.54,27.079,M,39.399,M,5.8,0000*57
$GNGGA,113358.10,3604.9749846,N,14004.6156137,E,4,09,1.54,27.073,M,39.399,M,6.1,0000*5B
$GNGGA,113358.30,3604.9749949,N,14004.6155201,E,4,09,1.54,27.073,M,39.399,M,1.3,0000*57
$GNGGA,113358.50,3604.9750043,N,14004.6154356,E,4,09,1.54,27.083,M,39.399,M,1.5,0000*51
$GNGGA,113358.70,3604.9750108,N,14004.6153419,E,4,09,1.54,27.079,M,39.399,M,1.7,0000*51
$GNGGA,113358.90,3604.9750084,N,14004.6152278,E,4,09,1.54,27.065,M,39.399,M,1.9,0000*59
$GNGGA,113359.10,3604.9750199,N,14004.6151044,E,4,09,1.54,27.064,M,39.399,M,2.1,0000*59
$GNGGA,113359.30,3604.9750306,N,14004.6149952,E,4,09,1.54,27.061,M,39.399,M,2.3,0000*5F
$GNGGA,113359.50,3604.9750430,N,14004.6148699,E,4,09,1.54,27.057,M,39.399,M,2.5,0000*51
$GNGGA,113359.60,3604.9750489,N,14004.6148027,E,4,09,1.54,27.058,M,39.399,M,2.6,0000*5F
$GNGGA,113359.80,3604.9750547,N,14004.6146840,E,4,09,1.54,27.070,M,39.399,M,2.8,0000*51
$GNGGA,113400.00,3604.9750488,N,14004.6145482,E,4,09,1.54,27.053,M,39.399,M,3.0,0000*59
$GNGGA,113400.10,3604.9750476,N,14004.6144757,E,4,09,1.54,27.054,M,39.399,M,3.1,0000*55
$GNGGA,113400.20,3604.9750462,N,14004.6144021,E,4,09,1.54,27.047,M,39.399,M,3.2,0000*54
$GNGGA,113400.30,3604.9750560,N,14004.6143300,E,4,09,1.54,27.058,M,39.399,M,3.3,0000*5E
$GNGGA,113400.40,3604.9750636,N,14004.6142610,E,4,09,1.54,27.060,M,39.399,M,3.4,0000*50
$GNGGA,113400.50,3604.9750681,N,14004.6141877,E,4,09,1.54,27.063,M,39.399,M,3.5,0000*53
$GNGGA,113400.60,3604.9750761,N,14004.6141103,E,4,09,1.54,27.062,M,39.399,M,3.6,0000*57
$GNGGA,113400.70,3604.9750802,N,14004.6140437,E,4,09,1.54,27.067,M,39.399,M,3.7,0000*5B
$GNGGA,113400.80,3604.9750834,N,14004.6139760,E,4,09,1.54,27.074,M,39.399,M,3.8,0000*53
$GNGGA,113401.00,3604.9750734,N,14004.6138419,E,4,09,1.54,27.080,M,39.399,M,4.0,0000*5D
$GNGGA,113401.10,3604.9750698,N,14004.6137620,E,4,09,1.54,27.080,M,39.399,M,4.1,0000*5D
$GNGGA,113401.20,3604.9750647,N,14004.6136863,E,4,09,1.54,27.069,M,39.399,M,4.2,0000*50
$GNGGA,113401.30,3604.9750637,N,14004.6136094,E,4,09,1.54,27.070,M,39.399,M,4.3,0000*5F
$GNGGA,113401.40,3604.9750679,N,14004.6135362,E,4,09,1.54,27.079,M,39.399,M,4.4,0000*55
$GNGGA,113401.50,3604.9750715,N,14004.6134668,E,4,09,1.54,27.080,M,39.399,M,4.5,0000*56
$GNGGA,113401.60,3604.9750742,N,14004.6133926,E,4,09,1.54,27.083,M,39.399,M,4.6,0000*55
$GNGGA,113401.70,3604.9750781,N,14004.6133174,E,4,09,1.54,27.074,M,39.399,M,4.7,0000*5D
$GNGGA,113401.80,3604.9750855,N,14004.6132437,E,4,09,1.54,27.082,M,39.399,M,4.8,0000*51
$GNGGA,113402.00,3604.9750788,N,14004.6131181,E,4,09,1.54,27.081,M,39.399,M,5.0,0000*54
$GNGGA,113402.10,3604.9750744,N,14004.6130502,E,4,09,1.54,27.077,M,39.399,M,5.1,0000*53
$GNGGA,113402.20,3604.9750702,N,14004.6129782,E,4,09,1.54,27.071,M,39.399,M,5.2,0000*55
$GNGGA,113402.30,3604.9750689,N,14004.6129072,E,4,09,1.54,27.072,M,39.399,M,5.3,0000*5C
$GNGGA,113402.40,3604.9750724,N,14004.6128369,E,4,09,1.54,27.073,M,39.399,M,5.4,0000*53
$GNGGA,113402.60,3604.9750756,N,14004.6127203,E,4,09,1.54,27.071,M,39.399,M,5.6,0000*56
$GNGGA,113402.70,3604.9750758,N,14004.6126523,E,4,09,1.54,27.064,M,39.399,M,5.7,0000*58
$GNGGA,113402.80,3604.9750771,N,14004.6125838,E,4,09,1.54,27.063,M,39.399,M,5.8,0000*50
$GNGGA,113402.90,3604.9750794,N,14004.6125147,E,4,09,1.54,27.059,M,39.399,M,5.9,0000*53
$GNGGA,113403.10,3604.9750826,N,14004.6123996,E,4,09,1.54,27.064,M,39.399,M,6.1,0000*5B
$GNGGA,113403.30,3604.9750922,N,14004.6122659,E,4,09,1.54,27.055,M,39.399,M,1.3,0000*56
$GNGGA,113403.50,3604.9750968,N,14004.6121295,E,4,09,1.54,27.050,M,39.399,M,1.5,0000*5A
$GNGGA,113403.70,3604.9751205,N,14004.6120062,E,4,09,1.54,27.063,M,39.399,M,1.7,0000*50
$GNGGA,113403.90,3604.9751447,N,14004.6118808,E,4,09,1.54,27.052,M,39.399,M,1.9,0000*5D
$GNGGA,113404.10,3604.9751696,N,14004.6117617,E,4,09,1.54,27.062,M,39.399,M,2.1,0000*5B
$GNGGA,113404.30,3604.9751793,N,14004.6116502,E,4,09,1.54,27.063,M,39.399,M,2.3,0000*58
$GNGGA,113404.50,3604.9751923,N,14004.6115193,E,4,09,1.54,27.052,M,39.399,M,2.5,0000*50
$GNGGA,113404.70,3604.9752103,N,14004.6113971,E,4,09,1.54,27.044,M,39.399,M,2.7,0000*5C
$GNGGA,113404.90,3604.9752209,N,14004.6112905,E,4,09,1.54,27.046,M,39.399,M,2.9,0000*55
$GNGGA,113405.10,3604.9752397,N,14004.6111675,E,4,09,1.54,27.037,M,39.399,M,3.1,0000*5E
$GNGGA,113405.30,3604.9752550,N,14004.6110640,E,4,09,1.54,27.048,M,39.399,M,3.3,0000*5C
$GNGGA,113405.50,3604.9752573,N,14004.6109541,E,4,09,1.54,27.048,M,39.399,M,3.5,0000*57
$GNGGA,113405.70,3604.9752624,N,14004.6108359,E,4,09,1.54,27.045,M,39.399,M,3.7,0000*55
$GNGGA,113405.90,3604.9752740,N,14004.6107385,E,4,09,1.54,27.054,M,39.399,M,3.9,0000*58
$GNGGA,113406.10,3604.9752847,N,14004.6106493,E,4,09,1.54,27.054,M,39.399,M,4.1,0000*55
$GNGGA,113406.30,3604.9753042,N,14004.6105617,E,4,09,1.54,27.050,M,39.399,M,4.3,0000*50
$GNGGA,113406.50,3604.9753228,N,14004.6104853,E,4,09,1.54,27.053,M,39.399,M,4.5,0000*52
$GNGGA,113406.80,3604.9753491,N,14004.6104024,E,4,09,1.54,27.066,M,39.399,M,4.8,0000*58
$GNGGA,113407.10,3604.9753680,N,14004.6103237,E,4,09,1.54,27.069,M,39.399,M,5.1,0000*52
$GNGGA,113407.60,3604.9753810,N,14004.6102586,E,4,09,1.54,27.050,M,39.399,M,5.6,0000*53
$GNGGA,113409.90,3604.9753361,N,14004.6102165,E,4,09,1.54,27.090,M,39.399,M,2.9,0000*52
$GNGGA,113410.60,3604.9752934,N,14004.6101588,E,4,09,1.54,27.101,M,39.399,M,3.6,0000*5D
$GNGGA,113412.70,3604.9752410,N,14004.6101414,E,4,09,1.54,27.083,M,39.399,M,5.7,0000*5D
$GNGGA,113415.30,3604.9752962,N,14004.6101183,E,4,09,1.54,27.109,M,39.399,M,3.3,0000*5C
$GNGGA,113416.00,3604.9753062,N,14004.6100401,E,4,09,1.54,27.101,M,39.399,M,4.0,0000*56
$GNGGA,113416.40,3604.9753193,N,14004.6099714,E,4,09,1.54,27.111,M,39.399,M,4.4,0000*5E
$GNGGA,113417.10,3604.9753406,N,14004.6099045,E,4,09,1.54,27.077,M,39.399,M,5.1,0000*55
$GNGGA,113417.50,3604.9753738,N,14004.6098357,E,4,09,1.54,27.078,M,39.399,M,5.5,0000*55
$GNGGA,113417.90,3604.9754090,N,14004.6097638,E,4,09,1.54,27.058,M,39.399,M,5.9,0000*56
$GNGGA,113418.20,3604.9754322,N,14004.6096863,E,4,09,1.54,27.058,M,39.399,M,1.2,0000*56
$GNGGA,113427.50,3604.9753760,N,14004.6096824,E,4,09,1.54,27.129,M,39.399,M,5.5,0000*5F
$GNGGA,113428.40,3604.9753202,N,14004.6096894,E,4,09,1.54,27.152,M,39.399,M,1.4,0000*52
$GNGGA,113429.00,3604.9752665,N,14004.6096322,E,4,09,1.54,27.144,M,39.399,M,2.0,0000*55
$GNGGA,113429.20,3604.9752259,N,14004.6095798,E,4,09,1.54,27.141,M,39.399,M,2.2,0000*5D
$GNGGA,113429.40,3604.9751865,N,14004.6095033,E,4,09,1.54,27.139,M,39.399,M,2.4,0000*52
$GNGGA,113429.60,3604.9751544,N,14004.6094234,E,4,09,1.54,27.137,M,39.399,M,2.6,0000*56
$GNGGA,113429.80,3604.9751356,N,14004.6093322,E,4,09,1.54,27.134,M,39.399,M,2.8,0000*51
$GNGGA,113430.00,3604.9751362,N,14004.6092339,E,4,09,1.54,27.121,M,39.399,M,3.0,0000*50
$GNGGA,113430.20,3604.9751453,N,14004.6091263,E,4,09,1.54,27.125,M,39.399,M,3.2,0000*5C
$GNGGA,113430.40,3604.9751485,N,14004.6090169,E,4,09,1.54,27.162,M,39.400,M,3.4,0000*5B
$GNGGA,113430.60,3604.9751499,N,14004.6088857,E,4,09,1.54,27.183,M,39.400,M,3.6,0000*54
$GNGGA,113430.80,3604.9751547,N,14004.6087539,E,4,09,1.54,27.195,M,39.400,M,3.8,0000*5B
$GNGGA,113431.00,3604.9751639,N,14004.6086356,E,4,09,1.54,27.213,M,39.400,M,4.0,0000*54
$GNGGA,113431.10,3604.9751637,N,14004.6085653,E,4,09,1.54,27.212,M,39.400,M,4.1,0000*58
$GNGGA,113431.20,3604.9751656,N,14004.6084978,E,4,09,1.54,27.209,M,39.400,M,4.2,0000*52
$GNGGA,113431.30,3604.9751690,N,14004.6084283,E,4,09,1.54,27.214,M,39.400,M,4.3,0000*5B
$GNGGA,113431.40,3604.9751688,N,14004.6083599,E,4,09,1.54,27.216,M,39.400,M,4.4,0000*5B
$GNGGA,113431.50,3604.9751630,N,14004.6082915,E,4,09,1.54,27.219,M,39.400,M,4.5,0000*5E
$GNGGA,113431.60,3604.9751570,N,14004.6082200,E,4,09,1.54,27.219,M,39.400,M,4.6,0000*56
$GNGGA,113431.70,3604.9751515,N,14004.6081446,E,4,09,1.54,27.217,M,39.400,M,4.7,0000*5C
$GNGGA,113431.80,3604.9751428,N,14004.6080698,E,4,09,1.54,27.205,M,39.400,M,4.8,0000*50
$GNGGA,113431.90,3604.9751447,N,14004.6079934,E,4,09,1.54,27.204,M,39.400,M,4.9,0000*57
$GNGGA,113432.00,3604.9751514,N,14004.6079204,E,4,09,1.54,27.221,M,39.400,M,5.0,0000*5D
$GNGGA,113432.10,3604.9751542,N,14004.6078510,E,4,09,1.54,27.227,M,39.400,M,5.1,0000*5B
$GNGGA,113432.20,3604.9751578,N,14004.6077740,E,4,09,1.54,27.220,M,39.400,M,5.2,0000*5D
$GNGGA,113432.30,3604.9751629,N,14004.6076989,E,4,09,1.54,27.220,M,39.400,M,5.3,0000*50
$GNGGA,113432.40,3604.9751731,N,14004.6076252,E,4,09,1.54,27.229,M,39.400,M,5.4,0000*5C
$GNGGA,113432.50,3604.9751814,N,14004.6075571,E,4,09,1.54,27.240,M,39.400,M,5.5,0000*5E
$GNGGA,113432.60,3604.9751851,N,14004.6074854,E,4,09,1.54,27.247,M,39.400,M,5.6,0000*53
$GNGGA,113432.70,3604.9751876,N,14004.6074092,E,4,09,1.54,27.249,M,39.400,M,5.7,0000*5A
$GNGGA,113432.80,3604.9751920,N,14004.6073323,E,4,09,1.54,27.239,M,39.400,M,5.8,0000*51
$GNGGA,113432.90,3604.9751944,N,14004.6072551,E,4,09,1.54,27.237,M,39.400,M,5.9,0000*5F
$GNGGA,113433.00,3604.9752010,N,14004.6071823,E,4,09,1.54,27.247,M,39.400,M,6.0,0000*5A
$GNGGA,113433.10,3604.9752102,N,14004.6071106,E,4,09,1.54,27.254,M,39.400,M,6.1,0000*54
$GNGGA,113433.20,3604.9752182,N,14004.6070387,E,4,09,1.54,27.255,M,39.400,M,1.2,0000*50
$GNGGA,113433.30,3604.9752271,N,14004.6069621,E,4,09,1.54,27.248,M,39.400,M,1.3,0000*52
$GNGGA,113433.40,3604.9752356,N,14004.6068909,E,4,09,1.54,27.243,M,39.400,M,1.4,0000*59
$GNGGA,113433.50,3604.9752430,N,14004.6068231,E,4,09,1.54,27.245,M,39.400,M,1.5,0000*58
$GNGGA,113433.70,3604.9752422,N,14004.6066809,E,4,09,1.54,27.248,M,39.400,M,1.7,0000*59
$GNGGA,113433.80,3604.9752419,N,14004.6066009,E,4,09,1.54,27.240,M,39.400,M,1.8,0000*51
$GNGGA,113433.90,3604.9752412,N,14004.6065239,E,4,09,1.54,27.237,M,39.400,M,1.9,0000*58
$GNGGA,113434.00,3604.9752431,N,14004.6064508,E,4,09,1.54,27.233,M,39.400,M,2.0,0000*5D
$GNGGA,113434.10,3604.9752476,N,14004.6063793,E,4,09,1.54,27.235,M,39.400,M,2.1,0000*5F
$GNGGA,113434.20,3604.9752546,N,14004.6063096,E,4,09,1.54,27.232,M,39.400,M,2.2,0000*58
$GNGGA,113434.30,3604.9752605,N,14004.6062308,E,4,09,1.54,27.218,M,39.400,M,2.3,0000*51
$GNGGA,113434.40,3604.9752709,N,14004.6061567,E,4,09,1.54,27.218,M,39.400,M,2.4,0000*50
$GNGGA,113434.50,3604.9752807,N,14004.6060805,E,4,09,1.54,27.218,M,39.400,M,2.5,0000*59
$GNGGA,113434.60,3604.9752895,N,14004.6060064,E,4,09,1.54,27.221,M,39.400,M,2.6,0000*57
$GNGGA,113434.70,3604.9752894,N,14004.6059312,E,4,09,1.54,27.218,M,39.400,M,2.7,0000*54
$GNGGA,113434.80,3604.9752908,N,14004.6058434,E,4,09,1.54,27.211,M,39.400,M,2.8,0000*5B
$GNGGA,113434.90,3604.9752909,N,14004.6057592,E,4,09,1.54,27.202,M,39.400,M,2.9,0000*5A
$GNGGA,113435.00,3604.9752911,N,14004.6056799,E,4,09,1.54,27.202,M,39.400,M,3.0,0000*5B
$GNGGA,113435.10,3604.9752969,N,14004.6056012,E,4,09,1.54,27.207,M,39.400,M,3.1,0000*55
$GNGGA,113435.20,3604.9753004,N,14004.6055295,E,4,09,1.54,27.206,M,39.400,M,3.2,0000*59
$GNGGA,113435.30,3604.9753088,N,14004.6054464,E,4,09,1.54,27.208,M,39.400,M,3.3,0000*5A
$GNGGA,113435.40,3604.9753170,N,14004.6053637,E,4,09,1.54,27.198,M,39.400,M,3.4,0000*55
$GNGGA,113435.50,3604.9753210,N,14004.6052861,E,4,09,1.54,27.212,M,39.400,M,3.5,0000*5D
$GNGGA,113435.60,3604.9753270,N,14004.6052141,E,4,09,1.54,27.222,M,39.400,M,3.6,0000*53
$GNGGA,113435.70,3604.9753301,N,14004.6051411,E,4,09,1.54,27.227,M,39.400,M,3.7,0000*52
$GNGGA,113435.80,3604.9753376,N,14004.6050553,E,4,09,1.54,27.227,M,39.400,M,3.8,0000*54
$GNGGA,113435.90,3604.9753433,N,14004.6049728,E,4,09,1.54,27.226,M,39.400,M,3.9,0000*55
$GNGGA,113436.00,3604.9753508,N,14004.6048915,E,4,09,1.54,27.219,M,39.400,M,4.0,0000*55
$GNGGA,113436.10,3604.9753666,N,14004.6048115,E,4,09,1.54,27.235,M,39.400,M,4.1,0000*58
$GNGGA,113436.20,3604.9753770,N,14004.6047381,E,4,09,1.54,27.229,M,39.400,M,4.2,0000*53
$GNGGA,113436.30,3604.9753901,N,14004.6046587,E,4,09,1.54,27.224,M,39.400,M,4.3,0000*57
$GNGGA,113436.40,3604.9754043,N,14004.6045715,E,4,09,1.54,27.225,M,39.400,M,4.4,0000*54
$GNGGA,113436.50,3604.9754194,N,14004.6044980,E,4,09,1.54,27.226,M,39.400,M,4.5,0000*5F
$GNGGA,113436.60,3604.9754317,N,14004.6044217,E,4,09,1.54,27.237,M,39.400,M,4.6,0000*53
$GNGGA,113436.70,3604.9754343,N,14004.6043484,E,4,09,1.54,27.244,M,39.400,M,4.7,0000*5D
$GNGGA,113436.80,3604.9754359,N,14004.6042685,E,4,09,1.54,27.241,M,39.400,M,4.8,0000*51
$GNGGA,113436.90,3604.9754384,N,14004.6041804,E,4,09,1.54,27.234,M,39.400,M,4.9,0000*57
$GNGGA,113437.00,3604.9754412,N,14004.6040956,E,4,09,1.54,27.229,M,39.400,M,5.0,0000*54
$GNGGA,113437.10,3604.9754487,N,14004.6040133,E,4,09,1.54,27.233,M,39.400,M,5.1,0000*58
$GNGGA,113437.20,3604.9754562,N,14004.6039331,E,4,09,1.54,27.238,M,39.400,M,5.2,0000*57
$GNGGA,113437.30,3604.9754674,N,14004.6038494,E,4,09,1.54,27.234,M,39.400,M,5.3,0000*56
$GNGGA,113437.40,3604.9754800,N,14004.6037602,E,4,09,1.54,27.226,M,39.400,M,5.4,0000*5A
$GNGGA,113437.50,3604.9754890,N,14004.6036790,E,4,09,1.54,27.230,M,39.400,M,5.5,0000*5F
$GNGGA,113437.60,3604.9754945,N,14004.6036022,E,4,09,1.54,27.238,M,39.400,M,5.6,0000*50
$GNGGA,113437.70,3604.9754925,N,14004.6035268,E,4,09,1.54,27.234,M,39.400,M,5.7,0000*55
$GNGGA,113437.80,3604.9754944,N,14004.6034407,E,4,09,1.54,27.236,M,39.400,M,5.8,0000*5E
$GNGGA,113437.90,3604.9754990,N,14004.6033489,E,4,09,1.54,27.228,M,39.400,M,5.9,0000*59
$GNGGA,113438.00,3604.9755000,N,14004.6032571,E,4,09,1.54,27.220,M,39.400,M,6.0,0000*5B
$GNGGA,113438.10,3604.9755079,N,14004.6031719,E,4,09,1.54,27.221,M,39.400,M,6.1,0000*5B
$GNGGA,113438.20,3604.9755191,N,14004.6030929,E,4,09,1.54,27.223,M,39.400,M,1.2,0000*55
$GNGGA,113438.30,3604.9755295,N,14004.6030107,E,4,09,1.54,27.218,M,39.400,M,1.3,0000*5E
$GNGGA,113438.40,3604.9755440,N,14004.6029248,E,4,09,1.54,27.212,M,39.400,M,1.4,0000*5A
$GNGGA,113438.50,3604.9755529,N,14004.6028429,E,4,09,1.54,27.209,M,39.400,M,1.5,0000*5E
$GNGGA,113438.60,3604.9755588,N,14004.6027660,E,4,09,1.54,27.214,M,39.400,M,1.6,0000*59
$GNGGA,113438.70,3604.9755576,N,14004.6026924,E,4,09,1.54,27.205,M,39.400,M,1.7,0000*56
$GNGGA,113438.80,3604.9755598,N,14004.6026097,E,4,09,1.54,27.201,M,39.400,M,1.8,0000*53
$GNGGA,113438.90,3604.9755587,N,14004.6025218,E,4,09,1.54,27.195,M,39.400,M,1.9,0000*55
$GNGGA,113439.00,3604.9755609,N,14004.6024329,E,4,09,1.54,27.188,M,39.400,M,2.0,0000*5C
$GNGGA,113439.10,3604.9755685,N,14004.6023488,E,4,09,1.54,27.202,M,39.400,M,2.1,0000*52
$GNGGA,113439.20,3604.9755736,N,14004.6022733,E,4,09,1.54,27.196,M,39.400,M,2.2,0000*57
$GNGGA,113439.30,3604.9755838,N,14004.6021912,E,4,09,1.54,27.197,M,39.400,M,2.3,0000*59
$GNGGA,113439.40,3604.9755940,N,14004.6021026,E,4,09,1.54,27.189,M,39.400,M,2.4,0000*56
$GNGGA,113439.50,3604.9756003,N,14004.6020235,E,4,09,1.54,27.192,M,39.400,M,2.5,0000*50
$GNGGA,113439.60,3604.9756062,N,14004.6019485,E,4,09,1.54,27.193,M,39.400,M,2.6,0000*51
$GNGGA,113439.70,3604.9756080,N,14004.6018733,E,4,09,1.54,27.190,M,39.400,M,2.7,0000*51
$GNGGA,113439.80,3604.9756051,N,14004.6017905,E,4,09,1.54,27.191,M,39.400,M,2.8,0000*58
$GNGGA,113439.90,3604.9756050,N,14004.6017062,E,4,09,1.54,27.181,M,39.400,M,2.9,0000*50
$GNGGA,113440.00,3604.9756048,N,14004.6016242,E,4,09,1.54,27.177,M,39.400,M,3.0,0000*5E
$GNGGA,113440.10,3604.9756082,N,14004.6015418,E,4,09,1.54,27.183,M,39.400,M,3.1,0000*59
$GNGGA,113440.20,3604.9756157,N,14004.6014648,E,4,09,1.54,27.189,M,39.400,M,3.2,0000*5C
$GNGGA,113440.30,3604.9756228,N,14004.6013874,E,4,09,1.54,27.188,M,39.400,M,3.3,0000*50
$GNGGA,113440.40,3604.9756265,N,14004.6013024,E,4,09,1.54,27.186,M,39.400,M,3.4,0000*5A
$GNGGA,113440.50,3604.9756363,N,14004.6012231,E,4,09,1.54,27.193,M,39.400,M,3.5,0000*5E
$GNGGA,113440.60,3604.9756396,N,14004.6011529,E,4,09,1.54,27.198,M,39.400,M,3.6,0000*52
$GNGGA,113440.70,3604.9756400,N,14004.6010784,E,4,09,1.54,27.205,M,39.400,M,3.7,0000*59
$GNGGA,113440.80,3604.9756400,N,14004.6009979,E,4,09,1.54,27.207,M,39.400,M,3.8,0000*5F
$GNGGA,113440.90,3604.9756405,N,14004.6009152,E,4,09,1.54,27.210,M,39.400,M,3.9,0000*5D
$GNGGA,113441.00,3604.9756412,N,14004.6008341,E,4,09,1.54,27.201,M,39.400,M,4.0,0000*5C
$GNGGA,113441.10,3604.9756463,N,14004.6007598,E,4,09,1.54,27.209,M,39.400,M,4.1,0000*5F
$GNGGA,113441.20,3604.9756529,N,14004.6006867,E,4,09,1.54,27.214,M,39.400,M,4.2,0000*50
$GNGGA,113441.30,3604.9756600,N,14004.6006118,E,4,09,1.54,27.208,M,39.400,M,4.3,0000*54
$GNGGA,113441.40,3604.9756652,N,14004.6005289,E,4,09,1.54,27.205,M,39.400,M,4.4,0000*56
$GNGGA,113441.50,3604.9756742,N,14004.6004530,E,4,09,1.54,27.198,M,39.400,M,4.5,0000*55
$GNGGA,113441.60,3604.9756784,N,14004.6003797,E,4,09,1.54,27.204,M,39.400,M,4.6,0000*51
$GNGGA,113441.70,3604.9756826,N,14004.6003111,E,4,09,1.54,27.199,M,39.400,M,4.7,0000*59
$GNGGA,113441.80,3604.9756861,N,14004.6002371,E,4,09,1.54,27.209,M,39.400,M,4.8,0000*55
$GNGGA,113441.90,3604.9756897,N,14004.6001518,E,4,09,1.54,27.200,M,39.400,M,4.9,0000*5F
$GNGGA,113442.00,3604.9756929,N,14004.6000679,E,4,09,1.54,27.191,M,39.400,M,5.0,0000*57
$GNGGA,113442.10,3604.9756976,N,14004.5999874,E,4,09,1.54,27.201,M,39.400,M,5.1,0000*5E
$GNGGA,113442.20,3604.9757042,N,14004.5999133,E,4,09,1.54,27.201,M,39.400,M,5.2,0000*5B
$GNGGA,113442.30,3604.9757133,N,14004.5998381,E,4,09,1.54,27.205,M,39.400,M,5.3,0000*52
$GNGGA,113442.40,3604.9757224,N,14004.5997512,E,4,09,1.54,27.200,M,39.400,M,5.4,0000*51
$GNGGA,113442.50,3604.9757304,N,14004.5996693,E,4,09,1.54,27.205,M,39.400,M,5.5,0000*5C
$GNGGA,113442.60,3604.9757397,N,14004.5995966,E,4,09,1.54,27.204,M,39.400,M,5.6,0000*51
$GNGGA,113442.70,3604.9757408,N,14004.5995252,E,4,09,1.54,27.213,M,39.400,M,5.7,0000*5A
$GNGGA,113442.80,3604.9757375,N,14004.5994475,E,4,09,1.54,27.218,M,39.400,M,5.8,0000*5E
$GNGGA,113442.90,3604.9757372,N,14004.5993627,E,4,09,1.54,27.213,M,39.400,M,5.9,0000*50
$GNGGA,113443.00,3604.9757337,N,14004.5992786,E,4,09,1.54,27.206,M,39.400,M,6.0,0000*5C
$GNGGA,113443.10,3604.9757338,N,14004.5991956,E,4,09,1.54,27.213,M,39.400,M,6.1,0000*57
$GNGGA,113443.20,3604.9757378,N,14004.5991190,E,4,09,1.54,27.222,M,39.400,M,6.2,0000*53
$GNGGA,113443.30,3604.9757426,N,14004.5990482,E,4,09,1.54,27.218,M,39.400,M,6.3,0000*51
$GNGGA,113443.40,3604.9757517,N,14004.5989653,E,4,09,1.54,27.217,M,39.400,M,6.4,0000*5B
$GNGGA,113443.50,3604.9757601,N,14004.5988860,E,4,09,1.54,27.214,M,39.400,M,6.5,0000*53
$GNGGA,113443.60,3604.9757623,N,14004.5988158,E,4,09,1.54,27.219,M,39.400,M,6.6,0000*5C
$GNGGA,113443.70,3604.9757652,N,14004.5987448,E,4,09,1.54,27.223,M,39.400,M,6.7,0000*58
$GNGGA,113443.80,3604.9757657,N,14004.5986675,E,4,09,1.54,27.225,M,39.400,M,6.8,0000*56
$GNGGA,113443.90,3604.9757669,N,14004.5985840,E,4,09,1.54,27.219,M,39.400,M,6.9,0000*5F
$GNGGA,113444.00,3604.9757712,N,14004.5984999,E,4,09,1.54,27.214,M,39.400,M,7.0,0000*5D
$GNGGA,113444.10,3604.9757730,N,14004.5984184,E,4,09,1.54,27.215,M,39.400,M,7.1,0000*58
$GNGGA,113444.20,3604.9757794,N,14004.5983347,E,4,09,1.54,27.219,M,39.400,M,2.2,0000*55
$GNGGA,113444.30,3604.9757863,N,14004.5982593,E,4,09,1.54,27.221,M,39.400,M,2.3,0000*57
$GNGGA,113444.40,3604.9757945,N,14004.5981797,E,4,09,1.54,27.212,M,39.400,M,2.4,0000*57
$GNGGA,113444.50,3604.9758025,N,14004.5980960,E,4,09,1.54,27.203,M,39.400,M,2.5,0000*50
$GNGGA,113444.60,3604.9758109,N,14004.5980211,E,4,09,1.54,27.203,M,39.400,M,2.6,0000*52
$GNGGA,113444.70,3604.9758107,N,14004.5979459,E,4,09,1.54,27.206,M,39.400,M,2.7,0000*55
$GNGGA,113444.80,3604.9758083,N,14004.5978737,E,4,09,1.54,27.199,M,39.400,M,2.8,0000*57
$GNGGA,113444.90,3604.9758090,N,14004.5977892,E,4,09,1.54,27.197,M,39.400,M,2.9,0000*54
$GNGGA,113445.00,3604.9758087,N,14004.5977056,E,4,09,1.54,27.189,M,39.400,M,3.0,0000*5D
$GNGGA,113445.10,3604.9758116,N,14004.5976213,E,4,09,1.54,27.184,M,39.400,M,3.1,0000*5B
$GNGGA,113445.20,3604.9758200,N,14004.5975328,E,4,09,1.54,27.187,M,39.400,M,3.2,0000*56
$GNGGA,113445.30,3604.9758267,N,14004.5974524,E,4,09,1.54,27.191,M,39.400,M,3.3,0000*5B
$GNGGA,113445.40,3604.9758320,N,14004.5973704,E,4,09,1.54,27.186,M,39.400,M,3.4,0000*58
$GNGGA,113445.50,3604.9758412,N,14004.5972800,E,4,09,1.54,27.181,M,39.400,M,3.5,0000*53
$GNGGA,113445.60,3604.9758465,N,14004.5971950,E,4,09,1.54,27.178,M,39.400,M,3.6,0000*52
$GNGGA,113445.70,3604.9758503,N,14004.5971164,E,4,09,1.54,27.181,M,39.400,M,3.7,0000*5A
$GNGGA,113445.80,3604.9758498,N,14004.5970399,E,4,09,1.54,27.191,M,39.400,M,3.8,0000*59
$GNGGA,113445.90,3604.9758487,N,14004.5969559,E,4,09,1.54,27.181,M,39.400,M,3.9,0000*54
$GNGGA,113446.00,3604.9758488,N,14004.5968653,E,4,09,1.54,27.176,M,39.400,M,4.0,0000*5F
$GNGGA,113446.10,3604.9758507,N,14004.5967733,E,4,09,1.54,27.171,M,39.400,M,4.1,0000*56
$GNGGA,113446.20,3604.9758550,N,14004.5966871,E,4,09,1.54,27.181,M,39.400,M,4.2,0000*53
$GNGGA,113446.30,3604.9758624,N,14004.5966064,E,4,09,1.54,27.180,M,39.400,M,4.3,0000*5E
$GNGGA,113446.40,3604.9758673,N,14004.5965212,E,4,09,1.54,27.180,M,39.400,M,4.4,0000*5C
$GNGGA,113446.50,3604.9758776,N,14004.5964326,E,4,09,1.54,27.178,M,39.400,M,4.5,0000*58
$GNGGA,113446.60,3604.9758836,N,14004.5963569,E,4,09,1.54,27.174,M,39.400,M,4.6,0000*55
$GNGGA,113446.70,3604.9758895,N,14004.5962795,E,4,09,1.54,27.180,M,39.400,M,4.7,0000*57
$GNGGA,113446.80,3604.9758905,N,14004.5962014,E,4,09,1.54,27.184,M,39.400,M,4.8,0000*55
$GNGGA,113446.90,3604.9758968,N,14004.5961144,E,4,09,1.54,27.180,M,39.400,M,4.9,0000*5D
$GNGGA,113447.00,3604.9759009,N,14004.5960263,E,4,09,1.54,27.173,M,39.400,M,5.0,0000*59
$GNGGA,113447.10,3604.9759062,N,14004.5959406,E,4,09,1.54,27.174,M,39.400,M,5.1,0000*5C
$GNGGA,113447.20,3604.9759179,N,14004.5958513,E,4,09,1.54,27.182,M,39.400,M,5.2,0000*5A
$GNGGA,113447.30,3604.9759285,N,14004.5957743,E,4,09,1.54,27.180,M,39.400,M,5.3,0000*50
$GNGGA,113447.40,3604.9759379,N,14004.5956885,E,4,09,1.54,27.179,M,39.400,M,5.4,0000*50
$GNGGA,113447.50,3604.9759473,N,14004.5955981,E,4,09,1.54,27.176,M,39.400,M,5.5,0000*54
$GNGGA,113447.60,3604.9759551,N,14004.5955176,E,4,09,1.54,27.174,M,39.400,M,5.6,0000*57
$GNGGA,113447.70,3604.9759553,N,14004.5954416,E,4,09,1.54,27.181,M,39.400,M,5.7,0000*5D
$GNGGA,113447.80,3604.9759544,N,14004.5953602,E,4,09,1.54,27.176,M,39.400,M,5.8,0000*53
$GNGGA,113447.90,3604.9759581,N,14004.5952686,E,4,09,1.54,27.177,M,39.400,M,5.9,0000*56
$GNGGA,113448.00,3604.9759595,N,14004.5951777,E,4,09,1.54,27.170,M,39.400,M,6.0,0000*54
$GNGGA,113448.10,3604.9759645,N,14004.5950888,E,4,09,1.54,27.168,M,39.400,M,6.1,0000*5D
$GNGGA,113448.20,3604.9759756,N,14004.5950005,E,4,09,1.54,27.168,M,39.400,M,1.2,0000*54
$GNGGA,113448.30,3604.9759869,N,14004.5949179,E,4,09,1.54,27.175,M,39.400,M,1.3,0000*59
$GNGGA,113448.40,3604.9759979,N,14004.5948278,E,4,09,1.54,27.166,M,39.400,M,1.4,0000*58
$GNGGA,113448.50,3604.9760116,N,14004.5947372,E,4,09,1.54,27.163,M,39.400,M,1.5,0000*52
$GNGGA,113448.60,3604.9760232,N,14004.5946569,E,4,09,1.54,27.162,M,39.400,M,1.6,0000*5B
$GNGGA,113448.70,3604.9760242,N,14004.5945809,E,4,09,1.54,27.169,M,39.400,M,1.7,0000*5F
$GNGGA,113448.80,3604.9760259,N,14004.5944965,E,4,09,1.54,27.166,M,39.400,M,1.8,0000*50
$GNGGA,113448.90,3604.9760280,N,14004.5944039,E,4,09,1.54,27.159,M,39.400,M,1.9,0000*58
$GNGGA,113449.00,3604.9760279,N,14004.5943152,E,4,09,1.54,27.155,M,39.400,M,2.0,0000*5B
$GNGGA,113449.10,3604.9760322,N,14004.5942253,E,4,09,1.54,27.149,M,39.400,M,2.1,0000*5A
$GNGGA,113449.20,3604.9760377,N,14004.5941419,E,4,09,1.54,27.159,M,39.400,M,2.2,0000*50
