$GNGGA,104033.50,3605.0779503,N,14004.7979501,E,4,12,1.21,26.501,M,39.392,M,1.5,0000*54
$GNGGA,104033.60,3605.0779692,N,14004.7978394,E,2,12,1.83,26.484,M,39.392,M,1.6,0000*56
$GNGGA,104033.70,3605.0779697,N,14004.7977219,E,2,12,1.37,26.472,M,39.392,M,1.7,0000*5E
$GNGGA,104033.80,3605.0779637,N,14004.7975935,E,2,12,1.21,26.464,M,39.392,M,1.8,0000*53
$GNGGA,104033.90,3605.0779803,N,14004.7974489,E,2,12,1.21,26.432,M,39.392,M,1.9,0000*52
$GNGGA,104034.00,3605.0779824,N,14004.7972834,E,2,12,1.21,26.457,M,39.392,M,2.0,0000*5C
$GNGGA,104034.20,3605.0779967,N,14004.7969781,E,2,12,1.21,26.478,M,39.392,M,2.2,0000*5C
$GNGGA,104034.30,3605.0780066,N,14004.7968094,E,2,12,1.21,26.502,M,39.392,M,2.3,0000*5C
$GNGGA,104034.40,3605.0780327,N,14004.7966347,E,2,12,1.21,26.451,M,39.392,M,2.4,0000*5E
$GNGGA,104034.50,3605.0780344,N,14004.7964501,E,2,12,1.21,26.443,M,39.392,M,2.5,0000*5E
$GNGGA,104034.60,3605.0780371,N,14004.7962658,E,2,12,1.21,26.485,M,39.392,M,2.6,0000*5B
$GNGGA,104034.70,3605.0780349,N,14004.7960945,E,2,12,1.21,26.434,M,39.392,M,2.7,0000*5B
$GNGGA,104034.80,3605.0780505,N,14004.7959159,E,2,12,1.21,26.442,M,39.392,M,2.8,0000*5B
$GNGGA,104034.90,3605.0780688,N,14004.7957346,E,2,12,1.21,26.471,M,39.392,M,2.9,0000*5F
$GNGGA,104035.00,3605.0780769,N,14004.7955315,E,2,12,1.21,26.422,M,39.392,M,3.0,0000*53
$GNGGA,104035.10,3605.0780763,N,14004.7953262,E,2,12,1.21,26.439,M,39.392,M,3.1,0000*54
$GNGGA,104035.20,3605.0780753,N,14004.7951288,E,2,12,1.21,26.450,M,39.392,M,3.2,0000*5E
$GNGGA,104035.30,3605.0780802,N,14004.7949308,E,2,12,1.21,26.411,M,39.392,M,3.3,0000*50
$GNGGA,104035.40,3605.0780840,N,14004.7947312,E,2,12,1.21,26.470,M,39.392,M,3.4,0000*54
$GNGGA,104035.50,3605.0781015,N,14004.7945418,E,2,12,1.21,26.453,M,39.392,M,3.5,0000*53
$GNGGA,104035.60,3605.0781034,N,14004.7943393,E,5,12,1.21,26.430,M,39.392,M,3.6,0000*50
$GNGGA,104035.70,3605.0781165,N,14004.7941072,E,4,12,1.21,26.462,M,39.392,M,3.7,0000*5D
$GNGGA,104035.80,3605.0781174,N,14004.7939086,E,4,12,1.21,26.485,M,39.392,M,3.8,0000*50
$GNGGA,104035.90,3605.0781218,N,14004.7937113,E,4,12,1.21,26.484,M,39.392,M,3.9,0000*5B
$GNGGA,104036.00,3605.0781273,N,14004.7935242,E,4,12,1.21,26.484,M,39.392,M,4.0,0000*57
$GNGGA,104036.10,3605.0781452,N,14004.7933434,E,4,12,1.21,26.492,M,39.392,M,4.1,0000*54
$GNGGA,104036.20,3605.0781638,N,14004.7931587,E,4,12,1.21,26.482,M,39.392,M,4.2,0000*50
$GNGGA,104036.30,3605.0781679,N,14004.7929584,E,4,12,1.21,26.483,M,39.392,M,4.3,0000*5E
$GNGGA,104036.40,3605.0781735,N,14004.7927809,E,4,12,1.21,26.486,M,39.392,M,4.4,0000*54
$GNGGA,104036.50,3605.0781760,N,14004.7926004,E,4,12,1.21,26.483,M,39.392,M,4.5,0000*55
$GNGGA,104036.60,3605.0781808,N,14004.7924222,E,4,12,1.21,26.477,M,39.392,M,4.6,0000*5B
$GNGGA,104036.70,3605.0781950,N,14004.7922674,E,4,12,1.21,26.473,M,39.392,M,4.7,0000*52
$GNGGA,104036.80,3605.0782087,N,14004.7920967,E,4,12,1.21,26.462,M,39.392,M,4.8,0000*5D
$GNGGA,104036.90,3605.0782143,N,14004.7919149,E,4,12,1.21,26.439,M,39.392,M,4.9,0000*54
$GNGGA,104037.00,3605.0782200,N,14004.7917445,E,4,12,1.21,26.430,M,39.392,M,5.0,0000*5E
$GNGGA,104037.10,3605.0782262,N,14004.7915684,E,4,12,1.21,26.434,M,39.392,M,5.1,0000*53
$GNGGA,104037.20,3605.0782340,N,14004.7913935,E,4,12,1.21,26.407,M,39.392,M,5.2,0000*51
$GNGGA,104037.30,3605.0782446,N,14004.7912486,E,4,12,1.21,26.407,M,39.392,M,5.3,0000*54
$GNGGA,104037.40,3605.0782510,N,14004.7910933,E,4,12,1.21,26.423,M,39.392,M,5.4,0000*51
$GNGGA,104037.50,3605.0782598,N,14004.7909433,E,4,12,1.21,26.421,M,39.392,M,5.5,0000*56
$GNGGA,104037.60,3605.0782687,N,14004.7907812,E,4,12,1.21,26.422,M,39.392,M,5.6,0000*59
$GNGGA,104037.70,3605.0782711,N,14004.7906181,E,4,12,1.21,26.432,M,39.392,M,5.7,0000*54
$GNGGA,104037.80,3605.0782702,N,14004.7904590,E,4,12,1.21,26.419,M,39.392,M,5.8,0000*59
$GNGGA,104037.90,3605.0782843,N,14004.7903340,E,4,12,1.21,26.409,M,39.392,M,5.9,0000*5E
$GNGGA,104038.00,3605.0782963,N,14004.7901983,E,4,12,1.21,26.434,M,39.392,M,6.0,0000*58
$GNGGA,104038.10,3605.0783067,N,14004.7900683,E,4,12,1.21,26.457,M,39.392,M,6.1,0000*5F
$GNGGA,104038.20,3605.0783119,N,14004.7899341,E,4,12,1.21,26.442,M,39.392,M,1.2,0000*5E
$GNGGA,104038.30,3605.0783201,N,14004.7897984,E,4,12,1.21,26.449,M,39.392,M,1.3,0000*52
$GNGGA,104038.40,3605.0783280,N,14004.7896769,E,4,12,1.21,26.468,M,39.392,M,1.4,0000*54
$GNGGA,104038.50,3605.0783316,N,14004.7895429,E,4,12,1.21,26.471,M,39.392,M,1.5,0000*56
$GNGGA,104038.60,3605.0783373,N,14004.7894177,E,4,12,1.21,26.456,M,39.392,M,1.6,0000*5F
$GNGGA,104038.70,3605.0783480,N,14004.7892967,E,4,12,1.21,26.470,M,39.392,M,1.7,0000*5F
$GNGGA,104038.80,3605.0783581,N,14004.7891996,E,4,12,1.21,26.494,M,39.392,M,1.8,0000*58
$GNGGA,104038.90,3605.0783731,N,14004.7890877,E,4,12,1.21,26.497,M,39.392,M,1.9,0000*5D
$GNGGA,104039.00,3605.0783799,N,14004.7889767,E,4,12,1.21,26.485,M,39.392,M,2.0,0000*58
$GNGGA,104039.10,3605.0783865,N,14004.7888745,E,4,12,1.21,26.474,M,39.392,M,2.1,0000*5B
$GNGGA,104039.20,3605.0783978,N,14004.7887710,E,4,12,1.21,26.491,M,39.392,M,2.2,0000*52
$GNGGA,104039.30,3605.0784050,N,14004.7886576,E,4,12,1.21,26.515,M,39.392,M,2.3,0000*58
$GNGGA,104039.40,3605.0784117,N,14004.7885521,E,4,12,1.21,26.505,M,39.392,M,2.4,0000*5A
$GNGGA,104039.50,3605.0784214,N,14004.7884542,E,4,12,1.21,26.505,M,39.392,M,2.5,0000*5E
$GNGGA,104039.60,3605.0784336,N,14004.7883640,E,4,12,1.21,26.512,M,39.392,M,2.6,0000*5F
$GNGGA,104039.70,3605.0784462,N,14004.7882844,E,4,12,1.21,26.530,M,39.392,M,2.7,0000*52
$GNGGA,104039.80,3605.0784614,N,14004.7881817,E,4,12,1.21,26.516,M,39.392,M,2.8,0000*50
$GNGGA,104039.90,3605.0784732,N,14004.7880960,E,4,12,1.21,26.493,M,39.392,M,2.9,0000*59
$GNGGA,104040.00,3605.0784866,N,14004.7880014,E,4,12,1.21,26.474,M,39.392,M,3.0,0000*5B
$GNGGA,104040.10,3605.0784984,N,14004.7879183,E,4,12,1.21,26.470,M,39.392,M,3.1,0000*5B
$GNGGA,104040.20,3605.0785069,N,14004.7878223,E,4,12,1.21,26.488,M,39.392,M,3.2,0000*5F
$GNGGA,104040.30,3605.0785143,N,14004.7877355,E,4,12,1.21,26.473,M,39.392,M,3.3,0000*5D
$GNGGA,104040.40,3605.0785288,N,14004.7876469,E,4,12,1.21,26.458,M,39.392,M,3.4,0000*59
$GNGGA,104040.50,3605.0785378,N,14004.7875515,E,4,12,1.21,26.466,M,39.392,M,3.5,0000*53
$GNGGA,104040.60,3605.0785447,N,14004.7874781,E,4,12,1.21,26.463,M,39.392,M,3.6,0000*53
$GNGGA,104040.70,3605.0785540,N,14004.7873886,E,4,12,1.21,26.474,M,39.392,M,3.7,0000*5C
$GNGGA,104040.80,3605.0785621,N,14004.7872967,E,4,12,1.21,26.475,M,39.392,M,3.8,0000*56
$GNGGA,104040.90,3605.0785721,N,14004.7872043,E,4,12,1.21,26.469,M,39.392,M,3.9,0000*55
$GNGGA,104041.00,3605.0785822,N,14004.7871158,E,4,12,1.21,26.471,M,39.392,M,4.0,0000*5E
$GNGGA,104041.10,3605.0785885,N,14004.7870251,E,4,12,1.21,26.489,M,39.392,M,4.1,0000*5F
$GNGGA,104041.20,3605.0785990,N,14004.7869473,E,4,12,1.21,26.485,M,39.392,M,4.2,0000*58
$GNGGA,104041.30,3605.0785984,N,14004.7868526,E,4,12,1.21,26.500,M,39.392,M,4.3,0000*51
$GNGGA,104041.40,3605.0786062,N,14004.7867686,E,4,12,1.21,26.488,M,39.392,M,4.4,0000*54
$GNGGA,104041.50,3605.0786071,N,14004.7866791,E,4,12,1.21,26.486,M,39.392,M,4.5,0000*5E
$GNGGA,104041.60,3605.0786151,N,14004.7865983,E,4,12,1.21,26.495,M,39.392,M,4.6,0000*51
$GNGGA,104041.70,3605.0786203,N,14004.7865267,E,4,12,1.21,26.491,M,39.392,M,4.7,0000*50
$GNGGA,104041.80,3605.0786283,N,14004.7864480,E,4,12,1.21,26.474,M,39.392,M,4.8,0000*5D
$GNGGA,104041.90,3605.0786351,N,14004.7863672,E,4,12,1.21,26.454,M,39.392,M,4.9,0000*59
$GNGGA,104042.00,3605.0786394,N,14004.7862824,E,4,12,1.21,26.450,M,39.392,M,5.0,0000*5A
$GNGGA,104042.20,3605.0786479,N,14004.7861296,E,4,12,1.21,26.450,M,39.392,M,5.2,0000*5E
$GNGGA,104042.30,3605.0786488,N,14004.7860566,E,4,12,1.21,26.454,M,39.392,M,5.3,0000*5D
$GNGGA,104042.40,3605.0786492,N,14004.7859704,E,4,12,1.21,26.427,M,39.392,M,5.4,0000*5E
$GNGGA,104042.50,3605.0786441,N,14004.7858843,E,4,12,1.21,26.419,M,39.392,M,5.5,0000*50
$GNGGA,104042.60,3605.0786447,N,14004.7858131,E,4,12,1.21,26.411,M,39.392,M,5.6,0000*52
$GNGGA,104042.70,3605.0786462,N,14004.7857361,E,4,12,1.21,26.415,M,39.392,M,5.7,0000*59
$GNGGA,104042.80,3605.0786512,N,14004.7856593,E,4,12,1.21,26.412,M,39.392,M,5.8,0000*52
$GNGGA,104042.90,3605.0786521,N,14004.7855709,E,4,12,1.21,26.403,M,39.392,M,5.9,0000*50
$GNGGA,104043.00,3605.0786546,N,14004.7854858,E,4,12,1.21,26.391,M,39.392,M,6.0,0000*55
$GNGGA,104043.10,3605.0786566,N,14004.7853987,E,4,12,1.21,26.385,M,39.392,M,6.1,0000*56
$GNGGA,104043.20,3605.0786537,N,14004.7853110,E,4,12,1.21,26.413,M,39.392,M,6.2,0000*5C
$GNGGA,104043.40,3605.0786420,N,14004.7851312,E,4,12,1.21,26.415,M,39.392,M,6.4,0000*5F
$GNGGA,104043.50,3605.0786361,N,14004.7850387,E,4,12,1.21,26.424,M,39.392,M,6.5,0000*52
$GNGGA,104043.60,3605.0786381,N,14004.7849613,E,4,12,1.21,26.422,M,39.392,M,6.6,0000*5A
$GNGGA,104043.70,3605.0786399,N,14004.7848866,E,4,12,1.21,26.434,M,39.392,M,6.7,0000*59
$GNGGA,104043.80,3605.0786475,N,14004.7848125,E,4,12,1.21,26.452,M,39.392,M,6.8,0000*52
$GNGGA,104043.90,3605.0786585,N,14004.7847244,E,4,12,1.21,26.449,M,39.392,M,6.9,0000*5D
$GNGGA,104044.00,3605.0786611,N,14004.7846379,E,4,12,1.21,26.443,M,39.392,M,7.0,0000*51
$GNGGA,104044.10,3605.0786678,N,14004.7845582,E,4,12,1.21,26.444,M,39.392,M,7.1,0000*58
$GNGGA,104044.20,3605.0786755,N,14004.7844818,E,4,12,1.21,26.460,M,39.392,M,2.2,0000*5A
$GNGGA,104044.40,3605.0786742,N,14004.7843248,E,4,12,1.21,26.469,M,39.392,M,2.4,0000*5D
$GNGGA,104044.50,3605.0786728,N,14004.7842430,E,4,12,1.21,26.459,M,39.392,M,2.5,0000*5A
$GNGGA,104044.60,3605.0786708,N,14004.7841592,E,4,12,1.21,26.465,M,39.392,M,2.6,0000*5D
$GNGGA,104044.70,3605.0786712,N,14004.7840867,E,4,12,1.21,26.471,M,39.392,M,2.7,0000*55
$GNGGA,104044.90,3605.0786686,N,14004.7839406,E,4,12,1.21,26.492,M,39.392,M,2.9,0000*51
$GNGGA,104045.00,3605.0786650,N,14004.7838577,E,4,12,1.21,26.487,M,39.392,M,3.0,0000*58
$GNGGA,104045.10,3605.0786608,N,14004.7837823,E,4,12,1.21,26.488,M,39.392,M,3.1,0000*59
$GNGGA,104045.20,3605.0786582,N,14004.7837074,E,4,12,1.21,26.492,M,39.392,M,3.2,0000*59
$GNGGA,104045.40,3605.0786350,N,14004.7835880,E,4,12,1.21,26.514,M,39.392,M,3.4,0000*5E
$GNGGA,104045.60,3605.0786003,N,14004.7834761,E,4,12,1.21,26.523,M,39.392,M,3.6,0000*5E
$GNGGA,104045.80,3605.0785513,N,14004.7833779,E,4,12,1.21,26.521,M,39.392,M,3.8,0000*55
$GNGGA,104046.00,3605.0785079,N,14004.7833040,E,4,12,1.21,26.539,M,39.392,M,4.0,0000*5C
$GNGGA,104046.20,3605.0784614,N,14004.7832487,E,4,12,1.21,26.540,M,39.392,M,4.2,0000*50
$GNGGA,104046.50,3605.0784167,N,14004.7831953,E,4,12,1.21,26.546,M,39.392,M,4.5,0000*52
$GNGGA,104047.00,3605.0783711,N,14004.7831549,E,4,12,1.21,26.547,M,39.392,M,5.0,0000*54
$GNGGA,104047.30,3605.0783168,N,14004.7831682,E,4,12,1.21,26.536,M,39.392,M,5.3,0000*5E
$GNGGA,104047.60,3605.0782456,N,14004.7831884,E,4,12,1.21,26.531,M,39.392,M,5.6,0000*58
$GNGGA,104047.80,3605.0781840,N,14004.7831979,E,4,12,1.21,26.529,M,39.392,M,5.8,0000*5A
$GNGGA,104048.00,3605.0781055,N,14004.7831926,E,4,12,1.21,26.515,M,39.392,M,6.0,0000*5F
$GNGGA,104048.20,3605.0780094,N,14004.7831836,E,4,12,1.21,26.514,M,39.392,M,1.2,0000*55
$GNGGA,104048.40,3605.0779143,N,14004.7831746,E,4,12,1.21,26.520,M,39.392,M,1.4,0000*57
$GNGGA,104048.60,3605.0778199,N,14004.7831720,E,4,12,1.21,26.516,M,39.392,M,1.6,0000*54
$GNGGA,104048.80,3605.0777176,N,14004.7831667,E,4,12,1.21,26.516,M,39.392,M,1.8,0000*58
$GNGGA,104049.00,3605.0776238,N,14004.7831500,E,4,12,1.21,26.520,M,39.392,M,2.0,0000*55
$GNGGA,104049.20,3605.0775189,N,14004.7831336,E,4,12,1.21,26.499,M,39.392,M,2.2,0000*5F
$GNGGA,104049.40,3605.0774128,N,14004.7831162,E,4,12,1.21,26.512,M,39.392,M,2.4,0000*54
$GNGGA,104049.60,3605.0773125,N,14004.7831052,E,4,12,1.21,26.527,M,39.392,M,2.6,0000*5A
$GNGGA,104049.70,3605.0772573,N,14004.7831025,E,4,12,1.21,26.516,M,39.392,M,2.7,0000*5E
$GNGGA,104049.90,3605.0771516,N,14004.7831007,E,4,12,1.21,26.509,M,39.392,M,2.9,0000*50
$GNGGA,104050.20,3605.0769942,N,14004.7830950,E,4,12,1.21,26.509,M,39.392,M,3.2,0000*57
$GNGGA,104050.30,3605.0769400,N,14004.7830926,E,4,12,1.21,26.491,M,39.392,M,3.3,0000*5D
$GNGGA,104050.50,3605.0768289,N,14004.7830821,E,4,12,1.21,26.487,M,39.392,M,3.5,0000*5A
$GNGGA,104050.70,3605.0767231,N,14004.7830801,E,4,12,1.21,26.510,M,39.392,M,3.7,0000*5B
$GNGGA,104050.80,3605.0766671,N,14004.7830825,E,4,12,1.21,26.505,M,39.392,M,3.8,0000*58
$GNGGA,104050.90,3605.0766032,N,14004.7830795,E,4,12,1.21,26.485,M,39.392,M,3.9,0000*54
$GNGGA,104051.00,3605.0765456,N,14004.7830806,E,4,12,1.21,26.474,M,39.392,M,4.0,0000*5C
$GNGGA,104051.10,3605.0764883,N,14004.7830826,E,4,12,1.21,26.483,M,39.392,M,4.1,0000*53
$GNGGA,104051.20,3605.0764343,N,14004.7830730,E,4,12,1.21,26.490,M,39.392,M,4.2,0000*5E
$GNGGA,104051.30,3605.0763712,N,14004.7830630,E,4,12,1.21,26.490,M,39.392,M,4.3,0000*58
$GNGGA,104051.40,3605.0763048,N,14004.7830655,E,4,12,1.21,26.473,M,39.392,M,4.4,0000*5E
$GNGGA,104051.50,3605.0762437,N,14004.7830612,E,4,12,1.21,26.466,M,39.392,M,4.5,0000*54
$GNGGA,104051.60,3605.0761750,N,14004.7830531,E,4,12,1.21,26.467,M,39.392,M,4.6,0000*56
$GNGGA,104051.70,3605.0761186,N,14004.7830541,E,4,12,1.21,26.477,M,39.392,M,4.7,0000*5D
$GNGGA,104051.80,3605.0760617,N,14004.7830515,E,4,12,1.21,26.494,M,39.392,M,4.8,0000*5F
$GNGGA,104051.90,3605.0760049,N,14004.7830551,E,4,12,1.21,26.488,M,39.392,M,4.9,0000*5F
$GNGGA,104052.00,3605.0759399,N,14004.7830569,E,4,12,1.21,26.478,M,39.392,M,5.0,0000*5D
$GNGGA,104052.20,3605.0758160,N,14004.7830713,E,4,12,1.21,26.483,M,39.392,M,5.2,0000*53
$GNGGA,104052.30,3605.0757604,N,14004.7830805,E,4,12,1.21,26.497,M,39.392,M,5.3,0000*54
$GNGGA,104052.40,3605.0757009,N,14004.7830862,E,4,12,1.21,26.489,M,39.392,M,5.4,0000*51
$GNGGA,104052.50,3605.0756291,N,14004.7830931,E,4,12,1.21,26.484,M,39.392,M,5.5,0000*59
$GNGGA,104052.60,3605.0755684,N,14004.7830995,E,4,12,1.21,26.474,M,39.392,M,5.6,0000*5B
$GNGGA,104052.70,3605.0755033,N,14004.7831141,E,4,12,1.21,26.474,M,39.392,M,5.7,0000*51
$GNGGA,104052.80,3605.0754366,N,14004.7831316,E,4,12,1.21,26.483,M,39.392,M,5.8,0000*5B
$GNGGA,104052.90,3605.0753733,N,14004.7831502,E,4,12,1.21,26.480,M,39.392,M,5.9,0000*58
$GNGGA,104053.00,3605.0753091,N,14004.7831668,E,4,12,1.21,26.479,M,39.392,M,6.0,0000*5C
$GNGGA,104053.20,3605.0751925,N,14004.7831791,E,4,12,1.21,26.481,M,39.392,M,1.2,0000*5F
$GNGGA,104053.40,3605.0750798,N,14004.7832005,E,4,12,1.21,26.497,M,39.392,M,1.4,0000*58
$GNGGA,104053.50,3605.0750192,N,14004.7832038,E,4,12,1.21,26.484,M,39.392,M,1.5,0000*58
$GNGGA,104053.60,3605.0749518,N,14004.7832174,E,4,12,1.21,26.470,M,39.392,M,1.6,0000*54
$GNGGA,104053.70,3605.0748904,N,14004.7832260,E,4,12,1.21,26.470,M,39.392,M,1.7,0000*52
$GNGGA,104053.80,3605.0748373,N,14004.7832381,E,4,12,1.21,26.461,M,39.392,M,1.8,0000*56
$GNGGA,104054.00,3605.0747287,N,14004.7832596,E,4,12,1.21,26.475,M,39.392,M,2.0,0000*52
$GNGGA,104054.20,3605.0746234,N,14004.7832735,E,4,12,1.21,26.458,M,39.393,M,2.2,0000*5E
$GNGGA,104054.40,3605.0745136,N,14004.7832897,E,4,12,1.21,26.465,M,39.393,M,2.4,0000*55
$GNGGA,104054.60,3605.0744068,N,14004.7832890,E,4,12,1.21,26.464,M,39.393,M,2.6,0000*58
$GNGGA,104054.70,3605.0743477,N,14004.7832847,E,4,12,1.21,26.456,M,39.393,M,2.7,0000*5E
$GNGGA,104054.80,3605.0742900,N,14004.7832845,E,4,12,1.21,26.451,M,39.393,M,2.8,0000*57
$GNGGA,104054.90,3605.0742313,N,14004.7832879,E,4,12,1.21,26.465,M,39.393,M,2.9,0000*57
$GNGGA,104055.00,3605.0741681,N,14004.7832974,E,4,12,1.21,26.471,M,39.393,M,3.0,0000*53
$GNGGA,104055.10,3605.0741056,N,14004.7832987,E,4,12,1.21,26.470,M,39.393,M,3.1,0000*52
$GNGGA,104055.20,3605.0740455,N,14004.7832970,E,4,12,1.21,26.469,M,39.393,M,3.2,0000*54
$GNGGA,104055.30,3605.0739825,N,14004.7832935,E,4,12,1.21,26.454,M,39.393,M,3.3,0000*5E
$GNGGA,104055.40,3605.0739220,N,14004.7832866,E,4,12,1.21,26.458,M,39.393,M,3.4,0000*5A
$GNGGA,104055.50,3605.0738647,N,14004.7832867,E,4,12,1.21,26.462,M,39.393,M,3.5,0000*56
$GNGGA,104055.60,3605.0738003,N,14004.7832760,E,4,12,1.21,26.469,M,39.393,M,3.6,0000*53
$GNGGA,104055.70,3605.0737362,N,14004.7832705,E,4,12,1.21,26.454,M,39.393,M,3.7,0000*55
$GNGGA,104055.80,3605.0736654,N,14004.7832575,E,4,12,1.21,26.449,M,39.393,M,3.8,0000*5D
$GNGGA,104055.90,3605.0736012,N,14004.7832536,E,4,12,1.21,26.434,M,39.393,M,3.9,0000*54
$GNGGA,104056.00,3605.0735392,N,14004.7832440,E,4,12,1.21,26.444,M,39.393,M,4.0,0000*5F
$GNGGA,104056.10,3605.0734764,N,14004.7832307,E,4,12,1.21,26.441,M,39.393,M,4.1,0000*52
$GNGGA,104056.20,3605.0734134,N,14004.7832219,E,4,12,1.21,26.433,M,39.393,M,4.2,0000*5A
$GNGGA,104056.30,3605.0733433,N,14004.7832152,E,4,12,1.21,26.424,M,39.393,M,4.3,0000*55
$GNGGA,104056.40,3605.0732723,N,14004.7832022,E,4,12,1.21,26.410,M,39.393,M,4.4,0000*57
$GNGGA,104056.50,3605.0732087,N,14004.7831927,E,4,12,1.21,26.416,M,39.393,M,4.5,0000*57
$GNGGA,104056.60,3605.0731499,N,14004.7831863,E,4,12,1.21,26.419,M,39.393,M,4.6,0000*51
$GNGGA,104056.70,3605.0730843,N,14004.7831714,E,4,12,1.21,26.408,M,39.393,M,4.7,0000*54
$GNGGA,104056.80,3605.0730166,N,14004.7831550,E,4,12,1.21,26.411,M,39.393,M,4.8,0000*50
$GNGGA,104056.90,3605.0729498,N,14004.7831355,E,4,12,1.21,26.407,M,39.393,M,4.9,0000*58
$GNGGA,104057.00,3605.0728888,N,14004.7831331,E,4,12,1.21,26.399,M,39.393,M,5.0,0000*56
$GNGGA,104057.10,3605.0728225,N,14004.7831227,E,4,12,1.21,26.413,M,39.393,M,5.1,0000*58
$GNGGA,104057.20,3605.0727544,N,14004.7831072,E,4,12,1.21,26.422,M,39.393,M,5.2,0000*57
$GNGGA,104057.30,3605.0726834,N,14004.7830990,E,4,12,1.21,26.410,M,39.393,M,5.3,0000*59
$GNGGA,104057.40,3605.0726164,N,14004.7830877,E,4,12,1.21,26.402,M,39.393,M,5.4,0000*5E
$GNGGA,104057.50,3605.0725515,N,14004.7830780,E,4,12,1.21,26.412,M,39.393,M,5.5,0000*59
$GNGGA,104057.60,3605.0724879,N,14004.7830734,E,4,12,1.21,26.436,M,39.393,M,5.6,0000*56
$GNGGA,104057.70,3605.0724201,N,14004.7830644,E,4,12,1.21,26.419,M,39.393,M,5.7,0000*58
$GNGGA,104057.80,3605.0723469,N,14004.7830472,E,4,12,1.21,26.411,M,39.393,M,5.8,0000*58
$GNGGA,104057.90,3605.0722782,N,14004.7830348,E,4,12,1.21,26.399,M,39.393,M,5.9,0000*56
$GNGGA,104058.00,3605.0722119,N,14004.7830337,E,4,12,1.21,26.399,M,39.393,M,6.0,0000*56
$GNGGA,104058.10,3605.0721451,N,14004.7830309,E,4,12,1.21,26.400,M,39.393,M,6.1,0000*56
$GNGGA,104058.20,3605.0720776,N,14004.7830231,E,4,12,1.21,26.399,M,39.393,M,1.2,0000*5B
$GNGGA,104058.40,3605.0719431,N,14004.7830089,E,4,12,1.21,26.383,M,39.393,M,1.4,0000*5B
$GNGGA,104058.50,3605.0718734,N,14004.7829987,E,4,12,1.21,26.399,M,39.393,M,1.5,0000*58
$GNGGA,104058.60,3605.0718103,N,14004.7829976,E,4,12,1.21,26.399,M,39.393,M,1.6,0000*54
$GNGGA,104058.70,3605.0717423,N,14004.7829877,E,4,12,1.21,26.390,M,39.393,M,1.7,0000*55
$GNGGA,104058.80,3605.0716697,N,14004.7829744,E,4,12,1.21,26.379,M,39.393,M,1.8,0000*51
$GNGGA,104058.90,3605.0716029,N,14004.7829643,E,4,12,1.21,26.363,M,39.393,M,1.9,0000*5F
$GNGGA,104059.00,3605.0715356,N,14004.7829582,E,4,12,1.21,26.372,M,39.393,M,2.0,0000*5B
$GNGGA,104059.10,3605.0714678,N,14004.7829498,E,4,12,1.21,26.384,M,39.393,M,2.1,0000*50
$GNGGA,104059.20,3605.0714019,N,14004.7829505,E,4,12,1.21,26.383,M,39.393,M,2.2,0000*53
$GNGGA,104059.30,3605.0713314,N,14004.7829470,E,4,12,1.21,26.371,M,39.393,M,2.3,0000*54
$GNGGA,104059.40,3605.0712600,N,14004.7829407,E,4,12,1.21,26.353,M,39.393,M,2.4,0000*55
$GNGGA,104059.50,3605.0711934,N,14004.7829368,E,4,12,1.21,26.345,M,39.393,M,2.5,0000*57
$GNGGA,104059.60,3605.0711310,N,14004.7829262,E,4,12,1.21,26.368,M,39.393,M,2.6,0000*5F
$GNGGA,104059.70,3605.0710671,N,14004.7829227,E,4,12,1.21,26.361,M,39.393,M,2.7,0000*54
$GNGGA,104059.80,3605.0709973,N,14004.7829121,E,4,12,1.21,26.353,M,39.393,M,2.8,0000*55
$GNGGA,104059.90,3605.0709287,N,14004.7828975,E,4,12,1.21,26.341,M,39.393,M,2.9,0000*5E
$GNGGA,104100.00,3605.0708618,N,14004.7828893,E,4,12,1.21,26.348,M,39.393,M,3.0,0000*51
$GNGGA,104100.10,3605.0708018,N,14004.7828878,E,4,12,1.21,26.358,M,39.393,M,3.1,0000*53
$GNGGA,104100.20,3605.0707370,N,14004.7828858,E,4,12,1.21,26.358,M,39.393,M,3.2,0000*53
$GNGGA,104100.30,3605.0706673,N,14004.7828793,E,4,12,1.21,26.350,M,39.393,M,3.3,0000*54
$GNGGA,104100.40,3605.0705981,N,14004.7828720,E,4,12,1.21,26.348,M,39.393,M,3.4,0000*54
$GNGGA,104100.50,3605.0705340,N,14004.7828730,E,4,12,1.21,26.352,M,39.393,M,3.5,0000*59
$GNGGA,104100.60,3605.0704704,N,14004.7828636,E,4,12,1.21,26.354,M,39.393,M,3.6,0000*5D
$GNGGA,104100.70,3605.0704070,N,14004.7828532,E,4,12,1.21,26.346,M,39.393,M,3.7,0000*5D
$GNGGA,104100.80,3605.0703323,N,14004.7828433,E,4,12,1.21,26.334,M,39.393,M,3.8,0000*5A
$GNGGA,104100.90,3605.0702612,N,14004.7828320,E,4,12,1.21,26.319,M,39.393,M,3.9,0000*56
$GNGGA,104101.00,3605.0701946,N,14004.7828281,E,4,12,1.21,26.320,M,39.393,M,4.0,0000*5D
$GNGGA,104101.10,3605.0701280,N,14004.7828206,E,4,12,1.21,26.331,M,39.393,M,4.1,0000*53
$GNGGA,104101.20,3605.0700636,N,14004.7828215,E,4,12,1.21,26.326,M,39.393,M,4.2,0000*5F
$GNGGA,104101.30,3605.0699923,N,14004.7828119,E,4,12,1.21,26.317,M,39.393,M,4.3,0000*58
$GNGGA,104101.40,3605.0699226,N,14004.7828056,E,4,12,1.21,26.314,M,39.393,M,4.4,0000*5F
$GNGGA,104101.50,3605.0698555,N,14004.7828079,E,4,12,1.21,26.310,M,39.393,M,4.5,0000*54
$GNGGA,104101.60,3605.0697960,N,14004.7827974,E,4,12,1.21,26.323,M,39.393,M,4.6,0000*5A
$GNGGA,104101.70,3605.0697297,N,14004.7827894,E,4,12,1.21,26.326,M,39.393,M,4.7,0000*53
$GNGGA,104101.80,3605.0696533,N,14004.7827766,E,4,12,1.21,26.317,M,39.393,M,4.8,0000*5B
$GNGGA,104101.90,3605.0695862,N,14004.7827673,E,4,12,1.21,26.300,M,39.393,M,4.9,0000*52
$GNGGA,104102.00,3605.0695156,N,14004.7827548,E,4,12,1.21,26.309,M,39.393,M,5.0,0000*5C
$GNGGA,104102.10,3605.0694477,N,14004.7827506,E,4,12,1.21,26.316,M,39.393,M,5.1,0000*5F
$GNGGA,104102.20,3605.0693811,N,14004.7827458,E,4,12,1.21,26.312,M,39.393,M,5.2,0000*5A
$GNGGA,104102.30,3605.0693083,N,14004.7827316,E,4,12,1.21,26.311,M,39.393,M,5.3,0000*57
$GNGGA,104102.40,3605.0692342,N,14004.7827246,E,4,12,1.21,26.294,M,39.393,M,5.4,0000*50
$GNGGA,104102.50,3605.0691674,N,14004.7827203,E,4,12,1.21,26.295,M,39.393,M,5.5,0000*53
$GNGGA,104102.60,3605.0691019,N,14004.7827113,E,4,12,1.21,26.304,M,39.393,M,5.6,0000*55
$GNGGA,104102.70,3605.0690381,N,14004.7827055,E,4,12,1.21,26.306,M,39.393,M,5.7,0000*57
$GNGGA,104102.80,3605.0689583,N,14004.7826949,E,4,12,1.21,26.295,M,39.393,M,5.8,0000*55
$GNGGA,104102.90,3605.0688875,N,14004.7826809,E,4,12,1.21,26.292,M,39.393,M,5.9,0000*52
$GNGGA,104103.00,3605.0688180,N,14004.7826747,E,4,12,1.21,26.300,M,39.393,M,6.0,0000*5C
$GNGGA,104103.10,3605.0687529,N,14004.7826723,E,4,12,1.21,26.319,M,39.393,M,6.1,0000*5E
$GNGGA,104103.20,3605.0686860,N,14004.7826627,E,4,12,1.21,26.316,M,39.393,M,1.2,0000*52
$GNGGA,104103.30,3605.0686139,N,14004.7826480,E,4,12,1.21,26.313,M,39.393,M,1.3,0000*5D
$GNGGA,104103.40,3605.0685452,N,14004.7826423,E,4,12,1.21,26.312,M,39.393,M,1.4,0000*5E
$GNGGA,104103.50,3605.0684783,N,14004.7826362,E,4,12,1.21,26.312,M,39.393,M,1.5,0000*52
$GNGGA,104103.60,3605.0684137,N,14004.7826227,E,4,12,1.21,26.325,M,39.393,M,1.6,0000*5F
$GNGGA,104103.70,3605.0683451,N,14004.7826145,E,4,12,1.21,26.329,M,39.393,M,1.7,0000*56
$GNGGA,104103.80,3605.0682742,N,14004.7826038,E,4,12,1.21,26.316,M,39.393,M,1.8,0000*51
$GNGGA,104103.90,3605.0682025,N,14004.7825932,E,4,12,1.21,26.302,M,39.393,M,1.9,0000*52
$GNGGA,104104.00,3605.0681334,N,14004.7825811,E,4,12,1.21,26.307,M,39.393,M,2.0,0000*53
$GNGGA,104104.20,3605.0679978,N,14004.7825767,E,4,12,1.21,26.308,M,39.393,M,2.2,0000*57
$GNGGA,104104.30,3605.0679292,N,14004.7825813,E,4,12,1.21,26.293,M,39.393,M,2.3,0000*57
$GNGGA,104104.40,3605.0678561,N,14004.7825768,E,4,12,1.21,26.283,M,39.393,M,2.4,0000*5F
$GNGGA,104104.50,3605.0677860,N,14004.7825774,E,4,12,1.21,26.291,M,39.393,M,2.5,0000*52
$GNGGA,104104.60,3605.0677227,N,14004.7825757,E,4,12,1.21,26.295,M,39.393,M,2.6,0000*5E
$GNGGA,104104.70,3605.0676564,N,14004.7825712,E,4,12,1.21,26.297,M,39.393,M,2.7,0000*5C
$GNGGA,104104.80,3605.0675796,N,14004.7825626,E,4,12,1.21,26.285,M,39.393,M,2.8,0000*55
$GNGGA,104104.90,3605.0675082,N,14004.7825524,E,4,12,1.21,26.277,M,39.393,M,2.9,0000*5B
$GNGGA,104105.00,3605.0674385,N,14004.7825513,E,4,12,1.21,26.281,M,39.393,M,3.0,0000*53
$GNGGA,104105.10,3605.0673727,N,14004.7825505,E,4,12,1.21,26.284,M,39.393,M,3.1,0000*5A
$GNGGA,104105.20,3605.0673050,N,14004.7825502,E,4,12,1.21,26.287,M,39.393,M,3.2,0000*59
$GNGGA,104105.30,3605.0672355,N,14004.7825438,E,4,12,1.21,26.286,M,39.393,M,3.3,0000*57
$GNGGA,104105.40,3605.0671648,N,14004.7825395,E,4,12,1.21,26.268,M,39.393,M,3.4,0000*5D
$GNGGA,104105.50,3605.0670954,N,14004.7825388,E,4,12,1.21,26.264,M,39.393,M,3.5,0000*5E
$GNGGA,104105.60,3605.0670338,N,14004.7825290,E,4,12,1.21,26.283,M,39.393,M,3.6,0000*5F
$GNGGA,104105.70,3605.0669680,N,14004.7825227,E,4,12,1.21,26.273,M,39.393,M,3.7,0000*52
$GNGGA,104105.80,3605.0668895,N,14004.7825136,E,4,12,1.21,26.253,M,39.393,M,3.8,0000*58
$GNGGA,104105.90,3605.0668196,N,14004.7824997,E,4,12,1.21,26.252,M,39.393,M,3.9,0000*51
$GNGGA,104106.00,3605.0667493,N,14004.7824929,E,4,12,1.21,26.248,M,39.393,M,4.0,0000*54
$GNGGA,104106.10,3605.0666805,N,14004.7824858,E,4,12,1.21,26.259,M,39.393,M,4.1,0000*51
$GNGGA,104106.20,3605.0666150,N,14004.7824858,E,4,12,1.21,26.258,M,39.393,M,4.2,0000*59
$GNGGA,104106.40,3605.0664767,N,14004.7824718,E,4,12,1.21,26.261,M,39.393,M,4.4,0000*58
$GNGGA,104106.50,3605.0664030,N,14004.7824676,E,4,12,1.21,26.263,M,39.393,M,4.5,0000*56
$GNGGA,104106.60,3605.0663455,N,14004.7824640,E,4,12,1.21,26.273,M,39.393,M,4.6,0000*52
$GNGGA,104106.70,3605.0662757,N,14004.7824515,E,4,12,1.21,26.261,M,39.393,M,4.7,0000*52
$GNGGA,104106.80,3605.0662021,N,14004.7824371,E,4,12,1.21,26.258,M,39.393,M,4.8,0000*5A
$GNGGA,104106.90,3605.0661351,N,14004.7824288,E,4,12,1.21,26.242,M,39.393,M,4.9,0000*51
$GNGGA,104107.00,3605.0660667,N,14004.7824195,E,4,12,1.21,26.252,M,39.393,M,5.0,0000*5E
$GNGGA,104107.10,3605.0660030,N,14004.7824169,E,4,12,1.21,26.261,M,39.393,M,5.1,0000*59
$GNGGA,104107.20,3605.0659345,N,14004.7824159,E,4,12,1.21,26.250,M,39.393,M,5.2,0000*53
$GNGGA,104107.30,3605.0658659,N,14004.7824105,E,4,12,1.21,26.252,M,39.393,M,5.3,0000*51
$GNGGA,104107.40,3605.0657969,N,14004.7824063,E,4,12,1.21,26.235,M,39.393,M,5.4,0000*52
$GNGGA,104107.50,3605.0657267,N,14004.7824006,E,4,12,1.21,26.241,M,39.393,M,5.5,0000*57
$GNGGA,104107.60,3605.0656702,N,14004.7824005,E,4,12,1.21,26.247,M,39.393,M,5.6,0000*55
$GNGGA,104107.70,3605.0656010,N,14004.7823916,E,4,12,1.21,26.241,M,39.393,M,5.7,0000*5B
$GNGGA,104107.80,3605.0655284,N,14004.7823795,E,4,12,1.21,26.234,M,39.393,M,5.8,0000*50
$GNGGA,104107.90,3605.0654530,N,14004.7823647,E,4,12,1.21,26.235,M,39.393,M,5.9,0000*56
$GNGGA,104108.00,3605.0653866,N,14004.7823596,E,4,12,1.21,26.224,M,39.393,M,6.0,0000*5C
$GNGGA,104108.20,3605.0652526,N,14004.7823494,E,4,12,1.21,26.240,M,39.393,M,1.2,0000*52
$GNGGA,104108.40,3605.0651117,N,14004.7823396,E,4,12,1.21,26.234,M,39.393,M,1.4,0000*51
$GNGGA,104108.50,3605.0650383,N,14004.7823313,E,4,12,1.21,26.235,M,39.393,M,1.5,0000*53
$GNGGA,104108.60,3605.0649772,N,14004.7823304,E,4,12,1.21,26.222,M,39.393,M,1.6,0000*51
$GNGGA,104108.70,3605.0649076,N,14004.7823199,E,4,12,1.21,26.230,M,39.393,M,1.7,0000*57
$GNGGA,104108.80,3605.0648330,N,14004.7823100,E,4,12,1.21,26.209,M,39.393,M,1.8,0000*5D
$GNGGA,104108.90,3605.0647622,N,14004.7823012,E,4,12,1.21,26.196,M,39.393,M,1.9,0000*53
$GNGGA,104109.00,3605.0646937,N,14004.7822953,E,4,12,1.21,26.191,M,39.393,M,2.0,0000*51
$GNGGA,104109.20,3605.0645645,N,14004.7822855,E,4,12,1.21,26.181,M,39.393,M,2.2,0000*5E
$GNGGA,104109.30,3605.0644904,N,14004.7822760,E,4,12,1.21,26.176,M,39.393,M,2.3,0000*54
$GNGGA,104109.40,3605.0644190,N,14004.7822680,E,4,12,1.21,26.177,M,39.393,M,2.4,0000*5F
$GNGGA,104109.50,3605.0643525,N,14004.7822602,E,4,12,1.21,26.182,M,39.393,M,2.5,0000*52
$GNGGA,104109.60,3605.0642873,N,14004.7822561,E,4,12,1.21,26.194,M,39.393,M,2.6,0000*5C
$GNGGA,104109.70,3605.0642201,N,14004.7822455,E,4,12,1.21,26.182,M,39.393,M,2.7,0000*52
$GNGGA,104109.80,3605.0641477,N,14004.7822321,E,4,12,1.21,26.172,M,39.393,M,2.8,0000*5D
$GNGGA,104109.90,3605.0640769,N,14004.7822250,E,4,12,1.21,26.169,M,39.393,M,2.9,0000*5D
$GNGGA,104110.00,3605.0640102,N,14004.7822158,E,4,12,1.21,26.177,M,39.393,M,3.0,0000*5B
$GNGGA,104110.10,3605.0639441,N,14004.7822136,E,4,12,1.21,26.180,M,39.393,M,3.1,0000*57
$GNGGA,104110.20,3605.0638749,N,14004.7822144,E,4,12,1.21,26.189,M,39.393,M,3.2,0000*51
$GNGGA,104110.40,3605.0637284,N,14004.7822090,E,4,12,1.21,26.162,M,39.393,M,3.4,0000*57
$GNGGA,104110.50,3605.0636599,N,14004.7822019,E,4,12,1.21,26.178,M,39.393,M,3.5,0000*57
$GNGGA,104110.60,3605.0635977,N,14004.7821846,E,4,12,1.21,26.208,M,39.393,M,3.6,0000*5D
$GNGGA,104110.70,3605.0635256,N,14004.7821723,E,4,12,1.21,26.213,M,39.393,M,3.7,0000*53
$GNGGA,104110.80,3605.0634524,N,14004.7821620,E,4,12,1.21,26.204,M,39.393,M,3.8,0000*54
$GNGGA,104110.90,3605.0633863,N,14004.7821473,E,4,12,1.21,26.207,M,39.393,M,3.9,0000*5A
$GNGGA,104111.00,3605.0633126,N,14004.7821341,E,4,12,1.21,26.224,M,39.393,M,4.0,0000*53
$GNGGA,104111.10,3605.0632488,N,14004.7821266,E,4,12,1.21,26.242,M,39.393,M,4.1,0000*57
$GNGGA,104111.20,3605.0631812,N,14004.7821222,E,4,12,1.21,26.253,M,39.393,M,4.2,0000*5B
$GNGGA,104111.30,3605.0631091,N,14004.7821179,E,4,12,1.21,26.248,M,39.393,M,4.3,0000*5F
$GNGGA,104111.40,3605.0630365,N,14004.7821080,E,4,12,1.21,26.253,M,39.393,M,4.4,0000*5B
$GNGGA,104111.50,3605.0629709,N,14004.7821043,E,4,12,1.21,26.259,M,39.393,M,4.5,0000*58
$GNGGA,104111.60,3605.0629018,N,14004.7821014,E,4,12,1.21,26.263,M,39.393,M,4.6,0000*54
$GNGGA,104111.70,3605.0628330,N,14004.7820910,E,4,12,1.21,26.268,M,39.393,M,4.7,0000*5B
$GNGGA,104111.80,3605.0627582,N,14004.7820862,E,4,12,1.21,26.251,M,39.393,M,4.8,0000*55
$GNGGA,104111.90,3605.0626887,N,14004.7820759,E,4,12,1.21,26.252,M,39.393,M,4.9,0000*58
$GNGGA,104112.00,3605.0626170,N,14004.7820669,E,4,12,1.21,26.252,M,39.393,M,5.0,0000*59
$GNGGA,104112.20,3605.0624868,N,14004.7820666,E,4,12,1.21,26.251,M,39.393,M,5.2,0000*57
$GNGGA,104112.30,3605.0624158,N,14004.7820567,E,4,12,1.21,26.241,M,39.393,M,5.3,0000*5E
$GNGGA,104112.40,3605.0623437,N,14004.7820528,E,4,12,1.21,26.222,M,39.393,M,5.4,0000*5B
$GNGGA,104112.50,3605.0622755,N,14004.7820473,E,4,12,1.21,26.223,M,39.393,M,5.5,0000*53
$GNGGA,104112.60,3605.0622122,N,14004.7820373,E,4,12,1.21,26.234,M,39.393,M,5.6,0000*54
$GNGGA,104112.70,3605.0621460,N,14004.7820266,E,4,12,1.21,26.231,M,39.393,M,5.7,0000*54
$GNGGA,104112.80,3605.0620711,N,14004.7820195,E,4,12,1.21,26.210,M,39.393,M,5.8,0000*5C
$GNGGA,104112.90,3605.0620002,N,14004.7820082,E,4,12,1.21,26.188,M,39.393,M,5.9,0000*5C
$GNGGA,104113.00,3605.0619299,N,14004.7819924,E,4,12,1.21,26.185,M,39.393,M,6.0,0000*56
$GNGGA,104113.10,3605.0618618,N,14004.7819806,E,4,12,1.21,26.195,M,39.393,M,6.1,0000*5A
$GNGGA,104113.20,3605.0617942,N,14004.7819770,E,4,12,1.21,26.192,M,39.393,M,6.2,0000*5C
$GNGGA,104113.40,3605.0616486,N,14004.7819578,E,4,12,1.21,26.168,M,39.393,M,6.4,0000*57
$GNGGA,104113.50,3605.0615824,N,14004.7819540,E,4,12,1.21,26.178,M,39.393,M,6.5,0000*5A
$GNGGA,104113.60,3605.0615181,N,14004.7819494,E,4,12,1.21,26.181,M,39.393,M,6.6,0000*52
$GNGGA,104113.70,3605.0614512,N,14004.7819359,E,4,12,1.21,26.188,M,39.393,M,6.7,0000*52
$GNGGA,104113.80,3605.0613758,N,14004.7819218,E,4,12,1.21,26.175,M,39.393,M,6.8,0000*5F
$GNGGA,104113.90,3605.0613053,N,14004.7819153,E,4,12,1.21,26.167,M,39.393,M,6.9,0000*5C
$GNGGA,104114.00,3605.0612340,N,14004.7819046,E,4,12,1.21,26.177,M,39.393,M,7.0,0000*5E
$GNGGA,104114.10,3605.0611648,N,14004.7818982,E,4,12,1.21,26.197,M,39.393,M,7.1,0000*5E
$GNGGA,104114.20,3605.0611011,N,14004.7819031,E,4,12,1.21,26.186,M,39.393,M,2.2,0000*51
$GNGGA,104114.40,3605.0609616,N,14004.7818914,E,4,12,1.21,26.182,M,39.393,M,2.4,0000*52
$GNGGA,104114.50,3605.0608913,N,14004.7818856,E,4,12,1.21,26.177,M,39.393,M,2.5,0000*54
$GNGGA,104114.60,3605.0608293,N,14004.7818707,E,4,12,1.21,26.192,M,39.393,M,2.6,0000*57
$GNGGA,104114.70,3605.0607627,N,14004.7818576,E,4,12,1.21,26.207,M,39.393,M,2.7,0000*58
$GNGGA,104114.80,3605.0606894,N,14004.7818430,E,4,12,1.21,26.191,M,39.393,M,2.8,0000*50
$GNGGA,104114.90,3605.0606154,N,14004.7818304,E,4,12,1.21,26.178,M,39.393,M,2.9,0000*52
$GNGGA,104115.00,3605.0605453,N,14004.7818251,E,4,12,1.21,26.182,M,39.393,M,3.0,0000*57
$GNGGA,104115.10,3605.0604777,N,14004.7818223,E,4,12,1.21,26.197,M,39.393,M,3.1,0000*52
$GNGGA,104115.20,3605.0604062,N,14004.7818141,E,4,12,1.21,26.208,M,39.393,M,3.2,0000*53
$GNGGA,104115.30,3605.0603338,N,14004.7818092,E,4,12,1.21,26.202,M,39.393,M,3.3,0000*5D
$GNGGA,104115.40,3605.0602632,N,14004.7818063,E,4,12,1.21,26.191,M,39.393,M,3.4,0000*54
$GNGGA,104115.50,3605.0601952,N,14004.7818054,E,4,12,1.21,26.187,M,39.393,M,3.5,0000*5D
$GNGGA,104115.60,3605.0601318,N,14004.7818044,E,4,12,1.21,26.187,M,39.393,M,3.6,0000*58
$GNGGA,104115.70,3605.0600684,N,14004.7817933,E,4,12,1.21,26.201,M,39.393,M,3.7,0000*52
$GNGGA,104115.80,3605.0599913,N,14004.7817810,E,4,12,1.21,26.176,M,39.393,M,3.8,0000*53
$GNGGA,104115.90,3605.0599211,N,14004.7817692,E,4,12,1.21,26.166,M,39.393,M,3.9,0000*5F
$GNGGA,104116.00,3605.0598480,N,14004.7817564,E,4,12,1.21,26.178,M,39.393,M,4.0,0000*51
$GNGGA,104116.10,3605.0597854,N,14004.7817600,E,4,12,1.21,26.172,M,39.393,M,4.1,0000*50
$GNGGA,104116.20,3605.0597216,N,14004.7817532,E,4,12,1.21,26.183,M,39.393,M,4.2,0000*50
$GNGGA,104116.30,3605.0596468,N,14004.7817486,E,4,12,1.21,26.173,M,39.393,M,4.3,0000*5F
$GNGGA,104116.40,3605.0595706,N,14004.7817406,E,4,12,1.21,26.159,M,39.393,M,4.4,0000*57
$GNGGA,104116.50,3605.0595049,N,14004.7817354,E,4,12,1.21,26.157,M,39.393,M,4.5,0000*55
$GNGGA,104116.60,3605.0594402,N,14004.7817270,E,4,12,1.21,26.171,M,39.393,M,4.6,0000*5C
$GNGGA,104116.70,3605.0593795,N,14004.7817292,E,4,12,1.21,26.169,M,39.393,M,4.7,0000*53
$GNGGA,104116.80,3605.0593010,N,14004.7817140,E,4,12,1.21,26.163,M,39.393,M,4.8,0000*5F
$GNGGA,104116.90,3605.0592266,N,14004.7817034,E,4,12,1.21,26.156,M,39.393,M,4.9,0000*59
$GNGGA,104117.00,3605.0591581,N,14004.7817002,E,4,12,1.21,26.162,M,39.393,M,5.0,0000*56
$GNGGA,104117.10,3605.0590917,N,14004.7816957,E,4,12,1.21,26.177,M,39.393,M,5.1,0000*58
$GNGGA,104117.20,3605.0590262,N,14004.7816942,E,4,12,1.21,26.187,M,39.393,M,5.2,0000*5A
$GNGGA,104117.30,3605.0589569,N,14004.7816898,E,4,12,1.21,26.181,M,39.393,M,5.3,0000*5E
$GNGGA,104117.40,3605.0588850,N,14004.7816833,E,4,12,1.21,26.170,M,39.393,M,5.4,0000*57
$GNGGA,104117.50,3605.0588179,N,14004.7816802,E,4,12,1.21,26.172,M,39.393,M,5.5,0000*55
$GNGGA,104117.60,3605.0587535,N,14004.7816738,E,4,12,1.21,26.177,M,39.393,M,5.6,0000*55
$GNGGA,104117.70,3605.0586877,N,14004.7816650,E,4,12,1.21,26.177,M,39.393,M,5.7,0000*50
$GNGGA,104117.80,3605.0586142,N,14004.7816557,E,4,12,1.21,26.157,M,39.393,M,5.8,0000*59
$GNGGA,104117.90,3605.0585404,N,14004.7816370,E,4,12,1.21,26.156,M,39.393,M,5.9,0000*5F
$GNGGA,104118.00,3605.0584724,N,14004.7816205,E,4,12,1.21,26.168,M,39.393,M,6.0,0000*5D
$GNGGA,104118.20,3605.0583362,N,14004.7816115,E,4,12,1.21,26.171,M,39.393,M,1.2,0000*51
$GNGGA,104118.30,3605.0582643,N,14004.7815964,E,4,12,1.21,26.175,M,39.393,M,1.3,0000*5F
$GNGGA,104118.40,3605.0581902,N,14004.7815881,E,4,12,1.21,26.173,M,39.393,M,1.4,0000*5A
$GNGGA,104118.50,3605.0581234,N,14004.7815874,E,4,12,1.21,26.167,M,39.393,M,1.5,0000*5B
$GNGGA,104118.60,3605.0580594,N,14004.7815748,E,4,12,1.21,26.190,M,39.393,M,1.6,0000*5F
$GNGGA,104118.70,3605.0580007,N,14004.7815681,E,4,12,1.21,26.201,M,39.393,M,1.7,0000*5F
$GNGGA,104118.80,3605.0579274,N,14004.7815651,E,4,12,1.21,26.187,M,39.393,M,1.8,0000*5F
$GNGGA,104118.90,3605.0578545,N,14004.7815464,E,4,12,1.21,26.190,M,39.393,M,1.9,0000*59
$GNGGA,104119.00,3605.0577857,N,14004.7815382,E,4,12,1.21,26.189,M,39.393,M,2.0,0000*5D
$GNGGA,104119.10,3605.0577196,N,14004.7815327,E,4,12,1.21,26.198,M,39.393,M,2.1,0000*56
$GNGGA,104119.20,3605.0576501,N,14004.7815326,E,4,12,1.21,26.206,M,39.393,M,2.2,0000*58
$GNGGA,104119.30,3605.0575802,N,14004.7815301,E,4,12,1.21,26.198,M,39.393,M,2.3,0000*54
$GNGGA,104119.40,3605.0575095,N,14004.7815207,E,4,12,1.21,26.191,M,39.393,M,2.4,0000*5C
$GNGGA,104119.50,3605.0574408,N,14004.7815142,E,4,12,1.21,26.193,M,39.393,M,2.5,0000*5D
$GNGGA,104119.60,3605.0573782,N,14004.7815068,E,4,12,1.21,26.199,M,39.393,M,2.6,0000*58
$GNGGA,104119.70,3605.0573140,N,14004.7814975,E,4,12,1.21,26.202,M,39.393,M,2.7,0000*55
$GNGGA,104119.80,3605.0572428,N,14004.7814918,E,4,12,1.21,26.198,M,39.393,M,2.8,0000*54
$GNGGA,104119.90,3605.0571752,N,14004.7814762,E,4,12,1.21,26.186,M,39.393,M,2.9,0000*55
$GNGGA,104120.00,3605.0571074,N,14004.7814654,E,4,12,1.21,26.183,M,39.393,M,3.0,0000*5C
$GNGGA,104120.10,3605.0570389,N,14004.7814611,E,4,12,1.21,26.193,M,39.393,M,3.1,0000*5C
$GNGGA,104120.20,3605.0569749,N,14004.7814573,E,4,12,1.21,26.196,M,39.393,M,3.2,0000*5E
$GNGGA,104120.40,3605.0568337,N,14004.7814425,E,4,12,1.21,26.173,M,39.393,M,3.4,0000*5B
$GNGGA,104120.50,3605.0567661,N,14004.7814327,E,4,12,1.21,26.167,M,39.393,M,3.5,0000*52
$GNGGA,104120.60,3605.0567008,N,14004.7814221,E,4,12,1.21,26.172,M,39.393,M,3.6,0000*58
$GNGGA,104120.70,3605.0566380,N,14004.7814136,E,4,12,1.21,26.173,M,39.393,M,3.7,0000*5E
$GNGGA,104120.80,3605.0565693,N,14004.7814024,E,4,12,1.21,26.171,M,39.393,M,3.8,0000*5A
$GNGGA,104120.90,3605.0564988,N,14004.7813931,E,4,12,1.21,26.155,M,39.393,M,3.9,0000*52
$GNGGA,104121.00,3605.0564274,N,14004.7813803,E,4,12,1.21,26.146,M,39.393,M,4.0,0000*5E
$GNGGA,104121.20,3605.0562996,N,14004.7813823,E,4,12,1.21,26.147,M,39.393,M,4.2,0000*5C
$GNGGA,104121.30,3605.0562253,N,14004.7813744,E,4,12,1.21,26.137,M,39.393,M,4.3,0000*57
$GNGGA,104121.40,3605.0561546,N,14004.7813605,E,4,12,1.21,26.135,M,39.393,M,4.4,0000*51
$GNGGA,104121.50,3605.0560898,N,14004.7813574,E,4,12,1.21,26.136,M,39.393,M,4.5,0000*58
$GNGGA,104121.60,3605.0560239,N,14004.7813505,E,4,12,1.21,26.140,M,39.393,M,4.6,0000*5E
$GNGGA,104121.70,3605.0559634,N,14004.7813442,E,4,12,1.21,26.144,M,39.393,M,4.7,0000*5B
$GNGGA,104121.80,3605.0558920,N,14004.7813323,E,4,12,1.21,26.133,M,39.393,M,4.8,0000*50
$GNGGA,104121.90,3605.0558185,N,14004.7813198,E,4,12,1.21,26.123,M,39.393,M,4.9,0000*54
$GNGGA,104122.00,3605.0557539,N,14004.7813074,E,4,12,1.21,26.111,M,39.393,M,5.0,0000*58
$GNGGA,104122.20,3605.0556213,N,14004.7812998,E,4,12,1.21,26.102,M,39.393,M,5.2,0000*5E
$GNGGA,104122.30,3605.0555492,N,14004.7812894,E,4,12,1.21,26.104,M,39.393,M,5.3,0000*59
$GNGGA,104122.40,3605.0554762,N,14004.7812788,E,4,12,1.21,26.093,M,39.393,M,5.4,0000*59
$GNGGA,104122.50,3605.0554087,N,14004.7812672,E,4,12,1.21,26.096,M,39.393,M,5.5,0000*54
$GNGGA,104122.60,3605.0553391,N,14004.7812599,E,4,12,1.21,26.097,M,39.393,M,5.6,0000*50
$GNGGA,104122.70,3605.0552779,N,14004.7812576,E,4,12,1.21,26.103,M,39.393,M,5.7,0000*5E
$GNGGA,104122.80,3605.0552073,N,14004.7812424,E,4,12,1.21,26.098,M,39.393,M,5.8,0000*56
$GNGGA,104122.90,3605.0551333,N,14004.7812278,E,4,12,1.21,26.094,M,39.393,M,5.9,0000*51
$GNGGA,104123.00,3605.0550613,N,14004.7812177,E,4,12,1.21,26.088,M,39.393,M,6.0,0000*54
$GNGGA,104123.20,3605.0549251,N,14004.7812062,E,4,12,1.21,26.084,M,39.393,M,1.2,0000*50
$GNGGA,104123.40,3605.0547831,N,14004.7811951,E,4,12,1.21,26.064,M,39.393,M,1.4,0000*56
$GNGGA,104123.50,3605.0547111,N,14004.7811846,E,4,12,1.21,26.069,M,39.393,M,1.5,0000*57
$GNGGA,104123.60,3605.0546438,N,14004.7811806,E,4,12,1.21,26.080,M,39.393,M,1.6,0000*5B
$GNGGA,104123.70,3605.0545766,N,14004.7811743,E,4,12,1.21,26.078,M,39.393,M,1.7,0000*59
$GNGGA,104123.80,3605.0545048,N,14004.7811592,E,4,12,1.21,26.074,M,39.393,M,1.8,0000*50
$GNGGA,104123.90,3605.0544335,N,14004.7811494,E,4,12,1.21,26.070,M,39.393,M,1.9,0000*5B
$GNGGA,104124.00,3605.0543602,N,14004.7811427,E,4,12,1.21,26.065,M,39.393,M,2.0,0000*55
$GNGGA,104124.10,3605.0542914,N,14004.7811366,E,4,12,1.21,26.070,M,39.393,M,2.1,0000*5A
$GNGGA,104124.20,3605.0542264,N,14004.7811300,E,4,12,1.21,26.092,M,39.393,M,2.2,0000*5A
$GNGGA,104124.30,3605.0541533,N,14004.7811219,E,4,12,1.21,26.088,M,39.393,M,2.3,0000*5E
$GNGGA,104124.40,3605.0540800,N,14004.7811153,E,4,12,1.21,26.073,M,39.393,M,2.4,0000*5B
$GNGGA,104124.50,3605.0540108,N,14004.7811097,E,4,12,1.21,26.072,M,39.393,M,2.5,0000*52
$GNGGA,104124.60,3605.0539429,N,14004.7811044,E,4,12,1.21,26.082,M,39.393,M,2.6,0000*5B
$GNGGA,104124.70,3605.0538801,N,14004.7810970,E,4,12,1.21,26.094,M,39.393,M,2.7,0000*54
$GNGGA,104124.80,3605.0538077,N,14004.7810841,E,4,12,1.21,26.082,M,39.393,M,2.8,0000*59
$GNGGA,104124.90,3605.0537367,N,14004.7810722,E,4,12,1.21,26.078,M,39.393,M,2.9,0000*5B
$GNGGA,104125.00,3605.0536693,N,14004.7810651,E,4,12,1.21,26.076,M,39.393,M,3.0,0000*5F
$GNGGA,104125.10,3605.0536007,N,14004.7810583,E,4,12,1.21,26.081,M,39.393,M,3.1,0000*50
$GNGGA,104125.20,3605.0535324,N,14004.7810579,E,4,12,1.21,26.091,M,39.393,M,3.2,0000*55
$GNGGA,104125.30,3605.0534632,N,14004.7810461,E,4,12,1.21,26.077,M,39.393,M,3.3,0000*56
$GNGGA,104125.40,3605.0533956,N,14004.7810397,E,4,12,1.21,26.071,M,39.393,M,3.4,0000*54
$GNGGA,104125.50,3605.0533280,N,14004.7810336,E,4,12,1.21,26.068,M,39.393,M,3.5,0000*57
$GNGGA,104125.60,3605.0532591,N,14004.7810195,E,4,12,1.21,26.073,M,39.393,M,3.6,0000*50
$GNGGA,104125.70,3605.0531953,N,14004.7810103,E,4,12,1.21,26.077,M,39.393,M,3.7,0000*5A
$GNGGA,104125.80,3605.0531286,N,14004.7810003,E,4,12,1.21,26.076,M,39.393,M,3.8,0000*59
$GNGGA,104125.90,3605.0530550,N,14004.7809885,E,4,12,1.21,26.068,M,39.393,M,3.9,0000*55
$GNGGA,104126.00,3605.0529904,N,14004.7809811,E,4,12,1.21,26.062,M,39.393,M,4.0,0000*53
$GNGGA,104126.10,3605.0529228,N,14004.7809703,E,4,12,1.21,26.075,M,39.393,M,4.1,0000*5C
$GNGGA,104126.20,3605.0528569,N,14004.7809704,E,4,12,1.21,26.072,M,39.393,M,4.2,0000*5F
$GNGGA,104126.30,3605.0527855,N,14004.7809642,E,4,12,1.21,26.066,M,39.393,M,4.3,0000*54
$GNGGA,104126.40,3605.0527182,N,14004.7809547,E,4,12,1.21,26.069,M,39.393,M,4.4,0000*5E
$GNGGA,104126.50,3605.0526524,N,14004.7809541,E,4,12,1.21,26.062,M,39.393,M,4.5,0000*5A
$GNGGA,104126.60,3605.0525874,N,14004.7809500,E,4,12,1.21,26.072,M,39.393,M,4.6,0000*55
$GNGGA,104126.70,3605.0525249,N,14004.7809401,E,4,12,1.21,26.082,M,39.393,M,4.7,0000*5E
$GNGGA,104126.80,3605.0524545,N,14004.7809325,E,4,12,1.21,26.076,M,39.393,M,4.8,0000*5E
$GNGGA,104126.90,3605.0523873,N,14004.7809296,E,4,12,1.21,26.061,M,39.393,M,4.9,0000*5E
$GNGGA,104127.00,3605.0523191,N,14004.7809176,E,4,12,1.21,26.071,M,39.393,M,5.0,0000*57
$GNGGA,104127.10,3605.0522500,N,14004.7809088,E,4,12,1.21,26.076,M,39.393,M,5.1,0000*5D
$GNGGA,104127.20,3605.0521876,N,14004.7809130,E,4,12,1.21,26.084,M,39.393,M,5.2,0000*5D
$GNGGA,104127.30,3605.0521199,N,14004.7809041,E,4,12,1.21,26.085,M,39.393,M,5.3,0000*53
$GNGGA,104127.40,3605.0520529,N,14004.7808947,E,4,12,1.21,26.073,M,39.393,M,5.4,0000*5A
$GNGGA,104127.50,3605.0519853,N,14004.7808928,E,4,12,1.21,26.070,M,39.393,M,5.5,0000*5A
$GNGGA,104127.60,3605.0519206,N,14004.7808893,E,4,12,1.21,26.083,M,39.393,M,5.6,0000*5D
$GNGGA,104127.70,3605.0518556,N,14004.7808794,E,4,12,1.21,26.086,M,39.393,M,5.7,0000*53
$GNGGA,104127.80,3605.0517871,N,14004.7808713,E,4,12,1.21,26.076,M,39.393,M,5.8,0000*54
$GNGGA,104127.90,3605.0517216,N,14004.7808662,E,4,12,1.21,26.072,M,39.393,M,5.9,0000*5C
$GNGGA,104128.00,3605.0516567,N,14004.7808598,E,4,12,1.21,26.058,M,39.393,M,6.0,0000*5E
$GNGGA,104128.10,3605.0515850,N,14004.7808471,E,4,12,1.21,26.072,M,39.393,M,6.1,0000*5A
$GNGGA,104128.20,3605.0515160,N,14004.7808459,E,4,12,1.21,26.074,M,39.393,M,1.2,0000*5B
$GNGGA,104128.40,3605.0513749,N,14004.7808349,E,4,12,1.21,26.069,M,39.393,M,1.4,0000*5A
$GNGGA,104128.50,3605.0513062,N,14004.7808269,E,4,12,1.21,26.062,M,39.393,M,1.5,0000*5C
$GNGGA,104128.60,3605.0512407,N,14004.7808300,E,4,12,1.21,26.068,M,39.393,M,1.6,0000*5E
$GNGGA,104128.70,3605.0511755,N,14004.7808206,E,4,12,1.21,26.078,M,39.393,M,1.7,0000*5F
$GNGGA,104128.80,3605.0511026,N,14004.7808076,E,4,12,1.21,26.064,M,39.393,M,1.8,0000*54
$GNGGA,104128.90,3605.0510305,N,14004.7807947,E,4,12,1.21,26.054,M,39.393,M,1.9,0000*50
$GNGGA,104129.00,3605.0509644,N,14004.7807880,E,4,12,1.21,26.047,M,39.393,M,2.0,0000*52
$GNGGA,104129.10,3605.0508967,N,14004.7807777,E,4,12,1.21,26.059,M,39.393,M,2.1,0000*55
$GNGGA,104129.20,3605.0508323,N,14004.7807739,E,4,12,1.21,26.066,M,39.393,M,2.2,0000*59
$GNGGA,104129.30,3605.0507645,N,14004.7807693,E,4,12,1.21,26.067,M,39.393,M,2.3,0000*53
$GNGGA,104129.40,3605.0506949,N,14004.7807595,E,4,12,1.21,26.057,M,39.393,M,2.4,0000*57
$GNGGA,104129.50,3605.0506321,N,14004.7807568,E,4,12,1.21,26.055,M,39.393,M,2.5,0000*53
$GNGGA,104129.60,3605.0505660,N,14004.7807457,E,4,12,1.21,26.069,M,39.393,M,2.6,0000*52
$GNGGA,104129.70,3605.0505063,N,14004.7807488,E,4,12,1.21,26.056,M,39.393,M,2.7,0000*59
$GNGGA,104129.80,3605.0504373,N,14004.7807388,E,4,12,1.21,26.052,M,39.393,M,2.8,0000*59
$GNGGA,104129.90,3605.0503658,N,14004.7807239,E,4,12,1.21,26.045,M,39.393,M,2.9,0000*5F
$GNGGA,104130.00,3605.0503016,N,14004.7807131,E,4,12,1.21,26.034,M,39.393,M,3.0,0000*57
$GNGGA,104130.10,3605.0502334,N,14004.7807050,E,4,12,1.21,26.047,M,39.393,M,3.1,0000*57
$GNGGA,104130.20,3605.0501669,N,14004.7807014,E,4,12,1.21,26.052,M,39.393,M,3.2,0000*5D
$GNGGA,104130.30,3605.0501025,N,14004.7807000,E,4,12,1.21,26.055,M,39.393,M,3.3,0000*51
$GNGGA,104130.40,3605.0500338,N,14004.7806933,E,4,12,1.21,26.042,M,39.393,M,3.4,0000*51
$GNGGA,104130.50,3605.0499636,N,14004.7806877,E,4,12,1.21,26.036,M,39.393,M,3.5,0000*59
$GNGGA,104130.60,3605.0498977,N,14004.7806765,E,4,12,1.21,26.042,M,39.393,M,3.6,0000*5D
$GNGGA,104130.70,3605.0498422,N,14004.7806814,E,4,12,1.21,26.034,M,39.393,M,3.7,0000*58
$GNGGA,104130.80,3605.0497721,N,14004.7806667,E,4,12,1.21,26.033,M,39.393,M,3.8,0000*5A
$GNGGA,104130.90,3605.0497006,N,14004.7806534,E,4,12,1.21,26.021,M,39.393,M,3.9,0000*5E
$GNGGA,104131.00,3605.0496331,N,14004.7806405,E,4,12,1.21,26.012,M,39.393,M,4.0,0000*5D
$GNGGA,104131.10,3605.0495649,N,14004.7806305,E,4,12,1.21,26.021,M,39.393,M,4.1,0000*53
$GNGGA,104131.20,3605.0495042,N,14004.7806325,E,4,12,1.21,26.024,M,39.393,M,4.2,0000*59
$GNGGA,104131.30,3605.0494382,N,14004.7806273,E,4,12,1.21,26.028,M,39.393,M,4.3,0000*59
$GNGGA,104131.40,3605.0493638,N,14004.7806160,E,4,12,1.21,26.019,M,39.393,M,4.4,0000*59
$GNGGA,104131.50,3605.0492971,N,14004.7806098,E,4,12,1.21,26.009,M,39.393,M,4.5,0000*5D
$GNGGA,104131.60,3605.0492321,N,14004.7806030,E,4,12,1.21,26.018,M,39.393,M,4.6,0000*50
$GNGGA,104131.70,3605.0491727,N,14004.7806001,E,4,12,1.21,26.029,M,39.393,M,4.7,0000*51
$GNGGA,104131.80,3605.0491063,N,14004.7805903,E,4,12,1.21,26.021,M,39.393,M,4.8,0000*56
$GNGGA,104131.90,3605.0490323,N,14004.7805762,E,4,12,1.21,26.015,M,39.393,M,4.9,0000*5E
$GNGGA,104132.00,3605.0489650,N,14004.7805665,E,4,12,1.21,26.008,M,39.393,M,5.0,0000*5F
$GNGGA,104132.10,3605.0489012,N,14004.7805582,E,4,12,1.21,26.018,M,39.393,M,5.1,0000*54
$GNGGA,104132.20,3605.0488385,N,14004.7805502,E,4,12,1.21,26.032,M,39.393,M,5.2,0000*58
$GNGGA,104132.30,3605.0487757,N,14004.7805520,E,4,12,1.21,26.032,M,39.393,M,5.3,0000*5C
$GNGGA,104132.40,3605.0487067,N,14004.7805421,E,4,12,1.21,26.039,M,39.393,M,5.4,0000*53
$GNGGA,104132.50,3605.0486376,N,14004.7805345,E,4,12,1.21,26.032,M,39.393,M,5.5,0000*5F
$GNGGA,104132.60,3605.0485726,N,14004.7805355,E,4,12,1.21,26.031,M,39.393,M,5.6,0000*5F
$GNGGA,104132.70,3605.0485154,N,14004.7805327,E,4,12,1.21,26.046,M,39.393,M,5.7,0000*59
$GNGGA,104132.80,3605.0484530,N,14004.7805246,E,4,12,1.21,26.044,M,39.393,M,5.8,0000*5A
$GNGGA,104132.90,3605.0483801,N,14004.7805131,E,4,12,1.21,26.032,M,39.393,M,5.9,0000*50
$GNGGA,104133.00,3605.0483181,N,14004.7805008,E,4,12,1.21,26.033,M,39.393,M,6.0,0000*59
$GNGGA,104133.10,3605.0482499,N,14004.7804905,E,4,12,1.21,26.031,M,39.393,M,6.1,0000*53
$GNGGA,104133.20,3605.0481852,N,14004.7804882,E,4,12,1.21,26.036,M,39.393,M,1.2,0000*55
$GNGGA,104133.30,3605.0481275,N,14004.7804880,E,4,12,1.21,26.051,M,39.393,M,1.3,0000*59
$GNGGA,104133.40,3605.0480600,N,14004.7804874,E,4,12,1.21,26.034,M,39.393,M,1.4,0000*56
$GNGGA,104133.50,3605.0479906,N,14004.7804786,E,4,12,1.21,26.032,M,39.393,M,1.5,0000*5D
$GNGGA,104133.60,3605.0479267,N,14004.7804783,E,4,12,1.21,26.026,M,39.393,M,1.6,0000*51
$GNGGA,104133.70,3605.0478640,N,14004.7804703,E,4,12,1.21,26.028,M,39.393,M,1.7,0000*57
$GNGGA,104133.80,3605.0478070,N,14004.7804611,E,4,12,1.21,26.028,M,39.393,M,1.8,0000*50
$GNGGA,104133.90,3605.0477386,N,14004.7804553,E,4,12,1.21,26.011,M,39.393,M,1.9,0000*5A
$GNGGA,104134.00,3605.0476645,N,14004.7804421,E,4,12,1.21,26.000,M,39.393,M,2.0,0000*51
$GNGGA,104134.10,3605.0475984,N,14004.7804279,E,4,12,1.21,25.992,M,39.393,M,2.1,0000*5A
$GNGGA,104134.20,3605.0475337,N,14004.7804116,E,4,12,1.21,26.011,M,39.393,M,2.2,0000*53
$GNGGA,104134.30,3605.0474696,N,14004.7804136,E,4,12,1.21,26.000,M,39.393,M,2.3,0000*5E
$GNGGA,104134.40,3605.0474008,N,14004.7804080,E,4,12,1.21,26.004,M,39.393,M,2.4,0000*57
$GNGGA,104134.50,3605.0473335,N,14004.7804029,E,4,12,1.21,25.996,M,39.393,M,2.5,0000*5F
$GNGGA,104134.60,3605.0472687,N,14004.7803995,E,4,12,1.21,25.990,M,39.393,M,2.6,0000*5D
$GNGGA,104134.70,3605.0472025,N,14004.7803932,E,4,12,1.21,25.992,M,39.393,M,2.7,0000*5C
$GNGGA,104134.80,3605.0471439,N,14004.7803945,E,4,12,1.21,25.980,M,39.393,M,2.8,0000*55
$GNGGA,104134.90,3605.0470799,N,14004.7803794,E,4,12,1.21,25.986,M,39.393,M,2.9,0000*59
$GNGGA,104135.00,3605.0470126,N,14004.7803665,E,4,12,1.21,25.979,M,39.393,M,3.0,0000*54
$GNGGA,104135.10,3605.0469449,N,14004.7803519,E,4,12,1.21,25.979,M,39.393,M,3.1,0000*58
$GNGGA,104135.20,3605.0468764,N,14004.7803404,E,4,12,1.21,25.983,M,39.393,M,3.2,0000*5D
$GNGGA,104135.30,3605.0468111,N,14004.7803303,E,4,12,1.21,25.996,M,39.393,M,3.3,0000*5D
$GNGGA,104135.40,3605.0467462,N,14004.7803292,E,4,12,1.21,26.002,M,39.393,M,3.4,0000*5D
$GNGGA,104135.50,3605.0466744,N,14004.7803223,E,4,12,1.21,25.991,M,39.393,M,3.5,0000*51
$GNGGA,104135.60,3605.0466077,N,14004.7803107,E,4,12,1.21,25.988,M,39.393,M,3.6,0000*5B
$GNGGA,104135.70,3605.0465416,N,14004.7803114,E,4,12,1.21,25.981,M,39.393,M,3.7,0000*50
$GNGGA,104135.80,3605.0464781,N,14004.7803042,E,4,12,1.21,25.996,M,39.393,M,3.8,0000*58
$GNGGA,104135.90,3605.0464154,N,14004.7802995,E,4,12,1.21,25.993,M,39.393,M,3.9,0000*51
$GNGGA,104136.00,3605.0463466,N,14004.7802915,E,4,12,1.21,25.984,M,39.393,M,4.0,0000*58
$GNGGA,104136.10,3605.0462750,N,14004.7802846,E,4,12,1.21,25.976,M,39.393,M,4.1,0000*55
$GNGGA,104136.20,3605.0462061,N,14004.7802777,E,4,12,1.21,25.979,M,39.393,M,4.2,0000*52
$GNGGA,104136.30,3605.0461462,N,14004.7802742,E,4,12,1.21,25.984,M,39.393,M,4.3,0000*52
$GNGGA,104136.40,3605.0460837,N,14004.7802802,E,4,12,1.21,25.989,M,39.393,M,4.4,0000*59
$GNGGA,104136.50,3605.0460149,N,14004.7802737,E,4,12,1.21,25.992,M,39.393,M,4.5,0000*5A
$GNGGA,104136.60,3605.0459467,N,14004.7802735,E,4,12,1.21,25.977,M,39.393,M,4.6,0000*50
$GNGGA,104136.70,3605.0458847,N,14004.7802710,E,4,12,1.20,25.977,M,39.393,M,4.7,0000*59
$GNGGA,104136.80,3605.0458226,N,14004.7802636,E,4,12,1.20,25.988,M,39.393,M,4.8,0000*51
$GNGGA,104136.90,3605.0457642,N,14004.7802570,E,4,12,1.20,25.996,M,39.393,M,4.9,0000*56
$GNGGA,104137.00,3605.0456971,N,14004.7802519,E,4,12,1.20,25.987,M,39.393,M,5.0,0000*57
$GNGGA,104137.10,3605.0456318,N,14004.7802424,E,4,12,1.20,25.971,M,39.393,M,5.1,0000*54
$GNGGA,104137.20,3605.0455677,N,14004.7802301,E,4,12,1.20,25.970,M,39.393,M,5.2,0000*5A
$GNGGA,104137.30,3605.0454978,N,14004.7802105,E,4,12,1.20,25.987,M,39.393,M,5.3,0000*55
$GNGGA,104137.50,3605.0453812,N,14004.7802113,E,4,12,1.20,25.986,M,39.393,M,5.5,0000*59
$GNGGA,104137.60,3605.0453126,N,14004.7801989,E,4,12,1.20,25.979,M,39.393,M,5.6,0000*5F
$GNGGA,104137.70,3605.0452501,N,14004.7801909,E,4,12,1.20,25.983,M,39.393,M,5.7,0000*52
$GNGGA,104137.80,3605.0451803,N,14004.7801933,E,4,12,1.20,25.982,M,39.393,M,5.8,0000*56
$GNGGA,104137.90,3605.0451268,N,14004.7801767,E,4,12,1.20,25.996,M,39.393,M,5.9,0000*5B
$GNGGA,104138.00,3605.0450642,N,14004.7801619,E,4,12,1.20,26.002,M,39.393,M,6.0,0000*55
$GNGGA,104138.20,3605.0449372,N,14004.7801218,E,4,12,1.20,25.995,M,39.393,M,1.2,0000*5D
$GNGGA,104138.30,3605.0448657,N,14004.7801033,E,4,12,1.20,26.004,M,39.393,M,1.3,0000*57
$GNGGA,104138.40,3605.0448099,N,14004.7800962,E,4,12,1.20,26.002,M,39.393,M,1.4,0000*59
$GNGGA,104138.50,3605.0447440,N,14004.7800927,E,4,12,1.20,26.003,M,39.393,M,1.5,0000*56
$GNGGA,104138.60,3605.0446749,N,14004.7800758,E,4,12,1.20,26.004,M,39.393,M,1.6,0000*5C
$GNGGA,104138.70,3605.0446083,N,14004.7800665,E,4,12,1.20,26.001,M,39.393,M,1.7,0000*57
$GNGGA,104138.80,3605.0445426,N,14004.7800577,E,4,12,1.20,26.019,M,39.393,M,1.8,0000*56
$GNGGA,104138.90,3605.0444856,N,14004.7800487,E,4,12,1.20,26.026,M,39.393,M,1.9,0000*5E
$GNGGA,104139.00,3605.0444258,N,14004.7800412,E,4,12,1.20,26.035,M,39.393,M,2.0,0000*56
$GNGGA,104139.20,3605.0442935,N,14004.7800153,E,4,12,1.20,26.026,M,39.393,M,2.2,0000*52
$GNGGA,104139.30,3605.0442251,N,14004.7800034,E,4,12,1.20,26.019,M,39.393,M,2.3,0000*57
$GNGGA,104139.40,3605.0441652,N,14004.7800016,E,4,12,1.20,26.013,M,39.393,M,2.4,0000*59
$GNGGA,104139.50,3605.0441084,N,14004.7799948,E,4,12,1.20,26.023,M,39.393,M,2.5,0000*5A
$GNGGA,104139.60,3605.0440450,N,14004.7799850,E,4,12,1.20,26.027,M,39.393,M,2.6,0000*5A
$GNGGA,104139.70,3605.0439832,N,14004.7799838,E,4,12,1.20,26.010,M,39.393,M,2.7,0000*56
$GNGGA,104139.80,3605.0439241,N,14004.7799791,E,4,12,1.20,25.998,M,39.393,M,2.8,0000*5E
$GNGGA,104139.90,3605.0438563,N,14004.7799718,E,4,12,1.20,26.002,M,39.393,M,2.9,0000*50
$GNGGA,104140.00,3605.0438004,N,14004.7799586,E,4,12,1.20,26.025,M,39.393,M,3.0,0000*5B
$GNGGA,104140.20,3605.0436601,N,14004.7799278,E,4,12,1.20,26.033,M,39.393,M,3.2,0000*57
$GNGGA,104140.30,3605.0435965,N,14004.7799190,E,4,12,1.20,26.028,M,39.393,M,3.3,0000*56
$GNGGA,104140.40,3605.0435350,N,14004.7798996,E,4,12,1.20,26.029,M,39.393,M,3.4,0000*54
$GNGGA,104140.50,3605.0434783,N,14004.7798941,E,4,12,1.20,26.029,M,39.393,M,3.5,0000*55
$GNGGA,104140.60,3605.0434239,N,14004.7798905,E,4,12,1.20,26.039,M,39.393,M,3.6,0000*50
$GNGGA,104140.80,3605.0433267,N,14004.7798786,E,4,12,1.20,26.017,M,39.393,M,3.8,0000*55
$GNGGA,104141.00,3605.0432316,N,14004.7798767,E,4,12,1.20,26.013,M,39.393,M,4.0,0000*5E
$GNGGA,104141.20,3605.0431442,N,14004.7798638,E,4,12,1.20,26.014,M,39.393,M,4.2,0000*57
$GNGGA,104141.40,3605.0430472,N,14004.7798497,E,4,12,1.20,26.004,M,39.393,M,4.4,0000*53
$GNGGA,104141.60,3605.0429502,N,14004.7798329,E,4,12,1.20,26.006,M,39.393,M,4.6,0000*5D
$GNGGA,104141.80,3605.0428546,N,14004.7798277,E,4,12,1.20,26.004,M,39.393,M,4.8,0000*54
$GNGGA,104142.00,3605.0427640,N,14004.7798219,E,4,12,1.20,25.996,M,39.393,M,5.0,0000*55
$GNGGA,104142.20,3605.0426809,N,14004.7798144,E,4,12,1.20,26.003,M,39.393,M,5.2,0000*5A
$GNGGA,104142.40,3605.0426015,N,14004.7798017,E,4,12,1.20,25.994,M,39.393,M,5.4,0000*5C
$GNGGA,104142.60,3605.0425346,N,14004.7797853,E,4,12,1.20,25.989,M,39.393,M,5.6,0000*51
$GNGGA,104142.80,3605.0424751,N,14004.7797934,E,4,12,1.20,25.987,M,39.393,M,5.8,0000*5C
$GNGGA,104143.20,3605.0424216,N,14004.7798101,E,4,12,1.20,25.992,M,39.393,M,6.2,0000*5D
$GNGGA,104143.70,3605.0423663,N,14004.7798370,E,4,12,1.20,25.983,M,39.393,M,6.7,0000*58
$GNGGA,104144.00,3605.0422854,N,14004.7798449,E,4,12,1.20,25.985,M,39.393,M,7.0,0000*5E
$GNGGA,104144.20,3605.0422083,N,14004.7798438,E,4,12,1.20,25.978,M,39.393,M,2.2,0000*5D
$GNGGA,104144.40,3605.0421209,N,14004.7798411,E,4,12,1.20,25.985,M,39.393,M,2.4,0000*57
$GNGGA,104144.60,3605.0420275,N,14004.7798422,E,4,12,1.20,25.989,M,39.393,M,2.6,0000*51
$GNGGA,104144.80,3605.0419278,N,14004.7798431,E,4,12,1.20,26.001,M,39.393,M,2.8,0000*5E
$GNGGA,104145.00,3605.0418307,N,14004.7798457,E,4,12,1.20,26.015,M,39.393,M,3.0,0000*53
$GNGGA,104145.20,3605.0417271,N,14004.7798312,E,4,12,1.20,26.021,M,39.393,M,3.2,0000*5D
$GNGGA,104145.30,3605.0416705,N,14004.7798192,E,4,12,1.20,26.024,M,39.393,M,3.3,0000*55
$GNGGA,104145.50,3605.0415676,N,14004.7798158,E,4,12,1.20,26.020,M,39.393,M,3.5,0000*51
$GNGGA,104145.70,3605.0414716,N,14004.7798178,E,4,12,1.20,26.038,M,39.393,M,3.7,0000*5C
$GNGGA,104145.90,3605.0413792,N,14004.7798097,E,4,12,1.20,26.036,M,39.393,M,3.9,0000*59
$GNGGA,104146.10,3605.0412869,N,14004.7798214,E,4,12,1.20,26.042,M,39.393,M,4.1,0000*5D
$GNGGA,104146.30,3605.0411912,N,14004.7798106,E,4,12,1.20,26.044,M,39.393,M,4.3,0000*55
$GNGGA,104146.50,3605.0410829,N,14004.7798088,E,4,12,1.20,26.021,M,39.393,M,4.5,0000*59
$GNGGA,104146.60,3605.0410264,N,14004.7798056,E,4,12,1.20,26.021,M,39.393,M,4.6,0000*59
$GNGGA,104146.70,3605.0409672,N,14004.7798035,E,4,12,1.20,26.029,M,39.393,M,4.7,0000*5F
$GNGGA,104146.80,3605.0409093,N,14004.7798027,E,4,12,1.20,26.037,M,39.393,M,4.8,0000*5A
$GNGGA,104146.90,3605.0408474,N,14004.7798044,E,4,12,1.20,26.036,M,39.393,M,4.9,0000*52
$GNGGA,104147.00,3605.0407836,N,14004.7798043,E,4,12,1.20,26.039,M,39.393,M,5.0,0000*5F
$GNGGA,104147.10,3605.0407235,N,14004.7798100,E,4,12,1.20,26.038,M,39.393,M,5.1,0000*51
$GNGGA,104147.20,3605.0406660,N,14004.7798080,E,4,12,1.20,26.049,M,39.393,M,5.2,0000*5B
$GNGGA,104147.30,3605.0406087,N,14004.7798081,E,4,12,1.20,26.057,M,39.393,M,5.3,0000*5A
$GNGGA,104147.40,3605.0405455,N,14004.7797969,E,4,12,1.20,26.053,M,39.393,M,5.4,0000*56
$GNGGA,104147.50,3605.0404834,N,14004.7797822,E,4,12,1.20,26.051,M,39.393,M,5.5,0000*50
$GNGGA,104147.60,3605.0404151,N,14004.7797687,E,4,12,1.20,26.041,M,39.393,M,5.6,0000*5A
$GNGGA,104147.70,3605.0403474,N,14004.7797572,E,4,12,1.20,26.035,M,39.393,M,5.7,0000*55
$GNGGA,104147.80,3605.0402853,N,14004.7797531,E,4,12,1.20,26.046,M,39.393,M,5.8,0000*5E
$GNGGA,104147.90,3605.0402230,N,14004.7797506,E,4,12,1.20,26.049,M,39.393,M,5.9,0000*5A
$GNGGA,104148.00,3605.0401565,N,14004.7797513,E,4,12,1.20,26.045,M,39.393,M,6.0,0000*5A
$GNGGA,104148.10,3605.0400922,N,14004.7797528,E,4,12,1.20,26.047,M,39.393,M,6.1,0000*5E
$GNGGA,104148.20,3605.0400294,N,14004.7797522,E,4,12,1.20,26.050,M,39.393,M,1.2,0000*53
$GNGGA,104148.30,3605.0399660,N,14004.7797487,E,4,12,1.20,26.067,M,39.393,M,1.3,0000*51
$GNGGA,104148.40,3605.0399079,N,14004.7797414,E,4,12,1.20,26.069,M,39.393,M,1.4,0000*5B
$GNGGA,104148.50,3605.0398457,N,14004.7797329,E,4,12,1.20,26.071,M,39.393,M,1.5,0000*52
$GNGGA,104148.60,3605.0397795,N,14004.7797245,E,4,12,1.20,26.059,M,39.393,M,1.6,0000*51
$GNGGA,104148.70,3605.0397144,N,14004.7797091,E,4,12,1.20,26.050,M,39.393,M,1.7,0000*59
$GNGGA,104148.80,3605.0396493,N,14004.7796970,E,4,12,1.20,26.049,M,39.393,M,1.8,0000*58
$GNGGA,104148.90,3605.0395820,N,14004.7796950,E,4,12,1.20,26.046,M,39.393,M,1.9,0000*52
$GNGGA,104149.00,3605.0395162,N,14004.7796942,E,4,12,1.20,26.036,M,39.393,M,2.0,0000*5B
$GNGGA,104149.20,3605.0393758,N,14004.7796915,E,4,12,1.20,26.013,M,39.393,M,2.2,0000*57
$GNGGA,104149.30,3605.0393112,N,14004.7796858,E,4,12,1.20,26.017,M,39.393,M,2.3,0000*53
$GNGGA,104149.40,3605.0392471,N,14004.7796749,E,4,12,1.20,26.011,M,39.393,M,2.4,0000*5B
$GNGGA,104149.50,3605.0391835,N,14004.7796605,E,4,12,1.20,26.012,M,39.393,M,2.5,0000*5E
$GNGGA,104149.60,3605.0391159,N,14004.7796463,E,4,12,1.20,25.996,M,39.393,M,2.6,0000*59
$GNGGA,104149.70,3605.0390458,N,14004.7796306,E,4,12,1.20,25.991,M,39.393,M,2.7,0000*5F
$GNGGA,104149.80,3605.0389798,N,14004.7796146,E,4,12,1.20,25.999,M,39.393,M,2.8,0000*56
$GNGGA,104149.90,3605.0389102,N,14004.7796034,E,4,12,1.20,26.001,M,39.393,M,2.9,0000*5C
$GNGGA,104150.00,3605.0388416,N,14004.7795922,E,4,12,1.20,26.005,M,39.393,M,3.0,0000*5D
$GNGGA,104150.20,3605.0387056,N,14004.7795691,E,4,12,1.20,25.999,M,39.393,M,3.2,0000*5A
$GNGGA,104150.30,3605.0386324,N,14004.7795608,E,4,12,1.20,26.003,M,39.393,M,3.3,0000*54
$GNGGA,104150.40,3605.0385671,N,14004.7795487,E,4,12,1.20,26.008,M,39.393,M,3.4,0000*5C
$GNGGA,104150.50,3605.0384992,N,14004.7795297,E,4,12,1.20,26.002,M,39.393,M,3.5,0000*52
