$GNGGA,113829.60,3604.9989892,N,14004.7757542,E,4,09,1.59,25.359,M,39.393,M,2.6,0000*57
$GNGGA,113832.40,3604.9990368,N,14004.7757934,E,4,09,1.59,25.468,M,39.393,M,5.4,0000*54
$GNGGA,113832.70,3604.9990247,N,14004.7758764,E,4,09,1.59,25.460,M,39.393,M,5.7,0000*54
$GNGGA,113832.90,3604.9990084,N,14004.7759691,E,4,09,1.59,25.453,M,39.393,M,5.9,0000*53
$GNGGA,113833.10,3604.9989926,N,14004.7760639,E,4,09,1.59,25.462,M,39.393,M,6.1,0000*52
$GNGGA,113833.30,3604.9989941,N,14004.7761492,E,4,09,1.59,25.454,M,39.393,M,1.3,0000*53
$GNGGA,113833.50,3604.9990066,N,14004.7762597,E,4,09,1.59,25.445,M,39.393,M,1.5,0000*50
$GNGGA,113833.70,3604.9990240,N,14004.7763751,E,4,09,1.59,25.445,M,39.393,M,1.7,0000*5F
$GNGGA,113833.90,3604.9990254,N,14004.7764741,E,4,09,1.59,25.433,M,39.393,M,1.9,0000*5D
$GNGGA,113834.10,3604.9990170,N,14004.7766016,E,4,09,1.59,25.433,M,39.393,M,2.1,0000*5B
$GNGGA,113834.20,3604.9990069,N,14004.7766770,E,4,09,1.59,25.424,M,39.393,M,2.2,0000*53
$GNGGA,113834.30,3604.9990032,N,14004.7767502,E,4,09,1.59,25.429,M,39.393,M,2.3,0000*56
$GNGGA,113834.50,3604.9989985,N,14004.7768731,E,4,09,1.59,25.419,M,39.393,M,2.5,0000*55
$GNGGA,113834.70,3604.9990208,N,14004.7770054,E,4,09,1.59,25.402,M,39.393,M,2.7,0000*54
$GNGGA,113834.80,3604.9990377,N,14004.7770719,E,4,09,1.59,25.395,M,39.393,M,2.8,0000*5A
$GNGGA,113835.00,3604.9990645,N,14004.7771882,E,4,09,1.59,25.405,M,39.393,M,3.0,0000*5C
$GNGGA,113835.20,3604.9991017,N,14004.7772810,E,4,09,1.59,25.413,M,39.393,M,3.2,0000*53
$GNGGA,113835.40,3604.9991463,N,14004.7773596,E,4,09,1.59,25.422,M,39.393,M,3.4,0000*54
$GNGGA,113835.70,3604.9992223,N,14004.7774156,E,4,09,1.59,25.433,M,39.393,M,3.7,0000*5A
$GNGGA,113835.90,3604.9992977,N,14004.7774230,E,4,09,1.59,25.407,M,39.393,M,3.9,0000*54
$GNGGA,113836.10,3604.9993781,N,14004.7774303,E,4,09,1.59,25.407,M,39.393,M,4.1,0000*57
$GNGGA,113836.30,3604.9994658,N,14004.7774486,E,4,09,1.59,25.414,M,39.393,M,4.3,0000*5D
$GNGGA,113836.50,3604.9995572,N,14004.7774700,E,4,09,1.59,25.401,M,39.393,M,4.5,0000*5E
$GNGGA,113836.70,3604.9996412,N,14004.7774666,E,4,09,1.58,25.410,M,39.393,M,4.7,0000*5A
$GNGGA,113836.90,3604.9997227,N,14004.7774631,E,4,09,1.58,25.409,M,39.393,M,4.9,0000*51
$GNGGA,113837.10,3604.9998213,N,14004.7774622,E,4,09,1.58,25.380,M,39.393,M,5.1,0000*5D
$GNGGA,113837.20,3604.9998759,N,14004.7774484,E,4,09,1.58,25.384,M,39.393,M,5.2,0000*5C
$GNGGA,113837.40,3604.9999666,N,14004.7774472,E,4,09,1.58,25.389,M,39.393,M,5.4,0000*54
$GNGGA,113837.60,3605.0000735,N,14004.7774586,E,4,09,1.58,25.366,M,39.393,M,5.6,0000*59
$GNGGA,113837.70,3605.0001341,N,14004.7774794,E,4,09,1.58,25.366,M,39.393,M,5.7,0000*5E
$GNGGA,113837.80,3605.0001897,N,14004.7774954,E,4,09,1.58,25.378,M,39.393,M,5.8,0000*53
$GNGGA,113837.90,3605.0002433,N,14004.7775143,E,4,09,1.58,25.386,M,39.393,M,5.9,0000*5C
$GNGGA,113838.10,3605.0003502,N,14004.7775439,E,4,09,1.58,25.383,M,39.393,M,6.1,0000*5F
$GNGGA,113838.20,3605.0004146,N,14004.7775528,E,4,09,1.58,25.382,M,39.393,M,1.2,0000*5B
$GNGGA,113838.30,3605.0004726,N,14004.7775610,E,4,09,1.58,25.387,M,39.393,M,1.3,0000*56
$GNGGA,113838.40,3605.0005336,N,14004.7775786,E,4,09,1.58,25.400,M,39.393,M,1.4,0000*54
$GNGGA,113838.60,3605.0006372,N,14004.7775906,E,4,09,1.58,25.410,M,39.393,M,1.6,0000*50
$GNGGA,113838.70,3605.0007065,N,14004.7776061,E,4,09,1.58,25.400,M,39.393,M,1.7,0000*5E
$GNGGA,113838.80,3605.0007647,N,14004.7776185,E,4,09,1.58,25.393,M,39.393,M,1.8,0000*5E
$GNGGA,113838.90,3605.0008230,N,14004.7776268,E,4,09,1.58,25.406,M,39.393,M,1.9,0000*5E
$GNGGA,113839.10,3605.0009315,N,14004.7776309,E,4,09,1.58,25.406,M,39.393,M,2.1,0000*5D
$GNGGA,113839.20,3605.0009967,N,14004.7776308,E,4,09,1.58,25.406,M,39.393,M,2.2,0000*53
$GNGGA,113839.30,3605.0010607,N,14004.7776254,E,4,09,1.58,25.397,M,39.393,M,2.3,0000*55
$GNGGA,113839.40,3605.0011236,N,14004.7776282,E,4,09,1.58,25.400,M,39.393,M,2.4,0000*50
$GNGGA,113839.60,3605.0012288,N,14004.7776375,E,4,09,1.58,25.410,M,39.393,M,2.6,0000*5E
$GNGGA,113839.70,3605.0012891,N,14004.7776402,E,4,09,1.58,25.402,M,39.393,M,2.7,0000*58
$GNGGA,113839.80,3605.0013517,N,14004.7776459,E,4,09,1.58,25.399,M,39.393,M,2.8,0000*51
$GNGGA,113839.90,3605.0014119,N,14004.7776540,E,4,09,1.58,25.401,M,39.393,M,2.9,0000*53
$GNGGA,113840.00,3605.0014701,N,14004.7776618,E,4,09,1.58,25.417,M,39.393,M,3.0,0000*5A
$GNGGA,113840.20,3605.0015794,N,14004.7776494,E,4,09,1.58,25.423,M,39.393,M,3.2,0000*56
$GNGGA,113840.30,3605.0016384,N,14004.7776479,E,4,09,1.58,25.424,M,39.393,M,3.3,0000*54
$GNGGA,113840.40,3605.0016950,N,14004.7776430,E,4,09,1.58,25.425,M,39.393,M,3.4,0000*5B
$GNGGA,113840.50,3605.0017608,N,14004.7776429,E,4,09,1.58,25.432,M,39.393,M,3.5,0000*56
$GNGGA,113840.60,3605.0018152,N,14004.7776471,E,4,09,1.58,25.438,M,39.393,M,3.6,0000*56
$GNGGA,113840.80,3605.0019287,N,14004.7776480,E,4,09,1.58,25.428,M,39.393,M,3.8,0000*53
$GNGGA,113840.90,3605.0019928,N,14004.7776620,E,4,09,1.58,25.415,M,39.393,M,3.9,0000*5B
$GNGGA,113841.00,3605.0020602,N,14004.7776736,E,4,09,1.58,25.422,M,39.393,M,4.0,0000*52
$GNGGA,113841.10,3605.0021166,N,14004.7776813,E,4,09,1.58,25.430,M,39.393,M,4.1,0000*5D
$GNGGA,113841.20,3605.0021728,N,14004.7776853,E,4,09,1.58,25.439,M,39.393,M,4.2,0000*5C
$GNGGA,113841.30,3605.0022367,N,14004.7776944,E,4,09,1.58,25.434,M,39.393,M,4.3,0000*5A
$GNGGA,113841.40,3605.0023057,N,14004.7776988,E,4,09,1.58,25.424,M,39.393,M,4.4,0000*5A
$GNGGA,113841.50,3605.0023721,N,14004.7777072,E,4,09,1.58,25.424,M,39.393,M,4.5,0000*51
$GNGGA,113841.60,3605.0024293,N,14004.7777183,E,4,09,1.58,25.436,M,39.393,M,4.6,0000*56
$GNGGA,113841.70,3605.0024842,N,14004.7777311,E,4,09,1.58,25.443,M,39.393,M,4.7,0000*5B
$GNGGA,113841.80,3605.0025387,N,14004.7777373,E,4,09,1.58,25.440,M,39.393,M,4.8,0000*5F
$GNGGA,113841.90,3605.0026084,N,14004.7777436,E,4,09,1.58,25.427,M,39.393,M,4.9,0000*5B
$GNGGA,113842.00,3605.0026714,N,14004.7777581,E,4,09,1.58,25.420,M,39.393,M,5.0,0000*5D
$GNGGA,113842.10,3605.0027300,N,14004.7777746,E,4,09,1.58,25.429,M,39.393,M,5.1,0000*5D
$GNGGA,113842.20,3605.0027839,N,14004.7777735,E,4,09,1.58,25.442,M,39.393,M,5.2,0000*55
$GNGGA,113842.30,3605.0028459,N,14004.7777729,E,4,09,1.58,25.441,M,39.393,M,5.3,0000*5E
$GNGGA,113842.40,3605.0029110,N,14004.7777765,E,4,09,1.58,25.432,M,39.393,M,5.4,0000*5B
$GNGGA,113842.50,3605.0029745,N,14004.7777725,E,4,09,1.58,25.435,M,39.393,M,5.5,0000*5E
$GNGGA,113842.60,3605.0030404,N,14004.7777777,E,4,09,1.58,25.442,M,39.393,M,5.6,0000*57
$GNGGA,113842.70,3605.0030978,N,14004.7777842,E,4,09,1.58,25.453,M,39.393,M,5.7,0000*58
$GNGGA,113842.80,3605.0031548,N,14004.7777868,E,4,09,1.58,25.458,M,39.393,M,5.8,0000*55
$GNGGA,113842.90,3605.0032183,N,14004.7777940,E,4,09,1.58,25.446,M,39.393,M,5.9,0000*51
$GNGGA,113843.00,3605.0032874,N,14004.7778022,E,4,09,1.58,25.441,M,39.393,M,6.0,0000*57
$GNGGA,113843.10,3605.0033531,N,14004.7778166,E,4,09,1.58,25.434,M,39.393,M,6.1,0000*59
$GNGGA,113843.20,3605.0034135,N,14004.7778229,E,4,09,1.58,25.442,M,39.393,M,6.2,0000*57
$GNGGA,113843.30,3605.0034688,N,14004.7778243,E,4,09,1.58,25.444,M,39.393,M,6.3,0000*5C
$GNGGA,113843.40,3605.0035343,N,14004.7778343,E,4,09,1.58,25.438,M,39.393,M,6.4,0000*55
$GNGGA,113843.50,3605.0035979,N,14004.7778362,E,4,09,1.58,25.435,M,39.393,M,6.5,0000*58
$GNGGA,113843.60,3605.0036627,N,14004.7778417,E,4,09,1.58,25.435,M,39.393,M,6.6,0000*5A
$GNGGA,113843.70,3605.0037323,N,14004.7778513,E,4,09,1.58,25.449,M,39.393,M,6.7,0000*54
$GNGGA,113843.80,3605.0037915,N,14004.7778543,E,4,09,1.58,25.453,M,39.393,M,6.8,0000*55
$GNGGA,113843.90,3605.0038469,N,14004.7778579,E,4,09,1.58,25.439,M,39.393,M,6.9,0000*59
$GNGGA,113844.00,3605.0039225,N,14004.7778606,E,4,09,1.58,25.434,M,39.393,M,7.0,0000*56
$GNGGA,113844.10,3605.0039923,N,14004.7778649,E,4,09,1.58,25.425,M,39.393,M,7.1,0000*50
$GNGGA,113844.20,3605.0040561,N,14004.7778787,E,4,09,1.58,25.426,M,39.393,M,2.2,0000*51
$GNGGA,113844.30,3605.0041129,N,14004.7778767,E,4,09,1.58,25.444,M,39.393,M,2.3,0000*52
$GNGGA,113844.40,3605.0041760,N,14004.7778783,E,4,09,1.58,25.449,M,39.393,M,2.4,0000*5E
$GNGGA,113844.50,3605.0042444,N,14004.7778833,E,4,09,1.58,25.441,M,39.393,M,2.5,0000*54
$GNGGA,113844.60,3605.0043079,N,14004.7778829,E,4,09,1.58,25.438,M,39.393,M,2.6,0000*5A
$GNGGA,113844.70,3605.0043755,N,14004.7778819,E,4,09,1.58,25.442,M,39.393,M,2.7,0000*5D
$GNGGA,113844.80,3605.0044395,N,14004.7778903,E,4,09,1.58,25.459,M,39.393,M,2.8,0000*52
$GNGGA,113845.00,3605.0045574,N,14004.7778975,E,4,09,1.58,25.442,M,39.393,M,3.0,0000*51
$GNGGA,113845.10,3605.0046258,N,14004.7779084,E,4,09,1.58,25.424,M,39.393,M,3.1,0000*5D
$GNGGA,113845.20,3605.0046928,N,14004.7779171,E,4,09,1.58,25.424,M,39.393,M,3.2,0000*5A
$GNGGA,113845.30,3605.0047609,N,14004.7779213,E,4,09,1.58,25.438,M,39.393,M,3.3,0000*5D
$GNGGA,113845.50,3605.0048845,N,14004.7779297,E,4,09,1.58,25.418,M,39.393,M,3.5,0000*5A
$GNGGA,113845.60,3605.0049535,N,14004.7779358,E,4,09,1.58,25.425,M,39.393,M,3.6,0000*5D
$GNGGA,113845.70,3605.0050231,N,14004.7779419,E,4,09,1.58,25.423,M,39.393,M,3.7,0000*52
$GNGGA,113845.80,3605.0050838,N,14004.7779544,E,4,09,1.58,25.419,M,39.393,M,3.8,0000*51
$GNGGA,113845.90,3605.0051469,N,14004.7779692,E,4,09,1.58,25.421,M,39.393,M,3.9,0000*5B
$GNGGA,113846.00,3605.0052136,N,14004.7779716,E,4,09,1.58,25.428,M,39.393,M,4.0,0000*57
$GNGGA,113846.10,3605.0052758,N,14004.7779775,E,4,09,1.58,25.414,M,39.393,M,4.1,0000*53
$GNGGA,113846.20,3605.0053388,N,14004.7779960,E,4,09,1.58,25.412,M,39.393,M,4.2,0000*57
$GNGGA,113846.30,3605.0054051,N,14004.7780050,E,4,09,1.58,25.423,M,39.393,M,4.3,0000*59
$GNGGA,113846.50,3605.0055206,N,14004.7780023,E,4,09,1.58,25.442,M,39.393,M,4.5,0000*5B
$GNGGA,113846.60,3605.0055940,N,14004.7780013,E,4,09,1.58,25.429,M,39.393,M,4.6,0000*5C
$GNGGA,113846.70,3605.0056589,N,14004.7780104,E,4,09,1.58,25.415,M,39.393,M,4.7,0000*5E
$GNGGA,113846.80,3605.0057205,N,14004.7780116,E,4,09,1.58,25.419,M,39.393,M,4.8,0000*53
$GNGGA,113846.90,3605.0057774,N,14004.7780216,E,4,09,1.58,25.427,M,39.393,M,4.9,0000*5E
$GNGGA,113847.00,3605.0058349,N,14004.7780263,E,4,09,1.58,25.431,M,39.393,M,5.0,0000*5E
$GNGGA,113847.10,3605.0059041,N,14004.7780371,E,4,09,1.58,25.416,M,39.393,M,5.1,0000*53
$GNGGA,113847.20,3605.0059659,N,14004.7780511,E,4,09,1.58,25.408,M,39.393,M,5.2,0000*53
$GNGGA,113847.30,3605.0060235,N,14004.7780692,E,4,09,1.58,25.424,M,39.393,M,5.3,0000*51
$GNGGA,113847.40,3605.0060785,N,14004.7780766,E,4,09,1.58,25.413,M,39.393,M,5.4,0000*51
$GNGGA,113847.50,3605.0061403,N,14004.7780902,E,4,09,1.58,25.424,M,39.393,M,5.5,0000*55
$GNGGA,113847.60,3605.0062122,N,14004.7780952,E,4,09,1.58,25.434,M,39.393,M,5.6,0000*54
$GNGGA,113847.70,3605.0062806,N,14004.7781053,E,4,09,1.58,25.453,M,39.393,M,5.7,0000*53
$GNGGA,113847.80,3605.0063401,N,14004.7781260,E,4,09,1.58,25.464,M,39.393,M,5.8,0000*5F
$GNGGA,113847.90,3605.0063957,N,14004.7781355,E,4,09,1.58,25.476,M,39.393,M,5.9,0000*55
$GNGGA,113848.00,3605.0064521,N,14004.7781479,E,4,09,1.58,25.472,M,39.393,M,6.0,0000*5E
$GNGGA,113848.10,3605.0065179,N,14004.7781498,E,4,09,1.58,25.463,M,39.393,M,6.1,0000*59
$GNGGA,113848.20,3605.0065908,N,14004.7781686,E,4,09,1.58,25.475,M,39.393,M,1.2,0000*5A
$GNGGA,113848.30,3605.0066536,N,14004.7781909,E,4,09,1.58,25.475,M,39.393,M,1.3,0000*50
$GNGGA,113848.40,3605.0067146,N,14004.7782022,E,4,09,1.58,25.491,M,39.393,M,1.4,0000*5B
$GNGGA,113848.50,3605.0067742,N,14004.7782098,E,4,09,1.58,25.487,M,39.393,M,1.5,0000*5F
$GNGGA,113848.60,3605.0068370,N,14004.7782145,E,4,09,1.58,25.477,M,39.393,M,1.6,0000*5B
$GNGGA,113848.70,3605.0069093,N,14004.7782168,E,4,09,1.58,25.485,M,39.393,M,1.7,0000*56
$GNGGA,113848.80,3605.0069698,N,14004.7782108,E,4,09,1.58,25.468,M,39.393,M,1.8,0000*5E
$GNGGA,113848.90,3605.0070374,N,14004.7782324,E,4,09,1.58,25.467,M,39.393,M,1.9,0000*52
$GNGGA,113849.10,3605.0071427,N,14004.7782118,E,4,09,1.58,25.471,M,39.393,M,2.1,0000*5A
$GNGGA,113849.20,3605.0072174,N,14004.7782068,E,4,09,1.58,25.484,M,39.393,M,2.2,0000*56
$GNGGA,113849.30,3605.0072797,N,14004.7782226,E,4,09,1.58,25.470,M,39.393,M,2.3,0000*5E
$GNGGA,113849.40,3605.0073473,N,14004.7782533,E,4,09,1.58,25.454,M,39.393,M,2.4,0000*53
$GNGGA,113849.60,3605.0074592,N,14004.7782490,E,4,09,1.58,25.394,M,39.393,M,2.6,0000*59
$GNGGA,113849.70,3605.0075259,N,14004.7782431,E,4,09,1.58,25.383,M,39.393,M,2.7,0000*55
$GNGGA,113849.80,3605.0075847,N,14004.7782415,E,4,09,1.58,25.366,M,39.393,M,2.8,0000*5D
$GNGGA,113849.90,3605.0076451,N,14004.7782553,E,4,09,1.58,25.316,M,39.393,M,2.9,0000*51
$GNGGA,113850.10,3605.0077705,N,14004.7782735,E,4,09,1.58,25.336,M,39.393,M,3.1,0000*5B
$GNGGA,113850.30,3605.0078881,N,14004.7782808,E,5,09,1.58,25.345,M,39.393,M,3.3,0000*53
$GNGGA,113850.40,3605.0079547,N,14004.7782965,E,5,09,1.58,25.391,M,39.393,M,3.4,0000*56
$GNGGA,113850.50,3605.0080204,N,14004.7783046,E,5,09,1.58,25.439,M,39.393,M,3.5,0000*5C
$GNGGA,113850.60,3605.0080771,N,14004.7782956,E,5,09,1.58,25.463,M,39.393,M,3.6,0000*5D
$GNGGA,113850.70,3605.0081432,N,14004.7783021,E,5,09,1.58,25.448,M,39.393,M,3.7,0000*59
$GNGGA,113850.80,3605.0082035,N,14004.7783069,E,5,09,1.58,25.476,M,39.393,M,3.8,0000*58
$GNGGA,113850.90,3605.0082664,N,14004.7783273,E,5,09,1.58,25.450,M,39.393,M,3.9,0000*57
$GNGGA,113851.00,3605.0083246,N,14004.7783337,E,5,09,1.58,25.450,M,39.393,M,4.0,0000*55
$GNGGA,113851.20,3605.0084389,N,14004.7783350,E,5,09,1.58,25.507,M,39.393,M,4.2,0000*52
$GNGGA,113851.30,3605.0085122,N,14004.7783532,E,5,09,1.58,25.490,M,39.393,M,4.3,0000*5D
$GNGGA,113851.40,3605.0085750,N,14004.7783651,E,5,09,1.58,25.476,M,39.393,M,4.4,0000*50
$GNGGA,113851.50,3605.0086310,N,14004.7783829,E,5,09,1.58,25.485,M,39.393,M,4.5,0000*5E
$GNGGA,113851.60,3605.0086905,N,14004.7783717,E,5,09,1.58,25.473,M,39.393,M,4.6,0000*5B
$GNGGA,113851.80,3605.0088150,N,14004.7783833,E,5,09,1.58,25.435,M,39.393,M,4.8,0000*56
$GNGGA,113851.90,3605.0088715,N,14004.7783894,E,5,09,1.58,25.380,M,39.393,M,4.9,0000*55
$GNGGA,113852.00,3605.0089361,N,14004.7783970,E,5,09,1.58,25.355,M,39.393,M,5.0,0000*52
$GNGGA,113852.10,3605.0089914,N,14004.7784040,E,5,09,1.58,25.355,M,39.393,M,5.1,0000*57
$GNGGA,113852.30,3605.0091048,N,14004.7784083,E,5,09,1.58,25.319,M,39.393,M,5.3,0000*59
$GNGGA,113852.40,3605.0091753,N,14004.7784156,E,5,09,1.58,25.307,M,39.393,M,5.4,0000*52
$GNGGA,113852.50,3605.0092380,N,14004.7784311,E,5,09,1.58,25.311,M,39.393,M,5.5,0000*5D
$GNGGA,113852.60,3605.0092979,N,14004.7784376,E,5,09,1.58,25.309,M,39.393,M,5.6,0000*59
$GNGGA,113852.70,3605.0093524,N,14004.7784435,E,5,09,1.58,25.325,M,39.393,M,5.7,0000*52
$GNGGA,113852.80,3605.0094089,N,14004.7784558,E,5,09,1.58,25.309,M,39.393,M,5.8,0000*53
$GNGGA,113852.90,3605.0094811,N,14004.7784574,E,5,09,1.58,25.292,M,39.393,M,5.9,0000*57
$GNGGA,113853.00,3605.0095359,N,14004.7784633,E,5,09,1.58,25.309,M,39.393,M,6.0,0000*50
$GNGGA,113853.10,3605.0095928,N,14004.7784807,E,5,09,1.58,25.310,M,39.393,M,6.1,0000*5D
$GNGGA,113853.20,3605.0096447,N,14004.7785027,E,5,09,1.58,25.310,M,39.393,M,1.2,0000*56
$GNGGA,113853.40,3605.0097356,N,14004.7785365,E,5,09,1.58,25.312,M,39.393,M,1.4,0000*57
$GNGGA,113853.60,3605.0098199,N,14004.7785722,E,5,09,1.58,25.326,M,39.393,M,1.6,0000*59
$GNGGA,113853.80,3605.0098868,N,14004.7785855,E,5,09,1.58,25.335,M,39.393,M,1.8,0000*53
$GNGGA,113854.00,3605.0099740,N,14004.7785844,E,5,09,1.58,25.348,M,39.393,M,2.0,0000*59
$GNGGA,113854.20,3605.0100794,N,14004.7785628,E,5,09,1.58,25.376,M,39.393,M,2.2,0000*58
$GNGGA,113854.40,3605.0101664,N,14004.7785621,E,5,09,1.58,25.370,M,39.393,M,2.4,0000*58
$GNGGA,113854.60,3605.0102628,N,14004.7785580,E,5,09,1.58,25.385,M,39.393,M,2.6,0000*51
$GNGGA,113854.70,3605.0103174,N,14004.7785660,E,5,09,1.58,25.373,M,39.393,M,2.7,0000*5A
$GNGGA,113854.80,3605.0103792,N,14004.7785670,E,5,09,1.58,25.361,M,39.393,M,2.8,0000*56
$GNGGA,113855.00,3605.0104650,N,14004.7785965,E,5,09,1.58,25.372,M,39.393,M,3.0,0000*57
$GNGGA,113855.20,3605.0105570,N,14004.7786288,E,5,09,1.58,25.349,M,39.393,M,3.2,0000*54
$GNGGA,113855.40,3605.0106321,N,14004.7786698,E,5,09,1.58,25.362,M,39.393,M,3.4,0000*59
$GNGGA,113855.70,3605.0106868,N,14004.7787873,E,4,09,1.58,25.304,M,39.393,M,3.7,0000*54
$GNGGA,113858.20,3605.0106368,N,14004.7787612,E,4,09,1.58,25.389,M,39.393,M,1.2,0000*5C
$GNGGA,113901.40,3605.0106965,N,14004.7787780,E,4,09,1.58,25.457,M,39.393,M,4.4,0000*5D
$GNGGA,113901.70,3605.0107689,N,14004.7787297,E,4,09,1.58,25.557,M,39.393,M,4.7,0000*53
$GNGGA,113902.00,3605.0108260,N,14004.7787462,E,4,09,1.58,25.571,M,39.393,M,5.0,0000*55
$GNGGA,113902.60,3605.0108450,N,14004.7788223,E,4,09,1.58,25.594,M,39.393,M,5.6,0000*57
$GNGGA,113902.80,3605.0108275,N,14004.7789073,E,4,09,1.58,25.563,M,39.393,M,5.8,0000*58
$GNGGA,113903.00,3605.0108245,N,14004.7790056,E,4,09,1.58,25.573,M,39.393,M,6.0,0000*57
$GNGGA,113903.20,3605.0108359,N,14004.7791085,E,4,09,1.58,25.592,M,39.393,M,1.2,0000*5C
$GNGGA,113903.40,3605.0108670,N,14004.7792181,E,4,09,1.58,25.581,M,39.393,M,1.4,0000*56
$GNGGA,113903.50,3605.0108854,N,14004.7792942,E,4,09,1.58,25.581,M,39.393,M,1.5,0000*59
$GNGGA,113903.70,3605.0109078,N,14004.7794053,E,4,09,1.58,25.614,M,39.393,M,1.7,0000*5E
$GNGGA,113903.90,3605.0109440,N,14004.7795054,E,4,09,1.58,25.609,M,39.393,M,1.9,0000*5B
$GNGGA,113904.10,3605.0110026,N,14004.7795990,E,4,09,1.58,25.603,M,39.393,M,2.1,0000*58
$GNGGA,113904.30,3605.0110814,N,14004.7796446,E,4,09,1.58,25.586,M,39.393,M,2.3,0000*5A
$GNGGA,113904.50,3605.0111598,N,14004.7796508,E,4,09,1.58,25.553,M,39.393,M,2.5,0000*51
$GNGGA,113904.70,3605.0112528,N,14004.7796515,E,4,09,1.58,25.509,M,39.393,M,2.7,0000*5A
$GNGGA,113904.90,3605.0113575,N,14004.7796686,E,4,09,1.58,25.446,M,39.393,M,2.9,0000*50
$GNGGA,113905.10,3605.0114641,N,14004.7796838,E,4,09,1.58,25.421,M,39.393,M,3.1,0000*59
$GNGGA,113905.30,3605.0115858,N,14004.7796969,E,4,09,1.58,25.359,M,39.393,M,3.3,0000*53
$GNGGA,113905.40,3605.0116438,N,14004.7797093,E,4,09,1.58,25.362,M,39.393,M,3.4,0000*5F
$GNGGA,113905.50,3605.0117017,N,14004.7797228,E,4,09,1.58,25.356,M,39.393,M,3.5,0000*52
$GNGGA,113905.60,3605.0117630,N,14004.7797219,E,4,09,1.58,25.346,M,39.393,M,3.6,0000*52
$GNGGA,113905.70,3605.0118317,N,14004.7797252,E,4,09,1.58,25.376,M,39.393,M,3.7,0000*51
$GNGGA,113905.80,3605.0119009,N,14004.7797238,E,4,09,1.58,25.362,M,39.393,M,3.8,0000*55
$GNGGA,113905.90,3605.0119713,N,14004.7797205,E,4,09,1.58,25.357,M,39.393,M,3.9,0000*51
$GNGGA,113906.00,3605.0120393,N,14004.7797285,E,4,09,1.58,25.374,M,39.393,M,4.0,0000*5A
$GNGGA,113906.10,3605.0121105,N,14004.7797409,E,4,09,1.58,25.390,M,39.393,M,4.1,0000*5E
$GNGGA,113906.20,3605.0121652,N,14004.7797497,E,4,09,1.58,25.392,M,39.393,M,4.2,0000*5E
$GNGGA,113906.30,3605.0122405,N,14004.7797608,E,4,09,1.58,25.391,M,39.393,M,4.3,0000*5A
$GNGGA,113906.40,3605.0123129,N,14004.7797793,E,4,09,1.58,25.387,M,39.393,M,4.4,0000*54
$GNGGA,113906.50,3605.0123814,N,14004.7797929,E,4,09,1.58,25.390,M,39.393,M,4.5,0000*5A
$GNGGA,113906.60,3605.0124389,N,14004.7797955,E,4,09,1.58,25.401,M,39.393,M,4.6,0000*56
$GNGGA,113906.70,3605.0125066,N,14004.7798047,E,4,09,1.58,25.404,M,39.393,M,4.7,0000*55
$GNGGA,113906.80,3605.0125757,N,14004.7798089,E,4,09,1.58,25.401,M,39.393,M,4.8,0000*57
$GNGGA,113906.90,3605.0126500,N,14004.7798108,E,4,09,1.58,25.406,M,39.393,M,4.9,0000*5B
$GNGGA,113907.00,3605.0127198,N,14004.7798238,E,4,09,1.58,25.408,M,39.393,M,5.0,0000*51
$GNGGA,113907.10,3605.0127853,N,14004.7798340,E,4,09,1.58,25.431,M,39.393,M,5.1,0000*5B
$GNGGA,113907.20,3605.0128439,N,14004.7798466,E,4,09,1.58,25.434,M,39.393,M,5.2,0000*52
$GNGGA,113907.30,3605.0129250,N,14004.7798492,E,4,09,1.58,25.422,M,39.393,M,5.3,0000*56
$GNGGA,113907.40,3605.0129879,N,14004.7798597,E,4,09,1.58,25.417,M,39.393,M,5.4,0000*55
$GNGGA,113907.50,3605.0130558,N,14004.7798740,E,4,09,1.58,25.423,M,39.393,M,5.5,0000*5C
$GNGGA,113907.60,3605.0131120,N,14004.7798776,E,4,09,1.58,25.422,M,39.393,M,5.6,0000*52
$GNGGA,113907.70,3605.0131742,N,14004.7798809,E,4,09,1.58,25.431,M,39.393,M,5.7,0000*55
$GNGGA,113907.80,3605.0132448,N,14004.7798857,E,4,09,1.58,25.415,M,39.393,M,5.8,0000*52
$GNGGA,113907.90,3605.0133068,N,14004.7798911,E,4,09,1.58,25.418,M,39.393,M,5.9,0000*5B
$GNGGA,113908.00,3605.0133694,N,14004.7798965,E,4,09,1.58,25.424,M,39.393,M,6.0,0000*5E
$GNGGA,113908.10,3605.0134284,N,14004.7799096,E,4,09,1.58,25.422,M,39.393,M,6.1,0000*5E
$GNGGA,113908.30,3605.0135376,N,14004.7799182,E,4,09,1.58,25.433,M,39.393,M,1.3,0000*50
$GNGGA,113908.40,3605.0136016,N,14004.7799201,E,4,09,1.58,25.437,M,39.393,M,1.4,0000*5A
$GNGGA,113908.50,3605.0136579,N,14004.7799182,E,4,09,1.58,25.435,M,39.393,M,1.5,0000*5C
$GNGGA,113908.70,3605.0137428,N,14004.7799172,E,4,09,1.58,25.458,M,39.393,M,1.7,0000*5C
$GNGGA,113908.90,3605.0138310,N,14004.7799045,E,4,09,1.58,25.457,M,39.393,M,1.9,0000*55
$GNGGA,113909.10,3605.0138921,N,14004.7798886,E,4,09,1.58,25.472,M,39.393,M,2.1,0000*5E
$GNGGA,113909.40,3605.0139474,N,14004.7798380,E,4,09,1.58,25.483,M,39.393,M,2.4,0000*51
$GNGGA,113909.70,3605.0139821,N,14004.7797481,E,4,09,1.58,25.446,M,39.393,M,2.7,0000*5D
$GNGGA,113909.90,3605.0139971,N,14004.7796487,E,4,09,1.58,25.429,M,39.393,M,2.9,0000*57
$GNGGA,113910.10,3605.0140072,N,14004.7795195,E,4,09,1.58,25.414,M,39.393,M,3.1,0000*51
$GNGGA,113910.30,3605.0140112,N,14004.7794239,E,4,09,1.58,25.399,M,39.393,M,3.3,0000*50
$GNGGA,113910.50,3605.0140219,N,14004.7793188,E,4,09,1.58,25.386,M,39.393,M,3.5,0000*58
$GNGGA,113910.70,3605.0140435,N,14004.7792381,E,4,09,1.58,25.384,M,39.393,M,3.7,0000*58
$GNGGA,113911.00,3605.0140920,N,14004.7791693,E,4,09,1.58,25.360,M,39.393,M,4.0,0000*58
$GNGGA,113911.20,3605.0141449,N,14004.7791546,E,4,09,1.58,25.346,M,39.393,M,4.2,0000*54
$GNGGA,113911.40,3605.0142049,N,14004.7791490,E,4,09,1.58,25.340,M,39.393,M,4.4,0000*5F
$GNGGA,113911.60,3605.0142973,N,14004.7791583,E,4,09,1.58,25.360,M,39.393,M,4.6,0000*5E
$GNGGA,113911.80,3605.0143895,N,14004.7791694,E,4,09,1.58,25.352,M,39.393,M,4.8,0000*52
$GNGGA,113912.00,3605.0144855,N,14004.7791684,E,4,09,1.58,25.351,M,39.393,M,5.0,0000*59
$GNGGA,113912.20,3605.0145971,N,14004.7791460,E,4,09,1.58,25.352,M,39.393,M,5.2,0000*54
$GNGGA,113912.30,3605.0146530,N,14004.7791507,E,4,09,1.58,25.365,M,39.393,M,5.3,0000*5A
$GNGGA,113912.50,3605.0147546,N,14004.7791539,E,4,09,1.58,25.389,M,39.393,M,5.5,0000*55
$GNGGA,113912.60,3605.0148246,N,14004.7791516,E,4,09,1.58,25.375,M,39.393,M,5.6,0000*53
$GNGGA,113912.70,3605.0148826,N,14004.7791578,E,4,09,1.58,25.386,M,39.393,M,5.7,0000*5B
$GNGGA,113912.80,3605.0149429,N,14004.7791704,E,4,09,1.58,25.394,M,39.393,M,5.8,0000*53
$GNGGA,113912.90,3605.0150004,N,14004.7791662,E,4,09,1.58,25.408,M,39.393,M,5.9,0000*53
$GNGGA,113913.00,3605.0150562,N,14004.7791643,E,4,09,1.58,25.412,M,39.393,M,6.0,0000*5C
$GNGGA,113913.10,3605.0151133,N,14004.7791737,E,4,09,1.58,25.404,M,39.393,M,6.1,0000*58
$GNGGA,113913.20,3605.0151764,N,14004.7791673,E,4,09,1.58,25.419,M,39.393,M,6.2,0000*51
$GNGGA,113913.30,3605.0152399,N,14004.7791687,E,4,09,1.58,25.430,M,39.393,M,6.3,0000*54
$GNGGA,113913.40,3605.0152940,N,14004.7791838,E,4,09,1.58,25.425,M,39.393,M,6.4,0000*54
$GNGGA,113913.50,3605.0153488,N,14004.7791873,E,4,09,1.58,25.426,M,39.393,M,6.5,0000*50
$GNGGA,113913.60,3605.0154128,N,14004.7791909,E,4,09,1.58,25.427,M,39.393,M,6.6,0000*55
$GNGGA,113913.70,3605.0154719,N,14004.7792044,E,4,09,1.58,25.396,M,39.393,M,6.7,0000*5F
$GNGGA,113913.80,3605.0155325,N,14004.7792142,E,4,09,1.58,25.401,M,39.393,M,6.8,0000*5B
$GNGGA,113913.90,3605.0155923,N,14004.7792247,E,4,09,1.58,25.409,M,39.393,M,6.9,0000*59
$GNGGA,113914.10,3605.0157058,N,14004.7792339,E,4,09,1.58,25.407,M,39.393,M,7.1,0000*5E
$GNGGA,113914.20,3605.0157700,N,14004.7792386,E,4,09,1.58,25.396,M,39.393,M,2.2,0000*5A
$GNGGA,113914.30,3605.0158288,N,14004.7792388,E,4,09,1.58,25.388,M,39.393,M,2.3,0000*51
$GNGGA,113914.40,3605.0158913,N,14004.7792482,E,4,09,1.58,25.394,M,39.393,M,2.4,0000*58
$GNGGA,113914.50,3605.0159511,N,14004.7792577,E,4,09,1.58,25.404,M,39.393,M,2.5,0000*52
$GNGGA,113914.70,3605.0160685,N,14004.7792677,E,4,09,1.58,25.382,M,39.393,M,2.7,0000*5C
$GNGGA,113914.80,3605.0161307,N,14004.7792815,E,4,09,1.58,25.384,M,39.393,M,2.8,0000*5E
$GNGGA,113914.90,3605.0161899,N,14004.7792912,E,4,09,1.58,25.376,M,39.393,M,2.9,0000*59
$GNGGA,113915.00,3605.0162479,N,14004.7792958,E,4,09,1.58,25.385,M,39.393,M,3.0,0000*5A
$GNGGA,113915.20,3605.0163620,N,14004.7793062,E,4,09,1.58,25.378,M,39.393,M,3.2,0000*56
$GNGGA,113915.30,3605.0164193,N,14004.7793073,E,4,09,1.58,25.377,M,39.393,M,3.3,0000*51
$GNGGA,113915.40,3605.0164810,N,14004.7793122,E,4,09,1.58,25.381,M,39.393,M,3.4,0000*5F
$GNGGA,113915.50,3605.0165441,N,14004.7793190,E,4,09,1.58,25.387,M,39.393,M,3.5,0000*59
$GNGGA,113915.60,3605.0165978,N,14004.7793267,E,4,09,1.58,25.388,M,39.393,M,3.6,0000*5A
$GNGGA,113915.70,3605.0166522,N,14004.7793233,E,4,09,1.58,25.376,M,39.393,M,3.7,0000*5A
$GNGGA,113915.80,3605.0167155,N,14004.7793344,E,4,09,1.58,25.371,M,39.393,M,3.8,0000*59
$GNGGA,113915.90,3605.0167750,N,14004.7793454,E,4,09,1.58,25.367,M,39.393,M,3.9,0000*5B
$GNGGA,113916.00,3605.0168362,N,14004.7793565,E,4,09,1.58,25.369,M,39.393,M,4.0,0000*58
$GNGGA,113916.10,3605.0168956,N,14004.7793612,E,4,09,1.58,25.375,M,39.393,M,4.1,0000*5B
$GNGGA,113916.20,3605.0169495,N,14004.7793615,E,4,09,1.58,25.379,M,39.393,M,4.2,0000*53
$GNGGA,113916.30,3605.0170090,N,14004.7793699,E,4,09,1.58,25.363,M,39.393,M,4.3,0000*55
$GNGGA,113916.40,3605.0170768,N,14004.7793734,E,4,09,1.58,25.360,M,39.393,M,4.4,0000*50
$GNGGA,113916.50,3605.0171396,N,14004.7793732,E,4,09,1.58,25.373,M,39.393,M,4.5,0000*50
$GNGGA,113916.60,3605.0172023,N,14004.7793826,E,4,09,1.58,25.365,M,39.393,M,4.6,0000*53
$GNGGA,113916.80,3605.0173160,N,14004.7793981,E,4,09,1.58,25.367,M,39.393,M,4.8,0000*5A
$GNGGA,113916.90,3605.0173835,N,14004.7794091,E,4,09,1.58,25.363,M,39.393,M,4.9,0000*58
$GNGGA,113917.00,3605.0174488,N,14004.7794223,E,4,09,1.58,25.364,M,39.393,M,5.0,0000*59
$GNGGA,113917.10,3605.0175089,N,14004.7794295,E,4,09,1.58,25.373,M,39.393,M,5.1,0000*56
$GNGGA,113917.30,3605.0176235,N,14004.7794350,E,4,09,1.58,25.386,M,39.393,M,5.3,0000*52
$GNGGA,113917.40,3605.0176883,N,14004.7794410,E,4,09,1.58,25.380,M,39.393,M,5.4,0000*50
$GNGGA,113917.50,3605.0177483,N,14004.7794379,E,4,09,1.58,25.383,M,39.393,M,5.5,0000*56
$GNGGA,113917.60,3605.0178093,N,14004.7794424,E,4,09,1.58,25.401,M,39.393,M,5.6,0000*5E
$GNGGA,113917.70,3605.0178649,N,14004.7794503,E,4,09,1.58,25.401,M,39.393,M,5.7,0000*5B
$GNGGA,113917.90,3605.0179777,N,14004.7794592,E,4,09,1.58,25.403,M,39.393,M,5.9,0000*5C
$GNGGA,113918.00,3605.0180360,N,14004.7794660,E,4,09,1.58,25.404,M,39.393,M,6.0,0000*5D
$GNGGA,113918.10,3605.0180981,N,14004.7794752,E,4,09,1.58,25.404,M,39.393,M,6.1,0000*58
$GNGGA,113918.30,3605.0182037,N,14004.7794721,E,4,09,1.58,25.421,M,39.393,M,1.3,0000*5A
$GNGGA,113918.40,3605.0182652,N,14004.7794763,E,4,09,1.58,25.413,M,39.393,M,1.4,0000*58
$GNGGA,113918.50,3605.0183196,N,14004.7794715,E,4,09,1.58,25.405,M,39.393,M,1.5,0000*50
$GNGGA,113918.60,3605.0183809,N,14004.7794732,E,4,09,1.58,25.407,M,39.393,M,1.6,0000*58
$GNGGA,113918.70,3605.0184400,N,14004.7794769,E,4,09,1.58,25.414,M,39.393,M,1.7,0000*56
$GNGGA,113918.80,3605.0184966,N,14004.7794781,E,4,09,1.58,25.415,M,39.393,M,1.8,0000*5C
$GNGGA,113919.00,3605.0186129,N,14004.7794799,E,4,09,1.58,25.411,M,39.393,M,2.0,0000*52
$GNGGA,113919.10,3605.0186800,N,14004.7794954,E,4,09,1.58,25.399,M,39.393,M,2.1,0000*58
$GNGGA,113919.20,3605.0187453,N,14004.7795183,E,4,09,1.58,25.400,M,39.393,M,2.2,0000*57
$GNGGA,113919.30,3605.0188009,N,14004.7795243,E,4,09,1.58,25.406,M,39.393,M,2.3,0000*5A
$GNGGA,113919.40,3605.0188566,N,14004.7795260,E,4,09,1.58,25.412,M,39.393,M,2.4,0000*52
$GNGGA,113919.50,3605.0189273,N,14004.7795427,E,4,09,1.58,25.395,M,39.393,M,2.5,0000*5D
$GNGGA,113919.60,3605.0189962,N,14004.7795365,E,4,09,1.58,25.390,M,39.393,M,2.6,0000*52
$GNGGA,113919.70,3605.0190622,N,14004.7795400,E,4,09,1.58,25.387,M,39.393,M,2.7,0000*53
$GNGGA,113919.80,3605.0191230,N,14004.7795574,E,4,09,1.58,25.390,M,39.393,M,2.8,0000*51
$GNGGA,113919.90,3605.0191858,N,14004.7795694,E,4,09,1.58,25.384,M,39.393,M,2.9,0000*5D
$GNGGA,113920.00,3605.0192520,N,14004.7795797,E,4,09,1.58,25.378,M,39.393,M,3.0,0000*56
$GNGGA,113920.10,3605.0193130,N,14004.7795989,E,4,09,1.58,25.361,M,39.393,M,3.1,0000*5B
$GNGGA,113920.20,3605.0193885,N,14004.7796142,E,4,09,1.58,25.374,M,39.393,M,3.2,0000*54
$GNGGA,113920.30,3605.0194474,N,14004.7796226,E,4,09,1.58,25.369,M,39.393,M,3.3,0000*5C
$GNGGA,113920.40,3605.0195104,N,14004.7796237,E,4,09,1.58,25.359,M,39.393,M,3.4,0000*5C
$GNGGA,113920.50,3605.0195820,N,14004.7796213,E,4,09,1.58,25.349,M,39.393,M,3.5,0000*54
$GNGGA,113920.60,3605.0196528,N,14004.7796246,E,4,09,1.58,25.342,M,39.393,M,3.6,0000*59
$GNGGA,113920.70,3605.0197222,N,14004.7796303,E,4,09,1.58,25.327,M,39.393,M,3.7,0000*56
$GNGGA,113920.80,3605.0197792,N,14004.7796452,E,4,09,1.58,25.317,M,39.393,M,3.8,0000*58
$GNGGA,113920.90,3605.0198437,N,14004.7796495,E,4,09,1.58,25.340,M,39.393,M,3.9,0000*52
$GNGGA,113921.00,3605.0199073,N,14004.7796400,E,4,09,1.58,25.339,M,39.393,M,4.0,0000*53
$GNGGA,113921.10,3605.0199647,N,14004.7796625,E,4,09,1.58,25.336,M,39.393,M,4.1,0000*58
$GNGGA,113921.20,3605.0200388,N,14004.7796734,E,4,09,1.58,25.355,M,39.393,M,4.2,0000*59
$GNGGA,113921.30,3605.0201096,N,14004.7796772,E,4,09,1.58,25.385,M,39.393,M,4.3,0000*5B
$GNGGA,113921.40,3605.0201680,N,14004.7796841,E,4,09,1.58,25.364,M,39.393,M,4.4,0000*5A
$GNGGA,113921.50,3605.0202369,N,14004.7796910,E,4,09,1.58,25.343,M,39.393,M,4.5,0000*5B
$GNGGA,113921.60,3605.0203026,N,14004.7796961,E,4,09,1.58,25.355,M,39.393,M,4.6,0000*53
$GNGGA,113921.70,3605.0203705,N,14004.7796935,E,4,09,1.58,25.371,M,39.393,M,4.7,0000*52
$GNGGA,113921.80,3605.0204410,N,14004.7796984,E,4,09,1.58,25.387,M,39.393,M,4.8,0000*51
$GNGGA,113921.90,3605.0205066,N,14004.7797083,E,4,09,1.58,25.452,M,39.393,M,4.9,0000*55
$GNGGA,113922.00,3605.0205688,N,14004.7797146,E,4,09,1.58,25.492,M,39.393,M,5.0,0000*55
$GNGGA,113922.10,3605.0206503,N,14004.7797182,E,4,09,1.58,25.514,M,39.393,M,5.1,0000*51
$GNGGA,113922.20,3605.0207159,N,14004.7797323,E,4,09,1.58,25.501,M,39.393,M,5.2,0000*56
$GNGGA,113922.30,3605.0207843,N,14004.7797439,E,4,09,1.58,25.502,M,39.393,M,5.3,0000*5B
$GNGGA,113922.40,3605.0208393,N,14004.7797496,E,4,09,1.58,25.519,M,39.393,M,5.4,0000*5D
$GNGGA,113922.50,3605.0208951,N,14004.7797568,E,4,09,1.58,25.534,M,39.393,M,5.5,0000*56
$GNGGA,113922.60,3605.0209633,N,14004.7797633,E,4,09,1.58,25.552,M,39.393,M,5.6,0000*51
$GNGGA,113922.70,3605.0210290,N,14004.7797692,E,4,09,1.58,25.571,M,39.393,M,5.7,0000*5E
$GNGGA,113922.80,3605.0210927,N,14004.7797788,E,4,09,1.58,25.583,M,39.393,M,5.8,0000*5E
$GNGGA,113922.90,3605.0211560,N,14004.7797854,E,4,09,1.58,25.608,M,39.393,M,5.9,0000*5E
$GNGGA,113923.00,3605.0212163,N,14004.7797874,E,4,09,1.58,25.635,M,39.393,M,6.0,0000*54
$GNGGA,113923.10,3605.0212741,N,14004.7797900,E,4,09,1.58,25.638,M,39.393,M,6.1,0000*5D
$GNGGA,113923.20,3605.0213428,N,14004.7797953,E,4,09,1.58,25.648,M,39.393,M,1.2,0000*56
$GNGGA,113923.30,3605.0214067,N,14004.7798015,E,4,09,1.58,25.653,M,39.393,M,1.3,0000*50
$GNGGA,113923.40,3605.0214678,N,14004.7798086,E,4,09,1.58,25.680,M,39.393,M,1.4,0000*5C
$GNGGA,113923.60,3605.0215823,N,14004.7798075,E,4,09,1.58,25.687,M,39.393,M,1.6,0000*56
$GNGGA,113923.70,3605.0216471,N,14004.7798037,E,4,09,1.58,25.650,M,39.393,M,1.7,0000*52
$GNGGA,113923.80,3605.0217157,N,14004.7798013,E,4,09,1.58,25.630,M,39.393,M,1.8,0000*52
$GNGGA,113923.90,3605.0217768,N,14004.7798066,E,4,09,1.58,25.638,M,39.393,M,1.9,0000*52
$GNGGA,113924.00,3605.0218332,N,14004.7798089,E,4,09,1.58,25.625,M,39.393,M,2.0,0000*5F
$GNGGA,113924.20,3605.0219508,N,14004.7798237,E,4,09,1.58,25.629,M,39.393,M,2.2,0000*5A
$GNGGA,113924.30,3605.0220138,N,14004.7798347,E,4,09,1.58,25.617,M,39.393,M,2.3,0000*5C
$GNGGA,113924.40,3605.0220819,N,14004.7798438,E,4,09,1.58,25.624,M,39.393,M,2.4,0000*59
$GNGGA,113924.50,3605.0221370,N,14004.7798436,E,4,09,1.58,25.632,M,39.393,M,2.5,0000*55
$GNGGA,113924.60,3605.0221995,N,14004.7798450,E,4,09,1.58,25.645,M,39.393,M,2.6,0000*54
$GNGGA,113924.70,3605.0222637,N,14004.7798451,E,4,09,1.58,25.623,M,39.393,M,2.7,0000*51
$GNGGA,113924.80,3605.0223259,N,14004.7798473,E,4,09,1.58,25.604,M,39.393,M,2.8,0000*59
$GNGGA,113924.90,3605.0223933,N,14004.7798556,E,4,09,1.58,25.608,M,39.393,M,2.9,0000*54
$GNGGA,113925.00,3605.0224548,N,14004.7798708,E,4,09,1.58,25.601,M,39.393,M,3.0,0000*53
$GNGGA,113925.10,3605.0225113,N,14004.7798774,E,4,09,1.58,25.598,M,39.393,M,3.1,0000*50
$GNGGA,113925.20,3605.0225819,N,14004.7798864,E,4,09,1.58,25.586,M,39.393,M,3.2,0000*52
$GNGGA,113925.30,3605.0226475,N,14004.7799061,E,4,09,1.58,25.582,M,39.393,M,3.3,0000*5F
$GNGGA,113925.40,3605.0227103,N,14004.7799209,E,4,09,1.58,25.583,M,39.393,M,3.4,0000*57
$GNGGA,113925.50,3605.0227716,N,14004.7799249,E,4,09,1.58,25.595,M,39.393,M,3.5,0000*56
$GNGGA,113925.60,3605.0228302,N,14004.7799318,E,4,09,1.58,25.593,M,39.393,M,3.6,0000*5B
$GNGGA,113925.70,3605.0228966,N,14004.7799399,E,4,09,1.58,25.610,M,39.393,M,3.7,0000*52
$GNGGA,113925.80,3605.0229654,N,14004.7799437,E,4,09,1.58,25.593,M,39.393,M,3.8,0000*56
$GNGGA,113925.90,3605.0230273,N,14004.7799517,E,4,09,1.58,25.588,M,39.393,M,3.9,0000*56
$GNGGA,113926.00,3605.0230952,N,14004.7799620,E,4,09,1.58,25.599,M,39.393,M,4.0,0000*5D
$GNGGA,113926.10,3605.0231559,N,14004.7799657,E,4,09,1.58,25.612,M,39.393,M,4.1,0000*5B
$GNGGA,113926.20,3605.0232164,N,14004.7799670,E,4,09,1.58,25.607,M,39.393,M,4.2,0000*53
$GNGGA,113926.30,3605.0232916,N,14004.7799787,E,4,09,1.58,25.590,M,39.393,M,4.3,0000*5A
$GNGGA,113926.40,3605.0233547,N,14004.7799845,E,4,09,1.58,25.588,M,39.393,M,4.4,0000*5B
$GNGGA,113926.50,3605.0234179,N,14004.7799930,E,4,09,1.58,25.598,M,39.393,M,4.5,0000*57
$GNGGA,113926.60,3605.0234810,N,14004.7799961,E,4,09,1.58,25.589,M,39.393,M,4.6,0000*55
$GNGGA,113926.70,3605.0235412,N,14004.7799928,E,4,09,1.58,25.596,M,39.393,M,4.7,0000*59
$GNGGA,113926.80,3605.0236144,N,14004.7799935,E,4,09,1.58,25.588,M,39.393,M,4.8,0000*5F
$GNGGA,113926.90,3605.0236754,N,14004.7799915,E,4,09,1.58,25.578,M,39.393,M,4.9,0000*55
$GNGGA,113927.00,3605.0237448,N,14004.7799913,E,4,09,1.58,25.573,M,39.393,M,5.0,0000*57
$GNGGA,113927.10,3605.0238094,N,14004.7799996,E,4,09,1.58,25.578,M,39.393,M,5.1,0000*5B
$GNGGA,113927.20,3605.0238644,N,14004.7800032,E,4,09,1.58,25.579,M,39.393,M,5.2,0000*59
$GNGGA,113927.30,3605.0239312,N,14004.7800063,E,4,09,1.58,25.558,M,39.393,M,5.3,0000*59
$GNGGA,113927.40,3605.0240004,N,14004.7800222,E,4,09,1.58,25.565,M,39.393,M,5.4,0000*5A
$GNGGA,113927.50,3605.0240572,N,14004.7800391,E,4,09,1.58,25.566,M,39.393,M,5.5,0000*54
$GNGGA,113927.60,3605.0241188,N,14004.7800446,E,4,09,1.58,25.580,M,39.393,M,5.6,0000*51
$GNGGA,113927.70,3605.0241914,N,14004.7800356,E,4,09,1.58,25.611,M,39.393,M,5.7,0000*51
$GNGGA,113927.80,3605.0242615,N,14004.7800326,E,4,09,1.58,25.605,M,39.393,M,5.8,0000*5E
$GNGGA,113927.90,3605.0243351,N,14004.7800374,E,4,09,1.58,25.599,M,39.393,M,5.9,0000*5B
$GNGGA,113928.00,3605.0244048,N,14004.7800419,E,4,09,1.58,25.587,M,39.393,M,6.0,0000*58
$GNGGA,113928.10,3605.0244726,N,14004.7800451,E,4,09,1.58,25.601,M,39.393,M,6.1,0000*56
$GNGGA,113928.20,3605.0245360,N,14004.7800447,E,4,09,1.58,25.583,M,39.393,M,1.2,0000*58
$GNGGA,113928.30,3605.0246062,N,14004.7800548,E,4,09,1.58,25.588,M,39.393,M,1.3,0000*5F
$GNGGA,113928.40,3605.0246748,N,14004.7800561,E,4,09,1.58,25.577,M,39.393,M,1.4,0000*5B
$GNGGA,113928.50,3605.0247472,N,14004.7800667,E,4,09,1.58,25.566,M,39.393,M,1.5,0000*55
$GNGGA,113928.70,3605.0248673,N,14004.7800712,E,4,09,1.58,25.567,M,39.393,M,1.7,0000*5B
$GNGGA,113928.80,3605.0249504,N,14004.7800676,E,4,09,1.58,25.569,M,39.393,M,1.8,0000*54
$GNGGA,113928.90,3605.0250264,N,14004.7800667,E,4,09,1.58,25.540,M,39.393,M,1.9,0000*56
$GNGGA,113929.00,3605.0250882,N,14004.7800657,E,4,09,1.58,25.511,M,39.393,M,2.0,0000*51
$GNGGA,113929.10,3605.0251593,N,14004.7800736,E,5,09,1.58,25.525,M,39.393,M,2.1,0000*5D
$GNGGA,113929.20,3605.0252181,N,14004.7800864,E,5,09,1.58,25.539,M,39.393,M,2.2,0000*5C
$GNGGA,113929.30,3605.0252861,N,14004.7800929,E,2,09,1.58,25.538,M,39.393,M,2.3,0000*55
$GNGGA,113929.40,3605.0253502,N,14004.7801100,E,2,09,1.58,25.534,M,39.393,M,2.4,0000*52
$GNGGA,113929.50,3605.0254148,N,14004.7801289,E,2,09,1.58,25.551,M,39.393,M,2.5,0000*5E
$GNGGA,113929.60,3605.0254767,N,14004.7801271,E,2,09,1.58,25.569,M,39.393,M,2.6,0000*59
$GNGGA,113929.70,3605.0255325,N,14004.7801223,E,5,09,1.58,25.620,M,39.393,M,2.7,0000*54
$GNGGA,113929.80,3605.0255964,N,14004.7801140,E,5,09,1.58,25.646,M,39.393,M,2.8,0000*5D
$GNGGA,113929.90,3605.0256661,N,14004.7801019,E,5,09,1.58,25.655,M,39.393,M,2.9,0000*5B
$GNGGA,113930.00,3605.0257343,N,14004.7801018,E,5,09,1.58,25.662,M,39.393,M,3.0,0000*53
$GNGGA,113930.10,3605.0257977,N,14004.7801118,E,5,09,1.58,25.674,M,39.393,M,3.1,0000*58
$GNGGA,113930.20,3605.0258635,N,14004.7801236,E,5,09,1.58,25.671,M,39.393,M,3.2,0000*54
$GNGGA,113930.30,3605.0259290,N,14004.7801233,E,5,09,1.58,25.683,M,39.393,M,3.3,0000*56
$GNGGA,113930.40,3605.0259892,N,14004.7801292,E,5,09,1.58,25.680,M,39.393,M,3.4,0000*56
$GNGGA,113930.50,3605.0260636,N,14004.7801295,E,5,09,1.58,25.707,M,39.393,M,3.5,0000*55
$GNGGA,113930.60,3605.0261268,N,14004.7801382,E,5,09,1.58,25.711,M,39.393,M,3.6,0000*5B
$GNGGA,113930.70,3605.0261896,N,14004.7801428,E,5,09,1.58,25.671,M,39.393,M,3.7,0000*50
$GNGGA,113930.80,3605.0262559,N,14004.7801450,E,5,09,1.58,25.653,M,39.393,M,3.8,0000*52
$GNGGA,113930.90,3605.0263242,N,14004.7801491,E,5,09,1.58,25.628,M,39.393,M,3.9,0000*5F
$GNGGA,113931.00,3605.0263930,N,14004.7801555,E,5,09,1.58,25.604,M,39.393,M,4.0,0000*50
$GNGGA,113931.10,3605.0264606,N,14004.7801629,E,5,09,1.58,25.612,M,39.393,M,4.1,0000*52
$GNGGA,113931.20,3605.0265199,N,14004.7801639,E,5,09,1.58,25.634,M,39.393,M,4.2,0000*57
$GNGGA,113931.30,3605.0265789,N,14004.7801649,E,5,09,1.58,25.632,M,39.393,M,4.3,0000*51
$GNGGA,113931.40,3605.0266488,N,14004.7801825,E,5,09,1.58,25.624,M,39.393,M,4.4,0000*53
$GNGGA,113931.50,3605.0267214,N,14004.7801960,E,5,09,1.58,25.622,M,39.393,M,4.5,0000*57
$GNGGA,113931.60,3605.0267814,N,14004.7802063,E,5,09,1.58,25.652,M,39.393,M,4.6,0000*53
$GNGGA,113931.70,3605.0268435,N,14004.7802061,E,5,09,1.58,25.669,M,39.393,M,4.7,0000*59
$GNGGA,113931.80,3605.0269065,N,14004.7802147,E,5,09,1.58,25.681,M,39.393,M,4.8,0000*5A
$GNGGA,113931.90,3605.0269757,N,14004.7802195,E,5,09,1.58,25.666,M,39.393,M,4.9,0000*5A
$GNGGA,113932.00,3605.0270376,N,14004.7802183,E,5,09,1.58,25.655,M,39.393,M,5.0,0000*50
$GNGGA,113932.10,3605.0271053,N,14004.7802279,E,5,09,1.58,25.689,M,39.393,M,5.1,0000*52
$GNGGA,113932.20,3605.0271675,N,14004.7802453,E,5,09,1.58,25.689,M,39.393,M,5.2,0000*5E
$GNGGA,113932.40,3605.0272827,N,14004.7802496,E,5,09,1.58,25.690,M,39.393,M,5.4,0000*55
$GNGGA,113932.50,3605.0273444,N,14004.7802592,E,5,09,1.58,25.695,M,39.393,M,5.5,0000*5D
$GNGGA,113932.60,3605.0274051,N,14004.7802755,E,5,09,1.58,25.708,M,39.393,M,5.6,0000*56
$GNGGA,113932.80,3605.0275139,N,14004.7802781,E,5,09,1.58,25.738,M,39.393,M,5.8,0000*52
$GNGGA,113932.90,3605.0275744,N,14004.7802807,E,5,09,1.58,25.738,M,39.393,M,5.9,0000*5F
$GNGGA,113933.00,3605.0276326,N,14004.7802933,E,5,09,1.58,25.734,M,39.393,M,6.0,0000*54
$GNGGA,113933.10,3605.0276876,N,14004.7802913,E,5,09,1.58,25.741,M,39.393,M,6.1,0000*5A
$GNGGA,113933.20,3605.0277444,N,14004.7803036,E,5,09,1.58,25.767,M,39.393,M,1.2,0000*5A
$GNGGA,113933.40,3605.0278495,N,14004.7803289,E,5,09,1.58,25.762,M,39.393,M,1.4,0000*5A
$GNGGA,113933.50,3605.0279025,N,14004.7803437,E,5,09,1.58,25.759,M,39.393,M,1.5,0000*5F
$GNGGA,113933.60,3605.0279611,N,14004.7803540,E,5,09,1.58,25.763,M,39.393,M,1.6,0000*56
$GNGGA,113933.80,3605.0280426,N,14004.7803786,E,5,09,1.58,25.786,M,39.393,M,1.8,0000*55
$GNGGA,113934.00,3605.0281178,N,14004.7803883,E,5,09,1.58,25.781,M,39.393,M,2.0,0000*53
$GNGGA,113934.20,3605.0281901,N,14004.7803911,E,5,09,1.58,25.789,M,39.393,M,2.2,0000*57
$GNGGA,113934.50,3605.0282557,N,14004.7804020,E,5,09,1.58,25.791,M,39.393,M,2.5,0000*5E
$GNGGA,113935.10,3605.0283117,N,14004.7804113,E,5,09,1.58,25.785,M,39.393,M,3.1,0000*5B
$GNGGA,113935.70,3605.0283737,N,14004.7804868,E,4,09,1.58,25.669,M,39.393,M,3.7,0000*58
$GNGGA,113940.00,3605.0284427,N,14004.7804808,E,4,09,1.58,25.646,M,39.393,M,3.0,0000*54
$GNGGA,113940.20,3605.0285055,N,14004.7804917,E,4,09,1.58,25.618,M,39.393,M,3.2,0000*50
$GNGGA,113940.40,3605.0285912,N,14004.7805111,E,4,09,1.58,25.595,M,39.393,M,3.4,0000*53
$GNGGA,113940.60,3605.0286837,N,14004.7805278,E,4,09,1.58,25.600,M,39.393,M,3.6,0000*55
$GNGGA,113940.80,3605.0287786,N,14004.7805246,E,4,09,1.58,25.595,M,39.393,M,3.8,0000*53
$GNGGA,113940.90,3605.0288382,N,14004.7805239,E,4,09,1.58,25.598,M,39.393,M,3.9,0000*59
$GNGGA,113941.00,3605.0288961,N,14004.7805198,E,4,09,1.58,25.590,M,39.393,M,4.0,0000*58
$GNGGA,113941.10,3605.0289637,N,14004.7805218,E,4,09,1.58,25.591,M,39.393,M,4.1,0000*5F
$GNGGA,113941.20,3605.0290199,N,14004.7805236,E,4,09,1.58,25.606,M,39.393,M,4.2,0000*55
$GNGGA,113941.30,3605.0290775,N,14004.7805214,E,4,09,1.58,25.606,M,39.393,M,4.3,0000*51
$GNGGA,113941.40,3605.0291429,N,14004.7805240,E,4,09,1.58,25.612,M,39.393,M,4.4,0000*5E
$GNGGA,113941.50,3605.0292031,N,14004.7805382,E,4,09,1.58,25.635,M,39.393,M,4.5,0000*5A
$GNGGA,113941.60,3605.0292695,N,14004.7805412,E,4,09,1.58,25.639,M,39.393,M,4.6,0000*50
$GNGGA,113941.70,3605.0293313,N,14004.7805451,E,4,09,1.58,25.645,M,39.393,M,4.7,0000*56
$GNGGA,113941.80,3605.0293982,N,14004.7805479,E,4,09,1.58,25.633,M,39.393,M,4.8,0000*5F
$GNGGA,113941.90,3605.0294627,N,14004.7805458,E,4,09,1.58,25.625,M,39.393,M,4.9,0000*5C
$GNGGA,113942.00,3605.0295264,N,14004.7805503,E,4,09,1.58,25.624,M,39.393,M,5.0,0000*52
$GNGGA,113942.10,3605.0295979,N,14004.7805486,E,4,09,1.58,25.622,M,39.393,M,5.1,0000*5F
$GNGGA,113942.20,3605.0296644,N,14004.7805532,E,4,09,1.58,25.628,M,39.393,M,5.2,0000*59
$GNGGA,113942.40,3605.0297788,N,14004.7805765,E,4,09,1.58,25.612,M,39.393,M,5.4,0000*50
$GNGGA,113942.50,3605.0298526,N,14004.7805908,E,4,09,1.58,25.611,M,39.393,M,5.5,0000*5F
$GNGGA,113942.60,3605.0299122,N,14004.7806079,E,4,09,1.58,25.617,M,39.393,M,5.6,0000*54
$GNGGA,113942.70,3605.0299705,N,14004.7806186,E,4,09,1.58,25.628,M,39.393,M,5.7,0000*5A
$GNGGA,113942.80,3605.0300262,N,14004.7806218,E,4,09,1.58,25.639,M,39.393,M,5.8,0000*5B
$GNGGA,113942.90,3605.0300915,N,14004.7806258,E,4,09,1.58,25.636,M,39.393,M,5.9,0000*5B
$GNGGA,113943.00,3605.0301524,N,14004.7806312,E,4,09,1.58,25.634,M,39.393,M,6.0,0000*5B
$GNGGA,113943.10,3605.0302205,N,14004.7806357,E,4,09,1.58,25.638,M,39.393,M,6.1,0000*51
$GNGGA,113943.20,3605.0302829,N,14004.7806422,E,4,09,1.58,25.637,M,39.393,M,6.2,0000*5F
$GNGGA,113943.30,3605.0303355,N,14004.7806622,E,4,09,1.58,25.634,M,39.393,M,6.3,0000*5F
$GNGGA,113943.50,3605.0304457,N,14004.7806761,E,4,09,1.58,25.629,M,39.393,M,6.5,0000*57
$GNGGA,113943.60,3605.0304994,N,14004.7807008,E,4,09,1.58,25.621,M,39.393,M,6.6,0000*54
$GNGGA,113943.70,3605.0305574,N,14004.7807238,E,4,09,1.58,25.613,M,39.393,M,6.7,0000*57
$GNGGA,113943.90,3605.0306482,N,14004.7807690,E,4,09,1.58,25.628,M,39.393,M,6.9,0000*52
$GNGGA,113944.10,3605.0307183,N,14004.7808513,E,4,09,1.58,25.622,M,39.393,M,7.1,0000*5C
$GNGGA,113944.30,3605.0307524,N,14004.7809093,E,4,09,1.58,25.630,M,39.393,M,2.3,0000*5F
$GNGGA,113944.60,3605.0307805,N,14004.7809712,E,4,09,1.58,25.641,M,39.393,M,2.6,0000*59
$GNGGA,113944.90,3605.0308164,N,14004.7810662,E,4,09,1.58,25.635,M,39.393,M,2.9,0000*55
$GNGGA,113945.10,3605.0308325,N,14004.7811426,E,4,09,1.58,25.646,M,39.393,M,3.1,0000*55
$GNGGA,113945.30,3605.0308344,N,14004.7812317,E,4,09,1.58,25.648,M,39.393,M,3.3,0000*5A
$GNGGA,113945.50,3605.0308481,N,14004.7813470,E,4,09,1.58,25.622,M,39.393,M,3.5,0000*5F
$GNGGA,113945.70,3605.0308642,N,14004.7814478,E,4,09,1.58,25.618,M,39.393,M,3.7,0000*54
$GNGGA,113945.90,3605.0309192,N,14004.7815372,E,4,09,1.58,25.624,M,39.393,M,3.9,0000*5C
$GNGGA,113946.10,3605.0309991,N,14004.7816088,E,4,09,1.58,25.643,M,39.393,M,4.1,0000*57
$GNGGA,113946.30,3605.0310596,N,14004.7816551,E,4,09,1.58,25.649,M,39.393,M,4.3,0000*5F
$GNGGA,113946.50,3605.0311248,N,14004.7816926,E,4,09,1.58,25.648,M,39.393,M,4.5,0000*57
$GNGGA,113946.70,3605.0312072,N,14004.7817055,E,4,09,1.58,25.624,M,39.393,M,4.7,0000*59
$GNGGA,113946.90,3605.0313042,N,14004.7817174,E,4,09,1.58,25.611,M,39.393,M,4.9,0000*5F
$GNGGA,113947.10,3605.0314008,N,14004.7817258,E,4,09,1.58,25.607,M,39.393,M,5.1,0000*5C
$GNGGA,113947.30,3605.0315064,N,14004.7817316,E,4,09,1.58,25.586,M,39.393,M,5.3,0000*56
$GNGGA,113947.50,3605.0316113,N,14004.7817346,E,4,09,1.58,25.579,M,39.393,M,5.5,0000*51
$GNGGA,113947.60,3605.0316677,N,14004.7817349,E,4,09,1.58,25.582,M,39.393,M,5.6,0000*5F
$GNGGA,113947.70,3605.0317274,N,14004.7817346,E,4,09,1.58,25.573,M,39.393,M,5.7,0000*58
$GNGGA,113947.80,3605.0317851,N,14004.7817258,E,4,09,1.58,25.559,M,39.393,M,5.8,0000*53
$GNGGA,113947.90,3605.0318432,N,14004.7817253,E,4,09,1.58,25.559,M,39.393,M,5.9,0000*5E
$GNGGA,113948.00,3605.0319017,N,14004.7817297,E,4,09,1.58,25.570,M,39.393,M,6.0,0000*53
$GNGGA,113948.10,3605.0319569,N,14004.7817237,E,4,09,1.58,25.563,M,39.393,M,6.1,0000*57
$GNGGA,113948.20,3605.0320195,N,14004.7817161,E,4,09,1.58,25.555,M,39.393,M,1.2,0000*58
$GNGGA,113948.30,3605.0320777,N,14004.7817120,E,4,09,1.58,25.559,M,39.393,M,1.3,0000*5B
$GNGGA,113948.50,3605.0321820,N,14004.7816863,E,4,09,1.58,25.572,M,39.393,M,1.5,0000*51
$GNGGA,113948.60,3605.0322414,N,14004.7816712,E,4,09,1.58,25.566,M,39.393,M,1.6,0000*55
$GNGGA,113948.80,3605.0323427,N,14004.7816319,E,4,09,1.58,25.568,M,39.393,M,1.8,0000*55
$GNGGA,113949.00,3605.0324445,N,14004.7815918,E,4,09,1.58,25.582,M,39.393,M,2.0,0000*58
$GNGGA,113949.10,3605.0325021,N,14004.7815624,E,4,09,1.58,25.575,M,39.393,M,2.1,0000*57
$GNGGA,113949.20,3605.0325560,N,14004.7815355,E,4,09,1.58,25.582,M,39.393,M,2.2,0000*5C
$GNGGA,113949.30,3605.0326059,N,14004.7815072,E,4,09,1.58,25.588,M,39.393,M,2.3,0000*5C
$GNGGA,113949.40,3605.0326504,N,14004.7814687,E,4,09,1.58,25.595,M,39.393,M,2.4,0000*50
$GNGGA,113949.50,3605.0327014,N,14004.7814250,E,4,09,1.58,25.589,M,39.393,M,2.5,0000*56
$GNGGA,113949.60,3605.0327526,N,14004.7813806,E,4,09,1.58,25.588,M,39.393,M,2.6,0000*5D
$GNGGA,113949.70,3605.0327973,N,14004.7813311,E,4,09,1.58,25.586,M,39.393,M,2.7,0000*52
$GNGGA,113949.80,3605.0328447,N,14004.7812906,E,4,09,1.58,25.598,M,39.393,M,2.8,0000*55
$GNGGA,113949.90,3605.0328920,N,14004.7812507,E,4,09,1.58,25.603,M,39.393,M,2.9,0000*55
$GNGGA,113950.00,3605.0329369,N,14004.7811966,E,4,09,1.58,25.590,M,39.393,M,3.0,0000*5B
$GNGGA,113950.10,3605.0329909,N,14004.7811469,E,4,09,1.58,25.588,M,39.393,M,3.1,0000*5C
$GNGGA,113950.20,3605.0330422,N,14004.7810964,E,4,09,1.58,25.585,M,39.393,M,3.2,0000*5C
$GNGGA,113950.30,3605.0330833,N,14004.7810474,E,4,09,1.58,25.595,M,39.393,M,3.3,0000*5D
$GNGGA,113950.40,3605.0331262,N,14004.7809920,E,4,09,1.58,25.594,M,39.393,M,3.4,0000*57
$GNGGA,113950.50,3605.0331709,N,14004.7809321,E,4,09,1.58,25.596,M,39.393,M,3.5,0000*56
$GNGGA,113950.60,3605.0332062,N,14004.7808731,E,4,09,1.58,25.590,M,39.393,M,3.6,0000*5D
$GNGGA,113950.70,3605.0332507,N,14004.7808054,E,4,09,1.58,25.590,M,39.393,M,3.7,0000*5F
$GNGGA,113950.80,3605.0332913,N,14004.7807520,E,4,09,1.58,25.606,M,39.393,M,3.8,0000*53
$GNGGA,113950.90,3605.0333243,N,14004.7806907,E,4,09,1.58,25.604,M,39.393,M,3.9,0000*56
$GNGGA,113951.00,3605.0333631,N,14004.7806216,E,4,09,1.58,25.590,M,39.393,M,4.0,0000*54
$GNGGA,113951.10,3605.0334034,N,14004.7805546,E,4,09,1.58,25.588,M,39.393,M,4.1,0000*58
$GNGGA,113951.20,3605.0334400,N,14004.7804926,E,4,09,1.58,25.606,M,39.393,M,4.2,0000*55
$GNGGA,113951.30,3605.0334656,N,14004.7804297,E,4,09,1.58,25.619,M,39.393,M,4.3,0000*5B
$GNGGA,113951.40,3605.0334957,N,14004.7803593,E,4,09,1.58,25.623,M,39.393,M,4.4,0000*58
$GNGGA,113951.50,3605.0335243,N,14004.7802829,E,4,09,1.58,25.628,M,39.393,M,4.5,0000*51
$GNGGA,113951.60,3605.0335477,N,14004.7802060,E,4,09,1.58,25.625,M,39.393,M,4.6,0000*58
$GNGGA,113951.70,3605.0335738,N,14004.7801362,E,4,09,1.58,25.628,M,39.393,M,4.7,0000*5F
$GNGGA,113951.90,3605.0336146,N,14004.7800065,E,4,09,1.58,25.656,M,39.393,M,4.9,0000*5F
$GNGGA,113952.00,3605.0336360,N,14004.7799309,E,4,09,1.58,25.653,M,39.393,M,5.0,0000*58
$GNGGA,113952.10,3605.0336566,N,14004.7798553,E,4,09,1.58,25.658,M,39.393,M,5.1,0000*5B
$GNGGA,113952.20,3605.0336743,N,14004.7797858,E,4,09,1.58,25.669,M,39.393,M,5.2,0000*55
$GNGGA,113952.30,3605.0336817,N,14004.7797170,E,4,09,1.58,25.674,M,39.393,M,5.3,0000*54
$GNGGA,113952.40,3605.0336878,N,14004.7796375,E,4,09,1.58,25.672,M,39.393,M,5.4,0000*5D
$GNGGA,113952.50,3605.0337017,N,14004.7795575,E,4,09,1.58,25.665,M,39.393,M,5.5,0000*5E
$GNGGA,113952.60,3605.0337095,N,14004.7794760,E,4,09,1.58,25.656,M,39.393,M,5.6,0000*53
$GNGGA,113952.70,3605.0337205,N,14004.7793965,E,4,09,1.58,25.655,M,39.393,M,5.7,0000*57
$GNGGA,113952.80,3605.0337278,N,14004.7793251,E,4,09,1.58,25.669,M,39.393,M,5.8,0000*5E
$GNGGA,113952.90,3605.0337337,N,14004.7792493,E,4,09,1.58,25.663,M,39.393,M,5.9,0000*57
$GNGGA,113953.00,3605.0337361,N,14004.7791583,E,4,09,1.58,25.646,M,39.393,M,6.0,0000*52
$GNGGA,113953.10,3605.0337455,N,14004.7790722,E,4,09,1.58,25.646,M,39.393,M,6.1,0000*5A
$GNGGA,113953.20,3605.0337514,N,14004.7789952,E,4,09,1.58,25.641,M,39.393,M,1.2,0000*5F
$GNGGA,113953.30,3605.0337464,N,14004.7789223,E,4,09,1.58,25.659,M,39.393,M,1.3,0000*5D
$GNGGA,113953.40,3605.0337430,N,14004.7788318,E,4,09,1.58,25.643,M,39.393,M,1.4,0000*5F
$GNGGA,113953.50,3605.0337416,N,14004.7787428,E,4,09,1.58,25.621,M,39.393,M,1.5,0000*54
$GNGGA,113953.60,3605.0337389,N,14004.7786586,E,4,09,1.58,25.609,M,39.393,M,1.6,0000*5B
$GNGGA,113953.70,3605.0337447,N,14004.7785813,E,4,09,1.58,25.607,M,39.393,M,1.7,0000*52
$GNGGA,113953.80,3605.0337510,N,14004.7785102,E,4,09,1.58,25.621,M,39.393,M,1.8,0000*5C
$GNGGA,113953.90,3605.0337502,N,14004.7784310,E,4,09,1.58,25.617,M,39.393,M,1.9,0000*5A
$GNGGA,113954.00,3605.0337548,N,14004.7783407,E,4,09,1.58,25.608,M,39.393,M,2.0,0000*58
$GNGGA,113954.10,3605.0337636,N,14004.7782532,E,4,09,1.58,25.613,M,39.393,M,2.1,0000*5E
$GNGGA,113954.20,3605.0337675,N,14004.7781743,E,4,09,1.58,25.623,M,39.393,M,2.2,0000*5D
$GNGGA,113954.30,3605.0337673,N,14004.7781032,E,4,09,1.58,25.639,M,39.393,M,2.3,0000*51
$GNGGA,113954.40,3605.0337717,N,14004.7780212,E,4,09,1.58,25.641,M,39.393,M,2.4,0000*5C
$GNGGA,113954.50,3605.0337715,N,14004.7779338,E,4,09,1.58,25.634,M,39.393,M,2.5,0000*53
$GNGGA,113954.60,3605.0337699,N,14004.7778528,E,4,09,1.58,25.628,M,39.393,M,2.6,0000*5D
$GNGGA,113954.70,3605.0337715,N,14004.7777718,E,4,09,1.58,25.635,M,39.393,M,2.7,0000*5A
$GNGGA,113954.80,3605.0337708,N,14004.7777023,E,4,09,1.58,25.643,M,39.393,M,2.8,0000*58
$GNGGA,113954.90,3605.0337648,N,14004.7776337,E,4,09,1.58,25.650,M,39.393,M,2.9,0000*58
$GNGGA,113955.00,3605.0337519,N,14004.7775554,E,4,09,1.58,25.650,M,39.393,M,3.0,0000*5F
$GNGGA,113955.10,3605.0337395,N,14004.7774770,E,4,09,1.58,25.646,M,39.393,M,3.1,0000*5F
$GNGGA,113955.20,3605.0337221,N,14004.7774118,E,4,09,1.58,25.644,M,39.393,M,3.2,0000*5B
$GNGGA,113955.40,3605.0336420,N,14004.7773162,E,4,09,1.58,25.644,M,39.393,M,3.4,0000*57
$GNGGA,113955.50,3605.0335899,N,14004.7772848,E,4,09,1.58,25.634,M,39.393,M,3.5,0000*5D
$GNGGA,113955.60,3605.0335354,N,14004.7772525,E,4,09,1.58,25.618,M,39.393,M,3.6,0000*5F
$GNGGA,113955.70,3605.0334800,N,14004.7772161,E,4,09,1.58,25.604,M,39.393,M,3.7,0000*5D
$GNGGA,113955.80,3605.0334292,N,14004.7771914,E,4,09,1.58,25.597,M,39.393,M,3.8,0000*5C
$GNGGA,113955.90,3605.0333758,N,14004.7771785,E,4,09,1.58,25.598,M,39.393,M,3.9,0000*51
$GNGGA,113956.00,3605.0333164,N,14004.7771590,E,4,09,1.58,25.588,M,39.393,M,4.0,0000*5B
$GNGGA,113956.10,3605.0332591,N,14004.7771394,E,4,09,1.58,25.578,M,39.393,M,4.1,0000*59
$GNGGA,113956.20,3605.0332004,N,14004.7771193,E,4,09,1.58,25.576,M,39.393,M,4.2,0000*5B
$GNGGA,113956.30,3605.0331427,N,14004.7771065,E,4,09,1.58,25.557,M,39.393,M,4.3,0000*56
$GNGGA,113956.50,3605.0330420,N,14004.7770951,E,4,09,1.58,25.577,M,39.393,M,4.5,0000*5D
$GNGGA,113956.60,3605.0329871,N,14004.7770857,E,4,09,1.58,25.579,M,39.393,M,4.6,0000*54
$GNGGA,113956.70,3605.0329332,N,14004.7770790,E,4,09,1.58,25.570,M,39.393,M,4.7,0000*55
$GNGGA,113956.80,3605.0328781,N,14004.7770710,E,4,09,1.58,25.575,M,39.393,M,4.8,0000*55
$GNGGA,113957.00,3605.0327803,N,14004.7770520,E,4,09,1.58,25.597,M,39.393,M,5.0,0000*52
$GNGGA,113957.20,3605.0326727,N,14004.7770307,E,4,09,1.58,25.602,M,39.393,M,5.2,0000*56
$GNGGA,113957.40,3605.0325708,N,14004.7770107,E,4,09,1.58,25.604,M,39.393,M,5.4,0000*5C
$GNGGA,113957.60,3605.0324836,N,14004.7770135,E,4,09,1.58,25.617,M,39.393,M,5.6,0000*5C
$GNGGA,113957.80,3605.0324014,N,14004.7770340,E,4,09,1.58,25.618,M,39.393,M,5.8,0000*5B
$GNGGA,113958.00,3605.0323172,N,14004.7770852,E,4,09,1.58,25.649,M,39.393,M,6.0,0000*5D
$GNGGA,113958.20,3605.0322530,N,14004.7771283,E,4,09,1.58,25.690,M,39.393,M,1.2,0000*5A
$GNGGA,113958.40,3605.0321958,N,14004.7771623,E,4,09,1.58,25.706,M,39.393,M,1.4,0000*5B
$GNGGA,113958.60,3605.0321347,N,14004.7772010,E,4,09,1.58,25.686,M,39.393,M,1.6,0000*53
$GNGGA,113958.80,3605.0320809,N,14004.7772654,E,4,09,1.58,25.660,M,39.393,M,1.8,0000*5D
$GNGGA,113959.00,3605.0320165,N,14004.7773384,E,4,09,1.58,25.644,M,39.393,M,2.0,0000*53
$GNGGA,113959.20,3605.0319515,N,14004.7773925,E,4,09,1.58,25.642,M,39.393,M,2.2,0000*5D
$GNGGA,113959.40,3605.0318739,N,14004.7774608,E,4,09,1.58,25.612,M,39.393,M,2.4,0000*52
$GNGGA,113959.60,3605.0318027,N,14004.7775292,E,4,09,1.58,25.606,M,39.393,M,2.6,0000*59
$GNGGA,113959.80,3605.0317296,N,14004.7776082,E,4,09,1.58,25.600,M,39.393,M,2.8,0000*58
$GNGGA,113959.90,3605.0316838,N,14004.7776534,E,4,09,1.58,25.584,M,39.393,M,2.9,0000*50
$GNGGA,114000.00,3605.0316441,N,14004.7776994,E,4,09,1.58,25.573,M,39.393,M,3.0,0000*5F
$GNGGA,114000.10,3605.0315994,N,14004.7777473,E,4,09,1.58,25.579,M,39.393,M,3.1,0000*56
$GNGGA,114000.30,3605.0315209,N,14004.7778204,E,4,09,1.58,25.592,M,39.393,M,3.3,0000*55
$GNGGA,114000.40,3605.0314780,N,14004.7778636,E,4,09,1.58,25.587,M,39.393,M,3.4,0000*51
$GNGGA,114000.50,3605.0314304,N,14004.7779050,E,4,09,1.58,25.589,M,39.393,M,3.5,0000*50
$GNGGA,114000.70,3605.0313656,N,14004.7779890,E,4,09,1.58,25.605,M,39.393,M,3.7,0000*56
$GNGGA,114000.90,3605.0312989,N,14004.7780892,E,4,09,1.58,25.610,M,39.393,M,3.9,0000*5A
$GNGGA,114001.00,3605.0312677,N,14004.7781461,E,4,09,1.58,25.617,M,39.393,M,4.0,0000*54
$GNGGA,114001.10,3605.0312319,N,14004.7782078,E,4,09,1.58,25.643,M,39.393,M,4.1,0000*57
$GNGGA,114001.20,3605.0311995,N,14004.7782674,E,4,09,1.58,25.655,M,39.393,M,4.2,0000*57
$GNGGA,114001.30,3605.0311810,N,14004.7783337,E,4,09,1.58,25.671,M,39.393,M,4.3,0000*5E
$GNGGA,114001.40,3605.0311650,N,14004.7783981,E,4,09,1.58,25.691,M,39.393,M,4.4,0000*5D
$GNGGA,114001.50,3605.0311406,N,14004.7784778,E,4,09,1.58,25.696,M,39.393,M,4.5,0000*54
$GNGGA,114001.70,3605.0310849,N,14004.7785995,E,4,09,1.58,25.690,M,39.393,M,4.7,0000*58
$GNGGA,114001.90,3605.0310538,N,14004.7787234,E,4,09,1.58,25.692,M,39.393,M,4.9,0000*53
$GNGGA,114002.00,3605.0310382,N,14004.7787915,E,4,09,1.58,25.686,M,39.393,M,5.0,0000*5B
$GNGGA,114002.10,3605.0310202,N,14004.7788596,E,4,09,1.58,25.671,M,39.393,M,5.1,0000*52
$GNGGA,114002.20,3605.0310021,N,14004.7789332,E,4,09,1.58,25.673,M,39.393,M,5.2,0000*5A
$GNGGA,114002.30,3605.0309871,N,14004.7790089,E,4,09,1.58,25.666,M,39.393,M,5.3,0000*50
$GNGGA,114002.50,3605.0309653,N,14004.7791398,E,4,09,1.58,25.663,M,39.393,M,5.5,0000*59
$GNGGA,114002.60,3605.0309475,N,14004.7792113,E,4,09,1.58,25.648,M,39.393,M,5.6,0000*54
$GNGGA,114002.70,3605.0309341,N,14004.7792870,E,4,09,1.58,25.628,M,39.393,M,5.7,0000*5E
$GNGGA,114002.80,3605.0309218,N,14004.7793641,E,4,09,1.58,25.638,M,39.393,M,5.8,0000*5F
$GNGGA,114002.90,3605.0309148,N,14004.7794304,E,4,09,1.58,25.649,M,39.393,M,5.9,0000*5C
$GNGGA,114003.00,3605.0309142,N,14004.7794985,E,4,09,1.58,25.656,M,39.393,M,6.0,0000*59
$GNGGA,114003.10,3605.0309075,N,14004.7795744,E,4,09,1.58,25.655,M,39.393,M,6.1,0000*5D
$GNGGA,114003.20,3605.0309072,N,14004.7796467,E,4,09,1.58,25.658,M,39.393,M,1.2,0000*51
$GNGGA,114003.30,3605.0309027,N,14004.7797224,E,4,09,1.58,25.655,M,39.393,M,1.3,0000*5C
$GNGGA,114003.40,3605.0308941,N,14004.7797908,E,4,09,1.58,25.670,M,39.393,M,1.4,0000*56
$GNGGA,114003.60,3605.0308761,N,14004.7799167,E,4,09,1.58,25.667,M,39.393,M,1.6,0000*53
$GNGGA,114003.70,3605.0308701,N,14004.7799879,E,4,09,1.58,25.673,M,39.393,M,1.7,0000*56
$GNGGA,114003.90,3605.0308557,N,14004.7801092,E,4,09,1.58,25.689,M,39.393,M,1.9,0000*51
$GNGGA,114004.10,3605.0308506,N,14004.7802288,E,4,09,1.58,25.691,M,39.393,M,2.1,0000*52
$GNGGA,114004.30,3605.0308519,N,14004.7803598,E,4,09,1.58,25.682,M,39.393,M,2.3,0000*59
$GNGGA,114004.50,3605.0308570,N,14004.7804757,E,4,09,1.58,25.692,M,39.393,M,2.5,0000*51
$GNGGA,114004.70,3605.0308704,N,14004.7805711,E,4,09,1.58,25.691,M,39.393,M,2.7,0000*50
$GNGGA,114004.90,3605.0308827,N,14004.7806809,E,4,09,1.58,25.687,M,39.393,M,2.9,0000*5C
$GNGGA,114005.10,3605.0308746,N,14004.7808145,E,4,09,1.58,25.673,M,39.393,M,3.1,0000*50
$GNGGA,114005.30,3605.0308506,N,14004.7809349,E,4,09,1.58,25.674,M,39.393,M,3.3,0000*5E
$GNGGA,114005.50,3605.0308402,N,14004.7810427,E,4,09,1.58,25.678,M,39.393,M,3.5,0000*50
$GNGGA,114005.70,3605.0308418,N,14004.7811558,E,4,09,1.58,25.656,M,39.393,M,3.7,0000*5F
$GNGGA,114005.90,3605.0308704,N,14004.7812739,E,4,09,1.58,25.655,M,39.393,M,3.9,0000*54
$GNGGA,114006.10,3605.0309221,N,14004.7813709,E,4,09,1.58,25.662,M,39.393,M,4.1,0000*55
$GNGGA,114006.20,3605.0309568,N,14004.7814263,E,4,09,1.58,25.659,M,39.393,M,4.2,0000*59
$GNGGA,114006.30,3605.0310144,N,14004.7814884,E,4,09,1.58,25.657,M,39.393,M,4.3,0000*56
$GNGGA,114006.40,3605.0310685,N,14004.7815353,E,4,09,1.58,25.655,M,39.393,M,4.4,0000*5E
$GNGGA,114006.50,3605.0311210,N,14004.7815755,E,4,09,1.58,25.650,M,39.393,M,4.5,0000*50
$GNGGA,114006.60,3605.0311775,N,14004.7816008,E,4,09,1.58,25.656,M,39.393,M,4.6,0000*5C
$GNGGA,114006.70,3605.0312349,N,14004.7816235,E,4,09,1.58,25.655,M,39.393,M,4.7,0000*5B
$GNGGA,114006.80,3605.0313035,N,14004.7816412,E,4,09,1.58,25.637,M,39.393,M,4.8,0000*55
$GNGGA,114006.90,3605.0313700,N,14004.7816525,E,4,09,1.58,25.625,M,39.393,M,4.9,0000*52
$GNGGA,114007.00,3605.0314338,N,14004.7816692,E,4,09,1.58,25.626,M,39.393,M,5.0,0000*56
$GNGGA,114007.10,3605.0314886,N,14004.7816831,E,4,09,1.58,25.625,M,39.393,M,5.1,0000*5C
$GNGGA,114007.20,3605.0315479,N,14004.7816862,E,4,09,1.58,25.624,M,39.393,M,5.2,0000*56
$GNGGA,114007.30,3605.0316143,N,14004.7816876,E,4,09,1.58,25.616,M,39.393,M,5.3,0000*5D
$GNGGA,114007.40,3605.0316827,N,14004.7816959,E,4,09,1.58,25.605,M,39.393,M,5.4,0000*58
$GNGGA,114007.50,3605.0317478,N,14004.7816999,E,4,09,1.58,25.588,M,39.393,M,5.5,0000*55
$GNGGA,114007.60,3605.0318169,N,14004.7817019,E,4,09,1.58,25.589,M,39.393,M,5.6,0000*5E
$GNGGA,114007.70,3605.0318774,N,14004.7816920,E,4,09,1.58,25.596,M,39.393,M,5.7,0000*58
$GNGGA,114007.80,3605.0319439,N,14004.7816761,E,4,09,1.58,25.584,M,39.393,M,5.8,0000*5B
$GNGGA,114007.90,3605.0320126,N,14004.7816602,E,4,09,1.58,25.571,M,39.393,M,5.9,0000*54
$GNGGA,114008.00,3605.0320788,N,14004.7816406,E,4,09,1.58,25.562,M,39.393,M,6.0,0000*5E
$GNGGA,114008.10,3605.0321462,N,14004.7816234,E,4,09,1.58,25.564,M,39.393,M,6.1,0000*59
$GNGGA,114008.20,3605.0322026,N,14004.7816016,E,4,09,1.58,25.582,M,39.393,M,1.2,0000*53
$GNGGA,114008.30,3605.0322590,N,14004.7815789,E,4,09,1.58,25.579,M,39.393,M,1.3,0000*5D
$GNGGA,114008.40,3605.0323276,N,14004.7815560,E,4,09,1.58,25.569,M,39.393,M,1.4,0000*57
$GNGGA,114008.50,3605.0323923,N,14004.7815418,E,4,09,1.58,25.578,M,39.393,M,1.5,0000*52
