$GNGGA,112818.30,3604.9482563,N,14004.6195838,E,5,08,1.90,26.486,M,39.399,M,41.3,0000*66
$GNGGA,112856.20,3604.9482086,N,14004.6195517,E,5,08,1.91,26.336,M,39.399,M,4.2,0000*5E
$GNGGA,112910.80,3604.9480958,N,14004.6195264,E,2,07,2.29,26.553,M,39.399,M,3.8,0000*5C
$GNGGA,112911.00,3604.9480307,N,14004.6195722,E,2,08,1.91,26.583,M,39.399,M,4.0,0000*5F
$GNGGA,112911.20,3604.9479766,N,14004.6196056,E,2,08,1.91,26.567,M,39.399,M,4.2,0000*57
$GNGGA,112911.50,3604.9479326,N,14004.6196481,E,2,08,1.91,26.515,M,39.399,M,4.5,0000*5C
$GNGGA,112911.80,3604.9478869,N,14004.6196919,E,5,08,1.91,26.490,M,39.399,M,4.8,0000*5A
$GNGGA,112912.20,3604.9478559,N,14004.6197662,E,5,08,1.91,26.474,M,39.399,M,5.2,0000*5E
$GNGGA,112912.50,3604.9478532,N,14004.6198524,E,5,08,1.91,26.492,M,39.399,M,5.5,0000*55
$GNGGA,112912.80,3604.9478285,N,14004.6199382,E,5,08,1.91,26.506,M,39.399,M,5.8,0000*59
$GNGGA,112913.00,3604.9478048,N,14004.6200098,E,5,08,1.91,26.454,M,39.399,M,6.0,0000*55
$GNGGA,112913.20,3604.9477774,N,14004.6200955,E,5,08,1.91,26.446,M,39.399,M,6.2,0000*59
$GNGGA,112913.40,3604.9477431,N,14004.6202059,E,5,08,1.91,26.450,M,39.399,M,6.4,0000*5B
$GNGGA,112913.50,3604.9477242,N,14004.6202730,E,5,08,1.91,26.434,M,39.399,M,6.5,0000*53
$GNGGA,112913.70,3604.9476858,N,14004.6203846,E,5,08,1.91,26.439,M,39.399,M,6.7,0000*51
$GNGGA,112913.90,3604.9476345,N,14004.6204856,E,5,08,1.91,26.430,M,39.399,M,6.9,0000*59
$GNGGA,112914.10,3604.9476026,N,14004.6205776,E,5,08,1.91,26.430,M,39.399,M,7.1,0000*55
$GNGGA,112914.30,3604.9475796,N,14004.6206678,E,5,08,1.91,26.399,M,39.399,M,2.3,0000*57
$GNGGA,112914.50,3604.9475759,N,14004.6207628,E,5,08,1.91,26.411,M,39.399,M,2.5,0000*57
$GNGGA,112914.70,3604.9475727,N,14004.6208940,E,5,08,1.91,26.396,M,39.399,M,2.7,0000*58
$GNGGA,112914.80,3604.9475852,N,14004.6209597,E,5,08,1.91,26.406,M,39.399,M,2.8,0000*5C
$GNGGA,112914.90,3604.9476025,N,14004.6210358,E,5,08,1.91,26.416,M,39.399,M,2.9,0000*5B
$GNGGA,112915.10,3604.9476362,N,14004.6211522,E,5,08,1.91,26.447,M,39.399,M,3.1,0000*55
$GNGGA,112915.20,3604.9476539,N,14004.6212202,E,5,08,1.91,26.439,M,39.399,M,3.2,0000*52
$GNGGA,112915.30,3604.9476759,N,14004.6212917,E,5,08,1.91,26.417,M,39.399,M,3.3,0000*55
$GNGGA,112915.50,3604.9477311,N,14004.6213994,E,5,08,1.91,26.434,M,39.399,M,3.5,0000*57
$GNGGA,112915.60,3604.9477594,N,14004.6214612,E,5,08,1.91,26.441,M,39.399,M,3.6,0000*58
$GNGGA,112915.70,3604.9477962,N,14004.6215213,E,5,08,1.91,26.465,M,39.399,M,3.7,0000*5F
$GNGGA,112915.90,3604.9478894,N,14004.6216189,E,5,08,1.91,26.432,M,39.399,M,3.9,0000*59
$GNGGA,112916.00,3604.9479467,N,14004.6216480,E,5,08,1.91,26.468,M,39.399,M,4.0,0000*5F
$GNGGA,112916.20,3604.9480403,N,14004.6216884,E,5,08,1.91,26.518,M,39.399,M,4.2,0000*55
$GNGGA,112916.40,3604.9481218,N,14004.6217122,E,5,08,1.91,26.554,M,39.399,M,4.4,0000*54
$GNGGA,112916.60,3604.9481833,N,14004.6217391,E,5,08,1.91,26.568,M,39.399,M,4.6,0000*52
$GNGGA,112916.80,3604.9482348,N,14004.6217705,E,5,08,1.91,26.613,M,39.399,M,4.8,0000*50
$GNGGA,112917.20,3604.9482894,N,14004.6217667,E,5,08,1.91,26.623,M,39.399,M,5.2,0000*5C
$GNGGA,112917.80,3604.9483246,N,14004.6218431,E,5,08,1.91,26.639,M,39.399,M,5.8,0000*5D
$GNGGA,112918.10,3604.9483238,N,14004.6219123,E,5,08,1.91,26.633,M,39.399,M,6.1,0000*55
$GNGGA,112918.70,3604.9483046,N,14004.6218320,E,5,08,1.91,26.547,M,39.399,M,1.7,0000*59
$GNGGA,112919.00,3604.9482722,N,14004.6217459,E,5,08,1.91,26.533,M,39.399,M,2.0,0000*5A
$GNGGA,112919.20,3604.9482284,N,14004.6216885,E,5,08,1.91,26.532,M,39.399,M,2.2,0000*5E
$GNGGA,112919.40,3604.9482201,N,14004.6216057,E,5,08,1.91,26.490,M,39.399,M,2.4,0000*5D
$GNGGA,112919.80,3604.9482387,N,14004.6215144,E,5,07,2.29,26.447,M,39.399,M,2.8,0000*57
$GNGGA,112920.20,3604.9482117,N,14004.6214398,E,2,08,1.91,26.436,M,39.399,M,3.2,0000*5B
$GNGGA,112921.10,3604.9482342,N,14004.6213790,E,2,08,1.91,26.531,M,39.399,M,4.1,0000*52
$GNGGA,112921.60,3604.9482548,N,14004.6213100,E,2,07,1.91,26.511,M,39.399,M,4.6,0000*5C
$GNGGA,112921.90,3604.9481762,N,14004.6212878,E,2,08,1.91,26.494,M,39.399,M,4.9,0000*51
$GNGGA,112922.30,3604.9481051,N,14004.6212540,E,2,08,1.91,26.427,M,39.399,M,5.3,0000*5A
$GNGGA,112924.30,3604.9480547,N,14004.6212079,E,2,08,1.91,26.282,M,39.399,M,2.3,0000*5E
$GNGGA,112924.60,3604.9480004,N,14004.6212202,E,2,08,1.91,26.547,M,39.399,M,2.6,0000*5C
$GNGGA,112924.80,3604.9479739,N,14004.6212799,E,5,08,1.91,26.704,M,39.399,M,2.8,0000*56
$GNGGA,112924.90,3604.9479307,N,14004.6213279,E,5,08,1.91,26.673,M,39.399,M,2.9,0000*54
$GNGGA,112925.20,3604.9478884,N,14004.6213911,E,2,08,1.91,26.762,M,39.399,M,3.2,0000*56
$GNGGA,112925.90,3604.9478711,N,14004.6214625,E,5,08,1.91,26.794,M,39.399,M,3.9,0000*54
$GNGGA,112926.80,3604.9478673,N,14004.6213655,E,5,08,1.91,26.663,M,39.399,M,4.8,0000*5C
$GNGGA,112927.00,3604.9479048,N,14004.6212864,E,5,08,1.91,26.630,M,39.399,M,5.0,0000*58
$GNGGA,112927.20,3604.9479668,N,14004.6212332,E,2,08,1.91,26.554,M,39.399,M,5.2,0000*52
$GNGGA,112927.40,3604.9480076,N,14004.6211756,E,2,08,1.91,26.514,M,39.399,M,5.4,0000*5C
$GNGGA,112927.70,3604.9480547,N,14004.6211198,E,5,08,1.91,26.402,M,39.399,M,5.7,0000*5E
$GNGGA,112928.90,3604.9480615,N,14004.6210533,E,5,08,1.91,26.145,M,39.399,M,6.9,0000*54
$GNGGA,112930.00,3604.9481180,N,14004.6210232,E,5,08,1.91,26.170,M,39.399,M,8.0,0000*59
$GNGGA,112933.50,3604.9481484,N,14004.6210831,E,5,08,1.91,26.199,M,39.399,M,1.5,0000*5C
$GNGGA,112934.80,3604.9482016,N,14004.6211082,E,5,08,1.91,26.248,M,39.399,M,2.8,0000*5A
$GNGGA,112939.90,3604.9481734,N,14004.6211655,E,5,08,1.91,26.438,M,39.399,M,2.9,0000*5E
$GNGGA,112944.10,3604.9482105,N,14004.6212150,E,5,08,1.91,26.223,M,39.399,M,7.1,0000*5B
$GNGGA,112945.80,3604.9481462,N,14004.6212095,E,5,08,1.91,26.197,M,39.399,M,3.8,0000*5D
$GNGGA,112946.20,3604.9480937,N,14004.6212447,E,5,08,1.91,26.084,M,39.399,M,4.2,0000*5D
$GNGGA,112950.20,3604.9481446,N,14004.6212151,E,5,08,1.91,26.313,M,39.399,M,3.2,0000*58
$GNGGA,112952.50,3604.9480906,N,14004.6212317,E,5,08,1.92,26.082,M,39.399,M,5.5,0000*5C
$GNGGA,112954.40,3604.9481387,N,14004.6211934,E,2,08,1.92,26.160,M,39.399,M,2.4,0000*5D
$GNGGA,112959.80,3604.9481668,N,14004.6212556,E,5,08,1.92,26.135,M,39.399,M,2.8,0000*58
$GNGGA,113000.70,3604.9481696,N,14004.6213245,E,5,08,1.92,25.973,M,39.399,M,3.7,0000*51
$GNGGA,113002.80,3604.9482231,N,14004.6213541,E,5,08,1.92,26.022,M,39.399,M,5.8,0000*52
$GNGGA,113004.20,3604.9481599,N,14004.6213518,E,2,08,1.92,25.852,M,39.399,M,7.2,0000*57
$GNGGA,113004.50,3604.9480859,N,14004.6213747,E,2,08,1.92,25.781,M,39.399,M,7.5,0000*5E
$GNGGA,113004.70,3604.9480128,N,14004.6213974,E,5,08,1.92,25.951,M,39.399,M,7.7,0000*5B
$GNGGA,113005.20,3604.9479550,N,14004.6213979,E,5,08,1.92,25.967,M,39.399,M,8.2,0000*50
$GNGGA,113006.10,3604.9479261,N,14004.6214561,E,5,08,1.92,26.214,M,39.399,M,9.1,0000*59
$GNGGA,113006.50,3604.9478707,N,14004.6214922,E,5,08,1.92,26.298,M,39.399,M,9.5,0000*52
$GNGGA,113007.00,3604.9478249,N,14004.6215369,E,5,08,1.92,26.366,M,39.399,M,10.0,0000*60
$GNGGA,113008.30,3604.9478232,N,14004.6214603,E,5,08,1.92,26.355,M,39.399,M,11.3,0000*6A
$GNGGA,113008.60,3604.9478534,N,14004.6213795,E,5,08,1.92,26.351,M,39.399,M,11.6,0000*66
$GNGGA,113008.80,3604.9478750,N,14004.6213132,E,5,08,1.92,26.360,M,39.399,M,11.8,0000*6F
$GNGGA,113009.00,3604.9479083,N,14004.6212588,E,5,08,1.92,26.341,M,39.399,M,12.0,0000*62
$GNGGA,113009.20,3604.9479596,N,14004.6212183,E,5,08,1.92,26.339,M,39.399,M,12.2,0000*63
$GNGGA,113009.40,3604.9480137,N,14004.6211850,E,5,08,1.92,26.366,M,39.399,M,12.4,0000*64
$GNGGA,113009.60,3604.9480696,N,14004.6211764,E,5,08,1.92,26.408,M,39.399,M,12.6,0000*6F
$GNGGA,113009.90,3604.9481244,N,14004.6211980,E,5,08,1.92,26.424,M,39.399,M,12.9,0000*6F
$GNGGA,113010.20,3604.9481799,N,14004.6212633,E,5,08,1.92,26.405,M,39.399,M,13.2,0000*64
$GNGGA,113010.40,3604.9482409,N,14004.6213054,E,5,08,1.92,26.411,M,39.399,M,13.4,0000*6E
$GNGGA,113010.60,3604.9483105,N,14004.6213660,E,5,08,1.92,26.416,M,39.399,M,13.6,0000*60
$GNGGA,113010.90,3604.9483870,N,14004.6214161,E,5,08,1.92,26.496,M,39.399,M,13.9,0000*62
$GNGGA,113011.20,3604.9484495,N,14004.6214325,E,5,08,1.92,26.528,M,39.399,M,14.2,0000*62
$GNGGA,113011.40,3604.9485134,N,14004.6214272,E,5,08,1.92,26.531,M,39.399,M,14.4,0000*66
$GNGGA,113011.60,3604.9485737,N,14004.6214072,E,5,08,1.92,26.532,M,39.399,M,14.6,0000*62
$GNGGA,113011.90,3604.9486431,N,14004.6213550,E,5,08,1.92,26.535,M,39.399,M,14.9,0000*61
$GNGGA,113012.20,3604.9487060,N,14004.6212986,E,5,08,1.92,26.568,M,39.399,M,15.2,0000*6C
$GNGGA,113012.50,3604.9487558,N,14004.6212433,E,5,08,1.92,26.617,M,39.399,M,15.5,0000*6A
$GNGGA,113012.90,3604.9487858,N,14004.6211702,E,5,08,1.92,26.653,M,39.399,M,15.9,0000*65
$GNGGA,113015.30,3604.9488416,N,14004.6211528,E,5,08,1.92,26.668,M,39.399,M,18.3,0000*64
$GNGGA,113019.10,3604.9488901,N,14004.6211823,E,5,08,1.92,26.719,M,39.399,M,22.1,0000*6B
$GNGGA,113028.60,3604.9489078,N,14004.6211192,E,5,08,1.92,26.843,M,39.399,M,31.6,0000*6E
$GNGGA,113029.00,3604.9489629,N,14004.6210961,E,5,08,1.92,26.849,M,39.399,M,32.0,0000*61
$GNGGA,113029.30,3604.9490414,N,14004.6210966,E,5,08,1.92,26.867,M,39.399,M,32.3,0000*6E
$GNGGA,113029.60,3604.9491060,N,14004.6211231,E,5,08,1.92,26.867,M,39.399,M,32.6,0000*60
$GNGGA,113029.90,3604.9491694,N,14004.6211466,E,5,08,1.92,26.833,M,39.399,M,32.9,0000*68
$GNGGA,113030.20,3604.9492571,N,14004.6211670,E,5,08,1.92,26.807,M,39.399,M,3.2,0000*5B
$GNGGA,113030.40,3604.9493243,N,14004.6211888,E,5,08,1.92,26.785,M,39.399,M,3.4,0000*50
$GNGGA,113030.60,3604.9493935,N,14004.6212175,E,5,08,1.92,26.760,M,39.399,M,3.6,0000*59
$GNGGA,113030.80,3604.9494603,N,14004.6212496,E,5,08,1.92,26.759,M,39.399,M,3.8,0000*56
$GNGGA,113031.00,3604.9495350,N,14004.6213105,E,5,08,1.92,26.733,M,39.399,M,4.0,0000*50
$GNGGA,113031.20,3604.9496223,N,14004.6213563,E,5,08,1.92,26.750,M,39.399,M,4.2,0000*57
$GNGGA,113031.40,3604.9496901,N,14004.6213762,E,5,08,1.92,26.751,M,39.399,M,4.4,0000*5E
$GNGGA,113031.60,3604.9497728,N,14004.6213845,E,5,08,1.92,26.735,M,39.399,M,4.6,0000*52
$GNGGA,113031.80,3604.9498595,N,14004.6213855,E,5,08,1.92,26.747,M,39.399,M,4.8,0000*5D
$GNGGA,113032.00,3604.9499416,N,14004.6213933,E,5,08,1.92,26.773,M,39.399,M,5.0,0000*52
$GNGGA,113032.20,3604.9500173,N,14004.6214203,E,5,08,1.92,26.748,M,39.399,M,5.2,0000*52
$GNGGA,113032.40,3604.9501080,N,14004.6214681,E,5,08,1.92,26.758,M,39.399,M,5.4,0000*51
$GNGGA,113032.60,3604.9501957,N,14004.6215101,E,5,08,1.92,26.790,M,39.399,M,5.6,0000*58
$GNGGA,113032.80,3604.9502671,N,14004.6215393,E,5,08,1.92,26.785,M,39.399,M,5.8,0000*5D
$GNGGA,113033.00,3604.9503557,N,14004.6215625,E,5,08,1.92,26.777,M,39.399,M,6.0,0000*5C
$GNGGA,113033.20,3604.9504582,N,14004.6215732,E,5,08,1.92,26.789,M,39.399,M,1.2,0000*52
$GNGGA,113033.40,3604.9505577,N,14004.6215877,E,5,08,1.92,26.806,M,39.399,M,1.4,0000*5F
$GNGGA,113033.60,3604.9506471,N,14004.6216199,E,5,08,1.92,26.774,M,39.399,M,1.6,0000*5B
$GNGGA,113033.70,3604.9507011,N,14004.6216369,E,5,08,1.92,26.786,M,39.399,M,1.7,0000*58
$GNGGA,113033.80,3604.9507566,N,14004.6216633,E,5,08,1.92,26.791,M,39.399,M,1.8,0000*51
$GNGGA,113034.00,3604.9508557,N,14004.6216851,E,5,08,1.92,26.830,M,39.399,M,2.0,0000*56
$GNGGA,113034.20,3604.9509522,N,14004.6217100,E,5,08,1.92,26.834,M,39.399,M,2.2,0000*5D
$GNGGA,113034.30,3604.9510117,N,14004.6217227,E,5,08,1.92,26.829,M,39.399,M,2.3,0000*5D
$GNGGA,113034.40,3604.9510676,N,14004.6217321,E,5,08,1.92,26.844,M,39.399,M,2.4,0000*51
$GNGGA,113034.50,3604.9511208,N,14004.6217461,E,5,08,1.92,26.858,M,39.399,M,2.5,0000*53
$GNGGA,113034.70,3604.9512128,N,14004.6217747,E,5,08,1.92,26.859,M,39.399,M,2.7,0000*57
$GNGGA,113034.90,3604.9513192,N,14004.6218143,E,5,08,1.92,26.852,M,39.399,M,2.9,0000*51
$GNGGA,113035.10,3604.9514157,N,14004.6218506,E,5,08,1.92,26.877,M,39.399,M,3.1,0000*5D
$GNGGA,113035.30,3604.9515104,N,14004.6218864,E,5,08,1.92,26.884,M,39.399,M,3.3,0000*5F
$GNGGA,113035.40,3604.9515657,N,14004.6219102,E,5,08,1.92,26.862,M,39.399,M,3.4,0000*5E
$GNGGA,113035.50,3604.9516176,N,14004.6219297,E,5,08,1.92,26.858,M,39.399,M,3.5,0000*5F
$GNGGA,113035.60,3604.9516804,N,14004.6219483,E,5,08,1.92,26.877,M,39.399,M,3.6,0000*5D
$GNGGA,113035.70,3604.9517340,N,14004.6219754,E,5,08,1.92,26.888,M,39.399,M,3.7,0000*5E
$GNGGA,113035.90,3604.9518354,N,14004.6220364,E,5,08,1.92,26.875,M,39.399,M,3.9,0000*5B
$GNGGA,113036.10,3604.9519372,N,14004.6220970,E,5,08,1.92,26.893,M,39.399,M,4.1,0000*5D
$GNGGA,113036.30,3604.9520285,N,14004.6221498,E,5,08,1.92,26.912,M,39.399,M,4.3,0000*5C
$GNGGA,113036.50,3604.9521329,N,14004.6221866,E,5,08,1.92,26.907,M,39.399,M,4.5,0000*53
$GNGGA,113036.60,3604.9521855,N,14004.6222016,E,5,08,1.92,26.896,M,39.399,M,4.6,0000*56
$GNGGA,113036.70,3604.9522447,N,14004.6222139,E,5,08,1.92,26.913,M,39.399,M,4.7,0000*5A
$GNGGA,113036.80,3604.9523055,N,14004.6222276,E,5,08,1.92,26.935,M,39.399,M,4.8,0000*50
$GNGGA,113037.00,3604.9524034,N,14004.6222680,E,5,08,1.92,26.913,M,39.399,M,5.0,0000*59
$GNGGA,113037.10,3604.9524601,N,14004.6222879,E,5,08,1.92,26.919,M,39.399,M,5.1,0000*5B
$GNGGA,113037.20,3604.9525135,N,14004.6223115,E,5,08,1.92,26.926,M,39.399,M,5.2,0000*54
$GNGGA,113037.30,3604.9525655,N,14004.6223336,E,5,08,1.92,26.941,M,39.399,M,5.3,0000*57
$GNGGA,113037.50,3604.9526577,N,14004.6223665,E,5,08,1.92,26.956,M,39.399,M,5.5,0000*52
$GNGGA,113037.60,3604.9527132,N,14004.6223765,E,5,08,1.92,26.953,M,39.399,M,5.6,0000*52
$GNGGA,113037.70,3604.9527672,N,14004.6223965,E,5,08,1.92,26.944,M,39.399,M,5.7,0000*59
$GNGGA,113037.80,3604.9528214,N,14004.6224036,E,5,08,1.92,26.943,M,39.399,M,5.8,0000*5D
$GNGGA,113037.90,3604.9528747,N,14004.6224178,E,5,08,1.92,26.961,M,39.399,M,5.9,0000*55
$GNGGA,113038.10,3604.9529704,N,14004.6224542,E,5,08,1.92,26.956,M,39.399,M,6.1,0000*56
$GNGGA,113038.20,3604.9530244,N,14004.6224760,E,5,08,1.92,26.948,M,39.399,M,1.2,0000*55
$GNGGA,113038.40,3604.9531234,N,14004.6225262,E,5,08,1.92,26.958,M,39.399,M,1.4,0000*54
$GNGGA,113038.60,3604.9532093,N,14004.6225605,E,5,08,1.92,26.952,M,39.399,M,1.6,0000*57
$GNGGA,113038.80,3604.9533106,N,14004.6225879,E,5,08,1.92,26.934,M,39.399,M,1.8,0000*5E
$GNGGA,113038.90,3604.9533649,N,14004.6226020,E,5,08,1.92,26.915,M,39.399,M,1.9,0000*56
$GNGGA,113039.00,3604.9534217,N,14004.6226140,E,5,08,1.92,26.925,M,39.399,M,2.0,0000*58
$GNGGA,113039.10,3604.9534754,N,14004.6226330,E,5,08,1.92,26.938,M,39.399,M,2.1,0000*53
$GNGGA,113039.30,3604.9535789,N,14004.6226676,E,5,08,1.92,26.925,M,39.399,M,2.3,0000*59
$GNGGA,113039.40,3604.9536310,N,14004.6226939,E,5,08,1.92,26.920,M,39.399,M,2.4,0000*5F
$GNGGA,113039.60,3604.9537326,N,14004.6227436,E,5,08,1.92,26.944,M,39.399,M,2.6,0000*5A
$GNGGA,113039.80,3604.9538196,N,14004.6227782,E,5,08,1.92,26.951,M,39.399,M,2.8,0000*54
$GNGGA,113040.00,3604.9539218,N,14004.6228128,E,5,08,1.92,26.924,M,39.399,M,3.0,0000*54
$GNGGA,113040.10,3604.9539770,N,14004.6228322,E,5,08,1.92,26.933,M,39.399,M,3.1,0000*51
$GNGGA,113040.30,3604.9540761,N,14004.6228827,E,5,08,1.92,26.937,M,39.399,M,3.3,0000*55
$GNGGA,113040.50,3604.9541726,N,14004.6229324,E,5,08,1.92,26.903,M,39.399,M,3.5,0000*59
$GNGGA,113040.60,3604.9542253,N,14004.6229649,E,5,08,1.92,26.903,M,39.399,M,3.6,0000*53
$GNGGA,113040.70,3604.9542768,N,14004.6229947,E,5,08,1.92,26.921,M,39.399,M,3.7,0000*5F
$GNGGA,113040.90,3604.9543647,N,14004.6230360,E,5,08,1.92,26.938,M,39.399,M,3.9,0000*5D
$GNGGA,113041.00,3604.9544160,N,14004.6230566,E,5,08,1.92,26.929,M,39.399,M,4.0,0000*5E
$GNGGA,113041.20,3604.9545277,N,14004.6230889,E,5,08,1.92,26.931,M,39.399,M,4.2,0000*5F
$GNGGA,113041.30,3604.9545864,N,14004.6231103,E,5,08,1.92,26.932,M,39.399,M,4.3,0000*5E
$GNGGA,113041.50,3604.9546743,N,14004.6231640,E,5,08,1.92,26.938,M,39.399,M,4.5,0000*5D
$GNGGA,113041.70,3604.9547756,N,14004.6232177,E,5,08,1.92,26.926,M,39.399,M,4.7,0000*57
$GNGGA,113041.80,3604.9548306,N,14004.6232552,E,5,08,1.92,26.931,M,39.399,M,4.8,0000*5C
$GNGGA,113042.00,3604.9549217,N,14004.6232969,E,5,08,1.92,26.948,M,39.399,M,5.0,0000*54
$GNGGA,113042.20,3604.9550236,N,14004.6233310,E,5,08,1.92,26.919,M,39.399,M,5.2,0000*5E
$GNGGA,113042.30,3604.9550821,N,14004.6233449,E,5,08,1.92,26.930,M,39.399,M,5.3,0000*52
$GNGGA,113042.40,3604.9551494,N,14004.6233616,E,5,08,1.92,26.925,M,39.399,M,5.4,0000*5D
$GNGGA,113042.50,3604.9552081,N,14004.6233846,E,5,08,1.92,26.939,M,39.399,M,5.5,0000*58
$GNGGA,113042.70,3604.9553057,N,14004.6234228,E,5,08,1.92,26.934,M,39.399,M,5.7,0000*5A
$GNGGA,113042.80,3604.9553682,N,14004.6234367,E,5,08,1.92,26.921,M,39.399,M,5.8,0000*5A
$GNGGA,113042.90,3604.9554283,N,14004.6234540,E,5,08,1.92,26.935,M,39.399,M,5.9,0000*5E
$GNGGA,113043.10,3604.9555305,N,14004.6234705,E,5,08,1.92,26.929,M,39.399,M,6.1,0000*5C
$GNGGA,113043.20,3604.9555867,N,14004.6234744,E,5,08,1.92,26.912,M,39.399,M,6.2,0000*5E
$GNGGA,113043.30,3604.9556543,N,14004.6234767,E,5,08,1.92,26.899,M,39.399,M,6.3,0000*55
$GNGGA,113043.40,3604.9557104,N,14004.6234862,E,5,08,1.92,26.909,M,39.399,M,6.4,0000*51
$GNGGA,113043.50,3604.9557788,N,14004.6234965,E,5,08,1.92,26.903,M,39.399,M,6.5,0000*5F
$GNGGA,113043.60,3604.9558425,N,14004.6235179,E,5,08,1.92,26.915,M,39.399,M,6.6,0000*57
$GNGGA,113043.80,3604.9559437,N,14004.6235552,E,5,08,1.92,26.902,M,39.399,M,6.8,0000*5E
$GNGGA,113043.90,3604.9560074,N,14004.6235764,E,5,08,1.92,26.890,M,39.399,M,6.9,0000*5A
$GNGGA,113044.00,3604.9560704,N,14004.6235947,E,5,08,1.92,26.912,M,39.399,M,7.0,0000*58
$GNGGA,113044.10,3604.9561241,N,14004.6236118,E,5,08,1.92,26.913,M,39.399,M,7.1,0000*5D
$GNGGA,113044.30,3604.9562337,N,14004.6236429,E,5,08,1.92,26.898,M,39.399,M,2.3,0000*5E
$GNGGA,113044.40,3604.9562948,N,14004.6236613,E,5,08,1.92,26.888,M,39.399,M,2.4,0000*56
$GNGGA,113044.50,3604.9563541,N,14004.6236773,E,5,08,1.92,26.873,M,39.399,M,2.5,0000*51
$GNGGA,113044.60,3604.9564193,N,14004.6236919,E,5,08,1.92,26.879,M,39.399,M,2.6,0000*55
$GNGGA,113044.70,3604.9564774,N,14004.6237155,E,5,08,1.92,26.901,M,39.399,M,2.7,0000*55
$GNGGA,113044.90,3604.9565798,N,14004.6237485,E,5,08,1.92,26.867,M,39.399,M,2.9,0000*5F
$GNGGA,113045.00,3604.9566408,N,14004.6237653,E,5,08,1.92,26.865,M,39.399,M,3.0,0000*5D
$GNGGA,113045.10,3604.9566957,N,14004.6237836,E,5,08,1.92,26.877,M,39.399,M,3.1,0000*54
$GNGGA,113045.30,3604.9567926,N,14004.6237956,E,5,08,1.92,26.872,M,39.399,M,3.3,0000*51
$GNGGA,113045.40,3604.9568519,N,14004.6238034,E,5,08,1.92,26.854,M,39.399,M,3.4,0000*58
$GNGGA,113045.50,3604.9569092,N,14004.6238041,E,5,08,1.92,26.849,M,39.399,M,3.5,0000*51
$GNGGA,113045.60,3604.9569693,N,14004.6238104,E,5,08,1.92,26.847,M,39.399,M,3.6,0000*58
$GNGGA,113045.70,3604.9570303,N,14004.6238131,E,5,08,1.92,26.838,M,39.399,M,3.7,0000*52
$GNGGA,113045.80,3604.9570856,N,14004.6238255,E,5,08,1.92,26.860,M,39.399,M,3.8,0000*55
$GNGGA,113046.00,3604.9571916,N,14004.6238274,E,5,08,1.92,26.833,M,39.399,M,4.0,0000*50
$GNGGA,113046.10,3604.9572491,N,14004.6238311,E,5,08,1.92,26.829,M,39.399,M,4.1,0000*58
$GNGGA,113046.20,3604.9573053,N,14004.6238307,E,5,08,1.92,26.834,M,39.399,M,4.2,0000*58
$GNGGA,113046.40,3604.9574033,N,14004.6238207,E,5,08,1.93,26.832,M,39.399,M,4.4,0000*5F
$GNGGA,113046.50,3604.9574650,N,14004.6238141,E,5,08,1.93,26.824,M,39.399,M,4.5,0000*5A
$GNGGA,113046.60,3604.9575236,N,14004.6238057,E,5,08,1.93,26.804,M,39.399,M,4.6,0000*5B
$GNGGA,113046.70,3604.9575860,N,14004.6237985,E,5,08,1.93,26.797,M,39.399,M,4.7,0000*5E
$GNGGA,113046.80,3604.9576519,N,14004.6237899,E,5,08,1.93,26.811,M,39.399,M,4.8,0000*53
$GNGGA,113046.90,3604.9577102,N,14004.6237909,E,5,08,1.93,26.821,M,39.399,M,4.9,0000*57
$GNGGA,113047.10,3604.9578210,N,14004.6237918,E,5,08,1.93,26.810,M,39.399,M,5.1,0000*5A
$GNGGA,113047.20,3604.9578795,N,14004.6237924,E,5,08,1.93,26.796,M,39.399,M,5.2,0000*5C
$GNGGA,113047.30,3604.9579411,N,14004.6237978,E,5,08,1.93,26.815,M,39.399,M,5.3,0000*5F
$GNGGA,113047.50,3604.9580414,N,14004.6237848,E,5,08,1.93,26.802,M,39.399,M,5.5,0000*58
$GNGGA,113047.60,3604.9580968,N,14004.6237784,E,5,08,1.93,26.804,M,39.399,M,5.6,0000*57
$GNGGA,113047.70,3604.9581561,N,14004.6237693,E,5,08,1.93,26.791,M,39.399,M,5.7,0000*57
$GNGGA,113047.80,3604.9582188,N,14004.6237604,E,5,08,1.93,26.780,M,39.399,M,5.8,0000*59
$GNGGA,113047.90,3604.9582824,N,14004.6237539,E,5,08,1.93,26.801,M,39.399,M,5.9,0000*5D
$GNGGA,113048.10,3604.9583873,N,14004.6237578,E,5,08,1.93,26.792,M,39.399,M,6.1,0000*52
$GNGGA,113048.20,3604.9584487,N,14004.6237534,E,5,08,1.93,26.781,M,39.399,M,1.2,0000*5F
$GNGGA,113048.30,3604.9585060,N,14004.6237552,E,5,08,1.93,26.790,M,39.399,M,1.3,0000*53
$GNGGA,113048.40,3604.9585662,N,14004.6237560,E,5,08,1.93,26.793,M,39.399,M,1.4,0000*55
$GNGGA,113048.60,3604.9586636,N,14004.6237390,E,5,08,1.93,26.790,M,39.399,M,1.6,0000*5D
$GNGGA,113048.70,3604.9587255,N,14004.6237269,E,5,08,1.93,26.778,M,39.399,M,1.7,0000*5C
$GNGGA,113048.80,3604.9587837,N,14004.6237181,E,5,08,1.93,26.769,M,39.399,M,1.8,0000*57
$GNGGA,113048.90,3604.9588476,N,14004.6237081,E,5,08,1.93,26.771,M,39.399,M,1.9,0000*59
$GNGGA,113049.00,3604.9589112,N,14004.6236998,E,5,08,1.93,26.775,M,39.399,M,2.0,0000*59
$GNGGA,113049.10,3604.9589658,N,14004.6237118,E,5,08,1.93,26.783,M,39.399,M,2.1,0000*58
$GNGGA,113049.30,3604.9590827,N,14004.6237124,E,5,08,1.93,26.760,M,39.399,M,2.3,0000*54
$GNGGA,113049.40,3604.9591424,N,14004.6237217,E,5,08,1.93,26.767,M,39.399,M,2.4,0000*5E
$GNGGA,113049.50,3604.9592026,N,14004.6237301,E,5,08,1.93,26.775,M,39.399,M,2.5,0000*5E
$GNGGA,113049.70,3604.9593080,N,14004.6237329,E,5,08,1.93,26.771,M,39.399,M,2.7,0000*5D
$GNGGA,113049.80,3604.9593694,N,14004.6237384,E,5,08,1.93,26.760,M,39.399,M,2.8,0000*59
$GNGGA,113049.90,3604.9594310,N,14004.6237399,E,5,08,1.93,26.760,M,39.399,M,2.9,0000*5B
$GNGGA,113050.00,3604.9594957,N,14004.6237441,E,5,08,1.93,26.752,M,39.399,M,3.0,0000*58
$GNGGA,113050.10,3604.9595577,N,14004.6237482,E,5,08,1.93,26.760,M,39.399,M,3.1,0000*59
$GNGGA,113050.20,3604.9596151,N,14004.6237666,E,5,08,1.93,26.776,M,39.399,M,3.2,0000*55
$GNGGA,113050.30,3604.9596724,N,14004.6237731,E,5,08,1.93,26.749,M,39.399,M,3.3,0000*5E
$GNGGA,113050.40,3604.9597334,N,14004.6237770,E,5,08,1.93,26.744,M,39.399,M,3.4,0000*52
$GNGGA,113050.50,3604.9597942,N,14004.6237839,E,5,08,1.93,26.753,M,39.399,M,3.5,0000*5D
$GNGGA,113050.70,3604.9598942,N,14004.6237869,E,5,08,1.93,26.760,M,39.399,M,3.7,0000*57
$GNGGA,113050.80,3604.9599520,N,14004.6237829,E,5,08,1.93,26.757,M,39.399,M,3.8,0000*5E
$GNGGA,113050.90,3604.9600102,N,14004.6237737,E,5,08,1.93,26.737,M,39.399,M,3.9,0000*5F
$GNGGA,113051.00,3604.9600730,N,14004.6237684,E,5,08,1.93,26.736,M,39.399,M,4.0,0000*56
$GNGGA,113051.10,3604.9601370,N,14004.6237570,E,5,08,1.93,26.732,M,39.399,M,4.1,0000*5B
$GNGGA,113051.20,3604.9601939,N,14004.6237508,E,5,08,1.93,26.738,M,39.399,M,4.2,0000*59
$GNGGA,113051.40,3604.9603020,N,14004.6237317,E,5,08,1.93,26.718,M,39.399,M,4.4,0000*50
$GNGGA,113051.50,3604.9603606,N,14004.6237238,E,5,08,1.93,26.724,M,39.399,M,4.5,0000*51
$GNGGA,113051.60,3604.9604192,N,14004.6237145,E,5,08,1.93,26.725,M,39.399,M,4.6,0000*54
$GNGGA,113051.70,3604.9604711,N,14004.6236963,E,5,08,1.93,26.725,M,39.399,M,4.7,0000*54
$GNGGA,113051.90,3604.9605758,N,14004.6236511,E,5,08,1.93,26.725,M,39.399,M,4.9,0000*51
$GNGGA,113052.00,3604.9606314,N,14004.6236278,E,5,08,1.93,26.708,M,39.399,M,5.0,0000*5B
$GNGGA,113052.10,3604.9606929,N,14004.6236032,E,5,08,1.93,26.706,M,39.399,M,5.1,0000*5D
$GNGGA,113052.20,3604.9607572,N,14004.6235803,E,5,08,1.93,26.706,M,39.399,M,5.2,0000*57
$GNGGA,113052.40,3604.9608612,N,14004.6235468,E,5,08,1.93,26.717,M,39.399,M,5.4,0000*5C
$GNGGA,113052.50,3604.9609232,N,14004.6235238,E,5,08,1.93,26.691,M,39.399,M,5.5,0000*57
$GNGGA,113052.60,3604.9609843,N,14004.6235039,E,5,08,1.93,26.695,M,39.399,M,5.6,0000*5C
$GNGGA,113052.70,3604.9610440,N,14004.6234867,E,5,08,1.93,26.711,M,39.399,M,5.7,0000*54
$GNGGA,113052.90,3604.9611408,N,14004.6234355,E,5,08,1.93,26.703,M,39.399,M,5.9,0000*50
$GNGGA,113053.00,3604.9611950,N,14004.6233992,E,5,08,1.93,26.695,M,39.399,M,6.0,0000*5A
$GNGGA,113053.10,3604.9612528,N,14004.6233709,E,5,08,1.93,26.692,M,39.399,M,6.1,0000*51
$GNGGA,113053.20,3604.9613122,N,14004.6233394,E,5,08,1.93,26.675,M,39.399,M,1.2,0000*50
$GNGGA,113053.30,3604.9613674,N,14004.6233108,E,5,08,1.93,26.697,M,39.399,M,1.3,0000*5F
$GNGGA,113053.50,3604.9614702,N,14004.6232719,E,5,08,1.93,26.682,M,39.399,M,1.5,0000*5B
$GNGGA,113053.60,3604.9615279,N,14004.6232485,E,5,08,1.93,26.681,M,39.399,M,1.6,0000*56
$GNGGA,113053.70,3604.9615848,N,14004.6232314,E,5,08,1.93,26.691,M,39.399,M,1.7,0000*50
$GNGGA,113053.80,3604.9616407,N,14004.6232127,E,5,08,1.93,26.693,M,39.399,M,1.8,0000*54
$GNGGA,113054.00,3604.9617365,N,14004.6231599,E,5,08,1.93,26.683,M,39.399,M,2.0,0000*51
$GNGGA,113054.10,3604.9617910,N,14004.6231272,E,5,08,1.93,26.674,M,39.399,M,2.1,0000*53
$GNGGA,113054.20,3604.9618456,N,14004.6230990,E,5,08,1.93,26.661,M,39.399,M,2.2,0000*51
$GNGGA,113054.30,3604.9619068,N,14004.6230696,E,5,08,1.93,26.671,M,39.399,M,2.3,0000*51
$GNGGA,113054.40,3604.9619619,N,14004.6230453,E,5,08,1.93,26.666,M,39.399,M,2.4,0000*5C
$GNGGA,113054.60,3604.9620721,N,14004.6230116,E,5,08,1.93,26.661,M,39.399,M,2.6,0000*5F
$GNGGA,113054.70,3604.9621321,N,14004.6229941,E,5,08,1.93,26.664,M,39.399,M,2.7,0000*5D
$GNGGA,113054.80,3604.9621916,N,14004.6229770,E,5,08,1.93,26.668,M,39.399,M,2.8,0000*53
$GNGGA,113055.00,3604.9622962,N,14004.6229418,E,5,08,1.93,26.671,M,39.399,M,3.0,0000*56
$GNGGA,113055.10,3604.9623533,N,14004.6229155,E,5,08,1.93,26.666,M,39.399,M,3.1,0000*55
$GNGGA,113055.20,3604.9624104,N,14004.6228893,E,5,08,1.93,26.651,M,39.399,M,3.2,0000*54
$GNGGA,113055.30,3604.9624732,N,14004.6228715,E,5,08,1.93,26.644,M,39.399,M,3.3,0000*52
$GNGGA,113055.40,3604.9625351,N,14004.6228562,E,5,08,1.93,26.669,M,39.399,M,3.4,0000*5F
$GNGGA,113055.50,3604.9625957,N,14004.6228551,E,5,08,1.93,26.664,M,39.399,M,3.5,0000*5E
$GNGGA,113055.60,3604.9626517,N,14004.6228523,E,5,08,1.93,26.666,M,39.399,M,3.6,0000*52
$GNGGA,113055.70,3604.9627112,N,14004.6228487,E,5,08,1.93,26.653,M,39.399,M,3.7,0000*5B
$GNGGA,113055.80,3604.9627681,N,14004.6228460,E,5,08,1.93,26.658,M,39.399,M,3.8,0000*54
$GNGGA,113055.90,3604.9628320,N,14004.6228480,E,5,08,1.93,26.659,M,39.399,M,3.9,0000*5A
$GNGGA,113056.10,3604.9629402,N,14004.6228436,E,5,08,1.93,26.667,M,39.399,M,4.1,0000*58
$GNGGA,113056.20,3604.9629979,N,14004.6228386,E,5,08,1.93,26.662,M,39.399,M,4.2,0000*50
$GNGGA,113056.30,3604.9630564,N,14004.6228425,E,5,08,1.93,26.644,M,39.399,M,4.3,0000*52
$GNGGA,113056.40,3604.9631181,N,14004.6228433,E,5,08,1.93,26.636,M,39.399,M,4.4,0000*5E
$GNGGA,113056.50,3604.9631828,N,14004.6228485,E,5,08,1.93,26.654,M,39.399,M,4.5,0000*5D
$GNGGA,113056.60,3604.9632401,N,14004.6228633,E,5,08,1.93,26.652,M,39.399,M,4.6,0000*50
$GNGGA,113056.70,3604.9632962,N,14004.6228788,E,5,08,1.93,26.649,M,39.399,M,4.7,0000*53
$GNGGA,113056.80,3604.9633546,N,14004.6228883,E,5,08,1.93,26.635,M,39.399,M,4.8,0000*57
$GNGGA,113056.90,3604.9634126,N,14004.6229001,E,5,08,1.93,26.638,M,39.399,M,4.9,0000*5C
$GNGGA,113057.00,3604.9634711,N,14004.6229121,E,5,08,1.93,26.637,M,39.399,M,5.0,0000*52
$GNGGA,113057.20,3604.9635789,N,14004.6229285,E,5,08,1.93,26.639,M,39.399,M,5.2,0000*51
$GNGGA,113057.30,3604.9636377,N,14004.6229387,E,5,08,1.93,26.627,M,39.399,M,5.3,0000*5B
$GNGGA,113057.40,3604.9636947,N,14004.6229478,E,5,08,1.93,26.620,M,39.399,M,5.4,0000*52
$GNGGA,113057.50,3604.9637654,N,14004.6229509,E,5,08,1.93,26.618,M,39.399,M,5.5,0000*52
$GNGGA,113057.60,3604.9638282,N,14004.6229639,E,5,08,1.93,26.619,M,39.399,M,5.6,0000*53
$GNGGA,113057.70,3604.9638842,N,14004.6229831,E,5,08,1.93,26.605,M,39.399,M,5.7,0000*5E
$GNGGA,113057.80,3604.9639451,N,14004.6230013,E,5,08,1.93,26.612,M,39.399,M,5.8,0000*57
$GNGGA,113057.90,3604.9640076,N,14004.6230140,E,5,08,1.93,26.598,M,39.399,M,5.9,0000*5E
$GNGGA,113058.00,3604.9640675,N,14004.6230319,E,5,08,1.93,26.596,M,39.399,M,6.0,0000*57
$GNGGA,113058.10,3604.9641278,N,14004.6230452,E,5,08,1.93,26.610,M,39.399,M,6.1,0000*5A
$GNGGA,113058.20,3604.9641859,N,14004.6230522,E,5,08,1.93,26.601,M,39.399,M,1.2,0000*52
$GNGGA,113058.30,3604.9642455,N,14004.6230628,E,5,08,1.93,26.598,M,39.399,M,1.3,0000*5B
$GNGGA,113058.40,3604.9643100,N,14004.6230682,E,5,08,1.93,26.589,M,39.399,M,1.4,0000*5F
$GNGGA,113058.50,3604.9643832,N,14004.6230751,E,5,08,1.93,26.582,M,39.399,M,1.5,0000*53
$GNGGA,113058.60,3604.9644553,N,14004.6230789,E,5,08,1.93,26.576,M,39.399,M,1.6,0000*50
$GNGGA,113058.70,3604.9645154,N,14004.6230868,E,5,08,1.93,26.583,M,39.399,M,1.7,0000*58
$GNGGA,113058.80,3604.9645770,N,14004.6230951,E,5,08,1.93,26.571,M,39.399,M,1.8,0000*5E
$GNGGA,113058.90,3604.9646445,N,14004.6231017,E,5,08,1.93,26.564,M,39.399,M,1.9,0000*56
$GNGGA,113059.00,3604.9647087,N,14004.6231088,E,5,08,1.93,26.559,M,39.399,M,2.0,0000*57
$GNGGA,113059.10,3604.9647706,N,14004.6231119,E,5,08,1.93,26.567,M,39.399,M,2.1,0000*5D
$GNGGA,113059.20,3604.9648273,N,14004.6231123,E,5,08,1.93,26.562,M,39.399,M,2.2,0000*59
$GNGGA,113059.30,3604.9648853,N,14004.6231128,E,5,08,1.93,26.560,M,39.399,M,2.3,0000*58
$GNGGA,113059.40,3604.9649474,N,14004.6231091,E,5,08,1.93,26.561,M,39.399,M,2.4,0000*52
$GNGGA,113059.50,3604.9650106,N,14004.6231108,E,5,08,1.93,26.548,M,39.399,M,2.5,0000*50
$GNGGA,113059.60,3604.9650788,N,14004.6231095,E,5,08,1.93,26.547,M,39.399,M,2.6,0000*5A
$GNGGA,113059.70,3604.9651437,N,14004.6231086,E,5,08,1.93,26.550,M,39.399,M,2.7,0000*58
$GNGGA,113059.80,3604.9652009,N,14004.6231232,E,5,08,1.93,26.560,M,39.399,M,2.8,0000*5C
$GNGGA,113059.90,3604.9652587,N,14004.6231292,E,5,08,1.93,26.555,M,39.399,M,2.9,0000*53
$GNGGA,113100.00,3604.9653204,N,14004.6231290,E,5,08,1.93,26.545,M,39.399,M,3.0,0000*51
$GNGGA,113100.10,3604.9653834,N,14004.6231378,E,5,08,1.93,26.534,M,39.399,M,3.1,0000*59
$GNGGA,113100.20,3604.9654392,N,14004.6231431,E,5,08,1.93,26.553,M,39.399,M,3.2,0000*52
$GNGGA,113100.30,3604.9654940,N,14004.6231431,E,5,08,1.93,26.550,M,39.399,M,3.3,0000*54
$GNGGA,113100.40,3604.9655534,N,14004.6231468,E,5,08,1.93,26.546,M,39.399,M,3.4,0000*51
$GNGGA,113100.50,3604.9656149,N,14004.6231508,E,5,08,1.93,26.543,M,39.399,M,3.5,0000*5E
$GNGGA,113100.60,3604.9656832,N,14004.6231505,E,5,08,1.93,26.520,M,39.399,M,3.6,0000*53
$GNGGA,113100.70,3604.9657495,N,14004.6231542,E,5,08,1.93,26.536,M,39.399,M,3.7,0000*57
$GNGGA,113100.80,3604.9658110,N,14004.6231695,E,5,08,1.93,26.545,M,39.399,M,3.8,0000*5D
$GNGGA,113100.90,3604.9658668,N,14004.6231918,E,5,08,1.93,26.555,M,39.399,M,3.9,0000*5E
$GNGGA,113101.00,3604.9659312,N,14004.6232057,E,5,08,1.93,26.538,M,39.399,M,4.0,0000*5B
$GNGGA,113101.10,3604.9659935,N,14004.6232230,E,5,08,1.93,26.548,M,39.399,M,4.1,0000*50
$GNGGA,113101.20,3604.9660548,N,14004.6232420,E,5,08,1.93,26.553,M,39.399,M,4.2,0000*51
$GNGGA,113101.40,3604.9661565,N,14004.6232648,E,5,08,1.93,26.566,M,39.399,M,4.4,0000*55
$GNGGA,113101.50,3604.9662166,N,14004.6232649,E,5,08,1.93,26.570,M,39.399,M,4.5,0000*57
$GNGGA,113101.60,3604.9662764,N,14004.6232653,E,5,08,1.93,26.568,M,39.399,M,4.6,0000*51
$GNGGA,113101.70,3604.9663382,N,14004.6232598,E,5,08,1.93,26.560,M,39.399,M,4.7,0000*50
$GNGGA,113101.80,3604.9664033,N,14004.6232600,E,5,08,1.93,26.580,M,39.399,M,4.8,0000*52
$GNGGA,113102.00,3604.9665089,N,14004.6232715,E,5,08,1.93,26.594,M,39.399,M,5.0,0000*50
$GNGGA,113102.10,3604.9665711,N,14004.6232700,E,5,08,1.93,26.588,M,39.399,M,5.1,0000*5F
$GNGGA,113102.20,3604.9666310,N,14004.6232672,E,5,08,1.93,26.600,M,39.399,M,5.2,0000*5E
$GNGGA,113102.30,3604.9666909,N,14004.6232655,E,5,08,1.93,26.607,M,39.399,M,5.3,0000*5E
$GNGGA,113102.50,3604.9667888,N,14004.6232501,E,5,08,1.93,26.629,M,39.399,M,5.5,0000*59
$GNGGA,113102.60,3604.9668484,N,14004.6232353,E,5,08,1.93,26.610,M,39.399,M,5.6,0000*5D
$GNGGA,113102.70,3604.9669069,N,14004.6232234,E,5,08,1.93,26.613,M,39.399,M,5.7,0000*58
$GNGGA,113102.80,3604.9669718,N,14004.6232081,E,5,08,1.93,26.609,M,39.399,M,5.8,0000*5E
$GNGGA,113102.90,3604.9670351,N,14004.6232004,E,5,08,1.93,26.624,M,39.399,M,5.9,0000*5D
$GNGGA,113103.00,3604.9670910,N,14004.6231983,E,5,08,1.93,26.631,M,39.399,M,6.0,0000*51
$GNGGA,113103.10,3604.9671469,N,14004.6231913,E,5,08,1.93,26.622,M,39.399,M,6.1,0000*58
$GNGGA,113103.20,3604.9672109,N,14004.6231808,E,5,08,1.93,26.618,M,39.399,M,1.2,0000*5D
$GNGGA,113103.30,3604.9672753,N,14004.6231756,E,5,08,1.93,26.630,M,39.399,M,1.3,0000*5A
$GNGGA,113103.40,3604.9673312,N,14004.6231639,E,5,08,1.93,26.627,M,39.399,M,1.4,0000*54
$GNGGA,113103.60,3604.9674403,N,14004.6231440,E,5,08,1.93,26.642,M,39.399,M,1.6,0000*5B
$GNGGA,113103.70,3604.9675012,N,14004.6231327,E,5,08,1.93,26.631,M,39.399,M,1.7,0000*5C
$GNGGA,113103.80,3604.9675656,N,14004.6231220,E,5,08,1.93,26.624,M,39.399,M,1.8,0000*58
$GNGGA,113103.90,3604.9676350,N,14004.6231085,E,5,08,1.93,26.630,M,39.399,M,1.9,0000*50
$GNGGA,113104.00,3604.9676961,N,14004.6230998,E,5,08,1.93,26.639,M,39.399,M,2.0,0000*51
$GNGGA,113104.10,3604.9677543,N,14004.6230989,E,5,08,1.93,26.636,M,39.399,M,2.1,0000*53
$GNGGA,113104.20,3604.9678161,N,14004.6230869,E,5,08,1.93,26.629,M,39.399,M,2.2,0000*59
$GNGGA,113104.30,3604.9678765,N,14004.6230799,E,5,08,1.93,26.632,M,39.399,M,2.3,0000*51
$GNGGA,113104.40,3604.9679357,N,14004.6230742,E,5,08,1.93,26.642,M,39.399,M,2.4,0000*54
$GNGGA,113104.50,3604.9679917,N,14004.6230726,E,5,08,1.93,26.646,M,39.399,M,2.5,0000*5C
$GNGGA,113104.60,3604.9680456,N,14004.6230657,E,5,08,1.93,26.650,M,39.399,M,2.6,0000*52
$GNGGA,113104.70,3604.9681060,N,14004.6230605,E,5,08,1.93,26.651,M,39.399,M,2.7,0000*54
$GNGGA,113104.80,3604.9681681,N,14004.6230531,E,5,08,1.93,26.633,M,39.399,M,2.8,0000*5D
$GNGGA,113104.90,3604.9682298,N,14004.6230555,E,5,08,1.93,26.638,M,39.399,M,2.9,0000*5B
$GNGGA,113105.00,3604.9682986,N,14004.6230520,E,5,08,1.93,26.637,M,39.399,M,3.0,0000*52
$GNGGA,113105.10,3604.9683587,N,14004.6230576,E,5,08,1.93,26.645,M,39.399,M,3.1,0000*58
$GNGGA,113105.20,3604.9684143,N,14004.6230619,E,5,08,1.93,26.645,M,39.399,M,3.2,0000*59
$GNGGA,113105.30,3604.9684744,N,14004.6230597,E,5,08,1.93,26.644,M,39.399,M,3.3,0000*5C
$GNGGA,113105.40,3604.9685314,N,14004.6230562,E,5,08,1.93,26.625,M,39.399,M,3.4,0000*51
$GNGGA,113105.50,3604.9685921,N,14004.6230564,E,5,08,1.93,26.635,M,39.399,M,3.5,0000*5A
$GNGGA,113105.60,3604.9686466,N,14004.6230464,E,5,08,1.93,26.646,M,39.399,M,3.6,0000*52
$GNGGA,113105.70,3604.9687015,N,14004.6230381,E,5,08,1.93,26.654,M,39.399,M,3.7,0000*5C
$GNGGA,113105.80,3604.9687590,N,14004.6230286,E,5,08,1.93,26.640,M,39.399,M,3.8,0000*57
$GNGGA,113106.00,3604.9688724,N,14004.6230102,E,5,08,1.93,26.632,M,39.399,M,4.0,0000*5B
$GNGGA,113106.10,3604.9689385,N,14004.6229987,E,5,08,1.93,26.631,M,39.399,M,4.1,0000*5B
$GNGGA,113106.20,3604.9689966,N,14004.6229945,E,5,08,1.93,26.642,M,39.399,M,4.2,0000*56
$GNGGA,113106.30,3604.9690519,N,14004.6229936,E,5,08,1.93,26.638,M,39.399,M,4.3,0000*53
$GNGGA,113106.40,3604.9691106,N,14004.6229844,E,5,08,1.93,26.629,M,39.399,M,4.4,0000*5C
$GNGGA,113106.50,3604.9691666,N,14004.6229783,E,5,08,1.93,26.625,M,39.399,M,4.5,0000*55
$GNGGA,113106.60,3604.9692273,N,14004.6229665,E,5,08,1.93,26.635,M,39.399,M,4.6,0000*5E
$GNGGA,113106.80,3604.9693313,N,14004.6229555,E,5,08,1.93,26.638,M,39.399,M,4.8,0000*55
$GNGGA,113106.90,3604.9693934,N,14004.6229492,E,5,08,1.93,26.631,M,39.399,M,4.9,0000*59
$GNGGA,113107.00,3604.9694584,N,14004.6229426,E,5,08,1.93,26.623,M,39.399,M,5.0,0000*55
$GNGGA,113107.10,3604.9695283,N,14004.6229457,E,5,08,1.93,26.607,M,39.399,M,5.1,0000*54
$GNGGA,113107.20,3604.9695907,N,14004.6229444,E,5,08,1.93,26.615,M,39.399,M,5.2,0000*52
$GNGGA,113107.30,3604.9696490,N,14004.6229530,E,5,08,1.93,26.638,M,39.399,M,5.3,0000*5F
$GNGGA,113107.40,3604.9697094,N,14004.6229521,E,5,08,1.93,26.615,M,39.399,M,5.4,0000*51
$GNGGA,113107.50,3604.9697726,N,14004.6229523,E,5,08,1.93,26.604,M,39.399,M,5.5,0000*5D
$GNGGA,113107.60,3604.9698314,N,14004.6229509,E,5,08,1.93,26.597,M,39.399,M,5.6,0000*56
$GNGGA,113107.70,3604.9698977,N,14004.6229473,E,5,08,1.93,26.623,M,39.399,M,5.7,0000*59
$GNGGA,113107.80,3604.9699515,N,14004.6229432,E,5,08,1.93,26.641,M,39.399,M,5.8,0000*51
$GNGGA,113107.90,3604.9700056,N,14004.6229378,E,5,08,1.93,26.640,M,39.399,M,5.9,0000*5A
$GNGGA,113108.00,3604.9700659,N,14004.6229244,E,5,08,1.93,26.621,M,39.399,M,6.0,0000*56
$GNGGA,113108.10,3604.9701275,N,14004.6229132,E,5,08,1.93,26.619,M,39.399,M,6.1,0000*54
$GNGGA,113108.20,3604.9701975,N,14004.6229030,E,5,08,1.93,26.620,M,39.399,M,1.2,0000*51
$GNGGA,113108.30,3604.9702610,N,14004.6229000,E,5,08,1.93,26.649,M,39.399,M,1.3,0000*52
$GNGGA,113108.40,3604.9703167,N,14004.6229074,E,5,08,1.93,26.664,M,39.399,M,1.4,0000*58
$GNGGA,113108.50,3604.9703722,N,14004.6229083,E,5,08,1.93,26.654,M,39.399,M,1.5,0000*54
$GNGGA,113108.60,3604.9704333,N,14004.6229103,E,5,08,1.93,26.654,M,39.399,M,1.6,0000*5E
$GNGGA,113108.70,3604.9704894,N,14004.6229135,E,5,08,1.93,26.663,M,39.399,M,1.7,0000*59
$GNGGA,113108.90,3604.9705770,N,14004.6229164,E,5,08,1.93,26.711,M,39.399,M,1.9,0000*5D
$GNGGA,113109.10,3604.9706717,N,14004.6229021,E,5,08,1.93,26.687,M,39.399,M,2.1,0000*53
$GNGGA,113109.30,3604.9707594,N,14004.6228917,E,5,08,1.93,26.697,M,39.399,M,2.3,0000*57
$GNGGA,113109.50,3604.9708357,N,14004.6228968,E,5,08,1.93,26.730,M,39.399,M,2.5,0000*55
$GNGGA,113109.70,3604.9708967,N,14004.6229137,E,5,08,1.93,26.723,M,39.399,M,2.7,0000*5D
$GNGGA,113109.90,3604.9709626,N,14004.6229335,E,5,08,1.93,26.756,M,39.399,M,2.9,0000*54
$GNGGA,113110.10,3604.9710300,N,14004.6229558,E,5,08,1.93,26.785,M,39.399,M,3.1,0000*57
$GNGGA,113110.40,3604.9710997,N,14004.6229679,E,5,08,1.93,26.789,M,39.399,M,3.4,0000*5F
$GNGGA,113110.70,3604.9711733,N,14004.6229644,E,5,08,1.93,26.826,M,39.399,M,3.7,0000*5A
$GNGGA,113112.20,3604.9712289,N,14004.6229472,E,5,08,1.93,26.876,M,39.399,M,5.2,0000*5B
$GNGGA,113112.70,3604.9712749,N,14004.6229089,E,5,08,1.93,26.857,M,39.399,M,5.7,0000*51
$GNGGA,113113.00,3604.9713369,N,14004.6229142,E,5,08,1.93,26.845,M,39.399,M,6.0,0000*51
$GNGGA,113113.20,3604.9714060,N,14004.6229315,E,5,08,1.93,26.849,M,39.399,M,6.2,0000*50
$GNGGA,113113.40,3604.9714606,N,14004.6229634,E,5,08,1.93,26.884,M,39.399,M,6.4,0000*51
$GNGGA,113113.70,3604.9715256,N,14004.6229830,E,5,08,1.93,26.895,M,39.399,M,6.7,0000*5B
$GNGGA,113113.90,3604.9715804,N,14004.6229833,E,5,08,1.93,26.895,M,39.399,M,6.9,0000*55
$GNGGA,113114.10,3604.9716472,N,14004.6229808,E,5,08,1.93,26.908,M,39.399,M,7.1,0000*50
$GNGGA,113114.30,3604.9717008,N,14004.6229675,E,5,08,1.93,26.920,M,39.399,M,2.3,0000*53
$GNGGA,113114.70,3604.9717745,N,14004.6229697,E,5,08,1.93,26.923,M,39.399,M,2.7,0000*52
$GNGGA,113115.10,3604.9718344,N,14004.6230187,E,5,08,1.93,26.930,M,39.399,M,3.1,0000*54
$GNGGA,113115.40,3604.9718728,N,14004.6230856,E,5,08,1.93,26.950,M,39.399,M,3.4,0000*59
$GNGGA,113116.00,3604.9719322,N,14004.6230990,E,5,08,1.93,26.956,M,39.399,M,4.0,0000*5F
$GNGGA,113118.10,3604.9719805,N,14004.6230612,E,5,08,1.93,26.965,M,39.399,M,6.1,0000*58
$GNGGA,113118.40,3604.9720107,N,14004.6229997,E,5,08,1.93,26.959,M,39.399,M,1.4,0000*5B
$GNGGA,113118.70,3604.9720763,N,14004.6229664,E,5,08,1.93,26.937,M,39.399,M,1.7,0000*54
$GNGGA,113118.90,3604.9721431,N,14004.6229694,E,5,08,1.93,26.920,M,39.399,M,1.9,0000*58
$GNGGA,113119.10,3604.9722338,N,14004.6229720,E,5,08,1.93,26.950,M,39.399,M,2.1,0000*5E
$GNGGA,113119.30,3604.9723033,N,14004.6229701,E,5,08,1.93,26.963,M,39.399,M,2.3,0000*54
$GNGGA,113119.50,3604.9723891,N,14004.6229338,E,5,08,1.93,26.956,M,39.399,M,2.5,0000*5C
$GNGGA,113119.70,3604.9724892,N,14004.6229061,E,5,08,1.93,26.959,M,39.399,M,2.7,0000*58
$GNGGA,113119.80,3604.9725433,N,14004.6229005,E,5,08,1.93,26.977,M,39.399,M,2.8,0000*50
$GNGGA,113120.00,3604.9726289,N,14004.6229015,E,5,08,1.93,26.996,M,39.399,M,3.0,0000*51
$GNGGA,113120.20,3604.9727281,N,14004.6229021,E,5,08,1.93,26.990,M,39.399,M,3.2,0000*59
$GNGGA,113120.40,3604.9728203,N,14004.6228964,E,5,08,1.93,27.037,M,39.399,M,3.4,0000*50
$GNGGA,113120.60,3604.9728847,N,14004.6228714,E,5,08,1.93,27.042,M,39.399,M,3.6,0000*51
$GNGGA,113120.80,3604.9729534,N,14004.6228221,E,5,08,1.93,27.048,M,39.399,M,3.8,0000*50
$GNGGA,113121.00,3604.9730253,N,14004.6227642,E,5,08,1.93,27.058,M,39.399,M,4.0,0000*57
$GNGGA,113121.20,3604.9730879,N,14004.6227070,E,5,08,1.93,27.087,M,39.399,M,4.2,0000*50
$GNGGA,113121.40,3604.9731364,N,14004.6226517,E,5,08,1.93,27.096,M,39.399,M,4.4,0000*53
$GNGGA,113121.60,3604.9732040,N,14004.6225990,E,5,08,1.93,27.108,M,39.399,M,4.6,0000*53
$GNGGA,113121.80,3604.9732903,N,14004.6225617,E,5,08,1.93,27.127,M,39.399,M,4.8,0000*50
$GNGGA,113122.00,3604.9733657,N,14004.6225330,E,5,08,1.93,27.139,M,39.399,M,5.0,0000*52
$GNGGA,113122.20,3604.9734560,N,14004.6225075,E,5,08,1.93,27.130,M,39.399,M,5.2,0000*59
$GNGGA,113122.40,3604.9735483,N,14004.6224809,E,5,08,1.93,27.128,M,39.399,M,5.4,0000*5F
$GNGGA,113122.60,3604.9736450,N,14004.6224577,E,5,08,1.93,27.135,M,39.399,M,5.6,0000*5A
$GNGGA,113122.80,3604.9737257,N,14004.6224445,E,5,08,1.93,27.126,M,39.399,M,5.8,0000*58
$GNGGA,113123.00,3604.9738104,N,14004.6224324,E,5,08,1.93,27.113,M,39.399,M,6.0,0000*56
$GNGGA,113123.20,3604.9738863,N,14004.6224310,E,5,08,1.93,27.142,M,39.399,M,1.2,0000*5A
$GNGGA,113123.40,3604.9739448,N,14004.6224188,E,5,08,1.93,27.143,M,39.399,M,1.4,0000*5C
$GNGGA,113123.60,3604.9740143,N,14004.6223992,E,5,08,1.93,27.140,M,39.399,M,1.6,0000*5B
$GNGGA,113123.80,3604.9740904,N,14004.6223808,E,5,08,1.93,27.139,M,39.399,M,1.8,0000*5C
$GNGGA,113124.00,3604.9741618,N,14004.6223704,E,5,08,1.93,27.148,M,39.399,M,2.0,0000*5E
$GNGGA,113124.20,3604.9742219,N,14004.6223731,E,5,08,1.93,27.145,M,39.399,M,2.2,0000*53
$GNGGA,113124.40,3604.9742957,N,14004.6223961,E,5,08,1.93,27.138,M,39.399,M,2.4,0000*53
$GNGGA,113124.60,3604.9743822,N,14004.6224345,E,5,08,1.93,27.144,M,39.399,M,2.6,0000*51
$GNGGA,113124.80,3604.9744466,N,14004.6224868,E,5,08,1.93,27.163,M,39.399,M,2.8,0000*5B
$GNGGA,113125.00,3604.9745065,N,14004.6225369,E,5,08,1.93,27.183,M,39.399,M,3.0,0000*58
$GNGGA,113125.20,3604.9745741,N,14004.6225817,E,5,08,1.93,27.175,M,39.399,M,3.2,0000*52
$GNGGA,113125.40,3604.9746480,N,14004.6226336,E,5,08,1.93,27.187,M,39.399,M,3.4,0000*59
$GNGGA,113125.60,3604.9747059,N,14004.6227003,E,5,08,1.93,27.194,M,39.399,M,3.6,0000*5E
$GNGGA,113125.80,3604.9747562,N,14004.6227725,E,5,08,1.93,27.188,M,39.399,M,3.8,0000*5D
$GNGGA,113126.00,3604.9747974,N,14004.6228634,E,5,08,1.93,27.174,M,39.399,M,4.0,0000*5F
$GNGGA,113126.20,3604.9748362,N,14004.6229560,E,5,08,1.93,27.197,M,39.399,M,4.2,0000*53
$GNGGA,113126.40,3604.9748760,N,14004.6230242,E,5,08,1.93,27.187,M,39.399,M,4.4,0000*5B
$GNGGA,113126.60,3604.9749309,N,14004.6230906,E,5,08,1.93,27.174,M,39.399,M,4.6,0000*56
$GNGGA,113126.80,3604.9749892,N,14004.6231601,E,5,08,1.93,27.192,M,39.399,M,4.8,0000*5E
$GNGGA,113127.00,3604.9750312,N,14004.6232101,E,5,08,1.93,27.209,M,39.399,M,5.0,0000*50
$GNGGA,113127.30,3604.9750905,N,14004.6232621,E,5,08,1.93,27.197,M,39.399,M,5.3,0000*5D
$GNGGA,113127.60,3604.9751302,N,14004.6233185,E,5,08,1.93,27.227,M,39.399,M,5.6,0000*51
$GNGGA,113128.20,3604.9751775,N,14004.6233632,E,5,08,1.93,27.213,M,39.399,M,1.2,0000*52
$GNGGA,113138.90,3604.9752262,N,14004.6233924,E,5,08,1.93,27.229,M,39.399,M,1.9,0000*52
$GNGGA,113147.40,3604.9752807,N,14004.6233921,E,5,08,1.94,27.203,M,39.399,M,5.4,0000*5D
$GNGGA,113154.10,3604.9753340,N,14004.6234021,E,5,08,1.94,27.400,M,39.399,M,2.1,0000*5A
$GNGGA,113204.30,3604.9753880,N,14004.6234106,E,5,08,1.94,27.752,M,39.399,M,2.3,0000*5B
$GNGGA,113217.80,3604.9754179,N,14004.6233340,E,5,08,1.94,27.763,M,39.399,M,5.8,0000*53
$GNGGA,113218.00,3604.9754125,N,14004.6232525,E,5,08,1.94,27.780,M,39.399,M,6.0,0000*5F
$GNGGA,113218.20,3604.9753753,N,14004.6231704,E,5,08,1.94,27.798,M,39.399,M,1.2,0000*53
$GNGGA,113218.40,3604.9752987,N,14004.6230940,E,5,08,1.94,27.827,M,39.399,M,1.4,0000*51
$GNGGA,113218.60,3604.9752292,N,14004.6230308,E,5,08,1.94,27.833,M,39.399,M,1.6,0000*5D
$GNGGA,113218.80,3604.9751786,N,14004.6229590,E,5,08,1.94,27.841,M,39.399,M,1.8,0000*54
$GNGGA,113219.00,3604.9751482,N,14004.6228788,E,5,08,1.94,27.849,M,39.399,M,2.0,0000*53
$GNGGA,113219.20,3604.9751328,N,14004.6228037,E,5,08,1.94,27.856,M,39.399,M,2.2,0000*59
$GNGGA,113219.40,3604.9751298,N,14004.6227186,E,5,08,1.94,27.855,M,39.399,M,2.4,0000*54
$GNGGA,113219.60,3604.9751331,N,14004.6226155,E,5,08,1.94,27.857,M,39.399,M,2.6,0000*5B
$GNGGA,113219.80,3604.9751269,N,14004.6225110,E,5,08,1.94,27.879,M,39.399,M,2.8,0000*59
$GNGGA,113220.00,3604.9751106,N,14004.6223993,E,5,08,1.94,27.868,M,39.399,M,3.0,0000*5D
$GNGGA,113220.20,3604.9750949,N,14004.6222732,E,5,08,1.94,27.869,M,39.399,M,3.2,0000*5A
$GNGGA,113220.30,3604.9750906,N,14004.6222048,E,5,08,1.94,27.866,M,39.399,M,3.3,0000*54
$GNGGA,113220.50,3604.9750914,N,14004.6220842,E,5,08,1.94,27.885,M,39.399,M,3.5,0000*5A
$GNGGA,113220.60,3604.9750835,N,14004.6220157,E,5,08,1.94,27.876,M,39.399,M,3.6,0000*59
$GNGGA,113220.70,3604.9750818,N,14004.6219414,E,5,08,1.94,27.878,M,39.399,M,3.7,0000*50
$GNGGA,113220.80,3604.9750780,N,14004.6218641,E,5,08,1.94,27.879,M,39.399,M,3.8,0000*5C
$GNGGA,113221.00,3604.9750627,N,14004.6217424,E,5,08,1.94,27.895,M,39.399,M,4.0,0000*5A
$GNGGA,113221.10,3604.9750567,N,14004.6216729,E,5,08,1.94,27.894,M,39.399,M,4.1,0000*53
$GNGGA,113221.20,3604.9750544,N,14004.6215932,E,5,08,1.94,27.883,M,39.399,M,4.2,0000*53
$GNGGA,113221.30,3604.9750535,N,14004.6215151,E,5,08,1.94,27.889,M,39.399,M,4.3,0000*52
$GNGGA,113221.40,3604.9750550,N,14004.6214348,E,5,08,1.94,27.897,M,39.399,M,4.4,0000*55
$GNGGA,113221.50,3604.9750645,N,14004.6213615,E,5,08,1.94,27.899,M,39.399,M,4.5,0000*56
$GNGGA,113221.70,3604.9750777,N,14004.6212213,E,5,08,1.94,27.911,M,39.399,M,4.7,0000*54
$GNGGA,113221.80,3604.9750926,N,14004.6211431,E,5,08,1.94,27.900,M,39.399,M,4.8,0000*5B
$GNGGA,113221.90,3604.9751034,N,14004.6210663,E,5,08,1.94,27.903,M,39.399,M,4.9,0000*57
$GNGGA,113222.00,3604.9751115,N,14004.6209975,E,5,08,1.94,27.915,M,39.399,M,5.0,0000*50
$GNGGA,113222.20,3604.9751164,N,14004.6208624,E,5,08,1.94,27.915,M,39.399,M,5.2,0000*5C
$GNGGA,113222.30,3604.9751216,N,14004.6207823,E,5,08,1.94,27.910,M,39.399,M,5.3,0000*59
$GNGGA,113222.40,3604.9751313,N,14004.6207079,E,5,08,1.94,27.894,M,39.399,M,5.4,0000*57
$GNGGA,113222.50,3604.9751390,N,14004.6206337,E,5,08,1.94,27.897,M,39.399,M,5.5,0000*57
$GNGGA,113222.60,3604.9751506,N,14004.6205628,E,5,08,1.94,27.907,M,39.399,M,5.6,0000*5E
$GNGGA,113222.80,3604.9751784,N,14004.6204241,E,5,08,1.94,27.895,M,39.399,M,5.8,0000*56
$GNGGA,113222.90,3604.9751967,N,14004.6203513,E,5,08,1.94,27.889,M,39.399,M,5.9,0000*5F
$GNGGA,113223.00,3604.9752189,N,14004.6202737,E,5,08,1.94,27.889,M,39.399,M,6.0,0000*53
$GNGGA,113223.10,3604.9752385,N,14004.6202112,E,5,08,1.94,27.906,M,39.399,M,6.1,0000*5A
$GNGGA,113223.30,3604.9752772,N,14004.6200840,E,5,08,1.94,27.905,M,39.399,M,1.3,0000*5E
$GNGGA,113223.40,3604.9753031,N,14004.6200071,E,5,08,1.94,27.892,M,39.399,M,1.4,0000*5A
$GNGGA,113223.50,3604.9753294,N,14004.6199442,E,5,08,1.94,27.889,M,39.399,M,1.5,0000*5A
$GNGGA,113223.60,3604.9753640,N,14004.6198821,E,5,08,1.94,27.891,M,39.399,M,1.6,0000*56
$GNGGA,113223.70,3604.9754089,N,14004.6198293,E,5,08,1.94,27.892,M,39.399,M,1.7,0000*52
$GNGGA,113223.90,3604.9754871,N,14004.6197400,E,5,08,1.94,27.868,M,39.399,M,1.9,0000*5B
$GNGGA,113224.00,3604.9755348,N,14004.6196970,E,5,08,1.94,27.863,M,39.399,M,2.0,0000*5F
$GNGGA,113224.10,3604.9755882,N,14004.6196569,E,5,08,1.94,27.865,M,39.399,M,2.1,0000*50
$GNGGA,113224.30,3604.9756731,N,14004.6196002,E,5,08,1.94,27.878,M,39.399,M,2.3,0000*50
$GNGGA,113224.40,3604.9757254,N,14004.6195632,E,5,08,1.94,27.862,M,39.399,M,2.4,0000*5A
$GNGGA,113224.50,3604.9757771,N,14004.6195315,E,5,08,1.94,27.861,M,39.399,M,2.5,0000*5B
$GNGGA,113224.60,3604.9758331,N,14004.6195032,E,5,08,1.94,27.845,M,39.399,M,2.6,0000*54
$GNGGA,113224.70,3604.9758957,N,14004.6194845,E,5,08,1.94,27.858,M,39.399,M,2.7,0000*5B
$GNGGA,113224.80,3604.9759584,N,14004.6194739,E,5,08,1.94,27.867,M,39.399,M,2.8,0000*50
$GNGGA,113225.00,3604.9760637,N,14004.6194639,E,5,08,1.94,27.855,M,39.399,M,3.0,0000*51
$GNGGA,113225.10,3604.9761280,N,14004.6194546,E,5,08,1.94,27.855,M,39.399,M,3.1,0000*53
$GNGGA,113225.20,3604.9761916,N,14004.6194515,E,5,08,1.94,27.852,M,39.399,M,3.2,0000*56
$GNGGA,113225.30,3604.9762521,N,14004.6194510,E,5,08,1.94,27.873,M,39.399,M,3.3,0000*5B
$GNGGA,113225.50,3604.9763540,N,14004.6194358,E,5,08,1.94,27.889,M,39.399,M,3.5,0000*52
$GNGGA,113225.60,3604.9764214,N,14004.6194297,E,5,08,1.94,27.885,M,39.399,M,3.6,0000*5D
$GNGGA,113225.70,3604.9764814,N,14004.6194225,E,5,08,1.94,27.885,M,39.399,M,3.7,0000*5E
$GNGGA,113225.80,3604.9765445,N,14004.6194263,E,5,08,1.94,27.902,M,39.399,M,3.8,0000*5B
$GNGGA,113225.90,3604.9766015,N,14004.6194321,E,5,08,1.94,27.913,M,39.399,M,3.9,0000*5E
$GNGGA,113226.00,3604.9766562,N,14004.6194433,E,5,08,1.94,27.917,M,39.399,M,4.0,0000*5F
$GNGGA,113226.10,3604.9767130,N,14004.6194441,E,5,08,1.94,27.905,M,39.399,M,4.1,0000*5B
$GNGGA,113226.20,3604.9767755,N,14004.6194480,E,5,08,1.94,27.914,M,39.399,M,4.2,0000*53
$GNGGA,113226.30,3604.9768385,N,14004.6194533,E,5,08,1.94,27.913,M,39.399,M,4.3,0000*5B
$GNGGA,113226.40,3604.9768996,N,14004.6194578,E,5,08,1.94,27.931,M,39.399,M,4.4,0000*5C
$GNGGA,113226.60,3604.9770083,N,14004.6194414,E,5,08,1.94,27.927,M,39.399,M,4.6,0000*54
$GNGGA,113226.70,3604.9770667,N,14004.6194334,E,5,08,1.94,27.929,M,39.399,M,4.7,0000*53
$GNGGA,113226.80,3604.9771265,N,14004.6194254,E,5,08,1.94,27.924,M,39.399,M,4.8,0000*5E
$GNGGA,113226.90,3604.9771960,N,14004.6194181,E,5,08,1.94,27.940,M,39.399,M,4.9,0000*59
$GNGGA,113227.00,3604.9772527,N,14004.6194214,E,5,08,1.94,27.958,M,39.399,M,5.0,0000*53
$GNGGA,113227.20,3604.9773618,N,14004.6194212,E,5,08,1.94,27.953,M,39.399,M,5.2,0000*50
$GNGGA,113227.30,3604.9774194,N,14004.6194191,E,5,08,1.94,27.948,M,39.399,M,5.3,0000*56
$GNGGA,113227.40,3604.9774834,N,14004.6194239,E,5,08,1.94,27.960,M,39.399,M,5.4,0000*5E
$GNGGA,113227.50,3604.9775448,N,14004.6194212,E,5,08,1.94,27.993,M,39.399,M,5.5,0000*5D
$GNGGA,113227.70,3604.9776528,N,14004.6193982,E,5,08,1.94,27.985,M,39.399,M,5.7,0000*5B
$GNGGA,113227.80,3604.9777130,N,14004.6193825,E,5,08,1.94,27.966,M,39.399,M,5.8,0000*56
$GNGGA,113227.90,3604.9777732,N,14004.6193720,E,5,08,1.94,27.978,M,39.399,M,5.9,0000*57
$GNGGA,113228.00,3604.9778419,N,14004.6193580,E,5,08,1.94,27.980,M,39.399,M,6.0,0000*51
$GNGGA,113228.10,3604.9778991,N,14004.6193566,E,5,08,1.94,28.008,M,39.399,M,6.1,0000*52
$GNGGA,113228.30,3604.9780090,N,14004.6193516,E,5,08,1.94,27.997,M,39.399,M,1.3,0000*5D
$GNGGA,113228.40,3604.9780732,N,14004.6193516,E,5,08,1.94,27.999,M,39.399,M,1.4,0000*5C
$GNGGA,113228.50,3604.9781371,N,14004.6193565,E,5,08,1.94,28.010,M,39.399,M,1.5,0000*5D
$GNGGA,113228.60,3604.9781951,N,14004.6193597,E,5,08,1.94,28.040,M,39.399,M,1.6,0000*5D
$GNGGA,113228.80,3604.9783038,N,14004.6193537,E,5,08,1.94,28.041,M,39.399,M,1.8,0000*52
$GNGGA,113228.90,3604.9783662,N,14004.6193492,E,5,08,1.94,28.033,M,39.399,M,1.9,0000*50
$GNGGA,113229.00,3604.9784262,N,14004.6193444,E,5,08,1.94,28.036,M,39.399,M,2.0,0000*5F
$GNGGA,113229.10,3604.9784933,N,14004.6193410,E,5,08,1.94,28.058,M,39.399,M,2.1,0000*59
$GNGGA,113229.20,3604.9785532,N,14004.6193422,E,5,08,1.94,28.088,M,39.399,M,2.2,0000*59
$GNGGA,113229.40,3604.9786564,N,14004.6193474,E,5,08,1.94,28.082,M,39.399,M,2.4,0000*50
$GNGGA,113229.50,3604.9787171,N,14004.6193484,E,5,08,1.94,28.083,M,39.399,M,2.5,0000*5F
$GNGGA,113229.60,3604.9787796,N,14004.6193489,E,5,08,1.94,28.100,M,39.399,M,2.6,0000*57
$GNGGA,113229.70,3604.9788353,N,14004.6193482,E,5,08,1.94,28.123,M,39.399,M,2.7,0000*5F
$GNGGA,113229.90,3604.9789445,N,14004.6193181,E,5,08,1.94,28.120,M,39.399,M,2.9,0000*5B
$GNGGA,113230.00,3604.9790012,N,14004.6193002,E,5,08,1.94,28.119,M,39.399,M,3.0,0000*5C
$GNGGA,113230.10,3604.9790583,N,14004.6192872,E,5,08,1.94,28.118,M,39.399,M,3.1,0000*5E
$GNGGA,113230.20,3604.9791211,N,14004.6192747,E,5,08,1.94,28.135,M,39.399,M,3.2,0000*55
$GNGGA,113230.30,3604.9791800,N,14004.6192633,E,5,08,1.94,28.153,M,39.399,M,3.3,0000*5D
$GNGGA,113230.50,3604.9792826,N,14004.6192375,E,5,08,1.94,28.141,M,39.399,M,3.5,0000*5E
$GNGGA,113230.60,3604.9793442,N,14004.6192281,E,5,08,1.94,28.139,M,39.399,M,3.6,0000*54
$GNGGA,113230.70,3604.9794059,N,14004.6192221,E,5,08,1.94,28.157,M,39.399,M,3.7,0000*5F
$GNGGA,113230.80,3604.9794596,N,14004.6192107,E,5,08,1.94,28.191,M,39.399,M,3.8,0000*54
$GNGGA,113231.00,3604.9795582,N,14004.6191888,E,5,08,1.94,28.223,M,39.399,M,4.0,0000*51
$GNGGA,113231.10,3604.9796177,N,14004.6191739,E,5,08,1.94,28.223,M,39.399,M,4.1,0000*59
$GNGGA,113231.20,3604.9796767,N,14004.6191588,E,5,08,1.94,28.219,M,39.399,M,4.2,0000*5F
$GNGGA,113231.30,3604.9797406,N,14004.6191432,E,5,08,1.94,28.241,M,39.399,M,4.3,0000*57
$GNGGA,113231.40,3604.9797973,N,14004.6191419,E,5,08,1.94,28.275,M,39.399,M,4.4,0000*56
$GNGGA,113231.60,3604.9799004,N,14004.6191247,E,5,08,1.94,28.273,M,39.399,M,4.6,0000*5A
$GNGGA,113231.70,3604.9799601,N,14004.6191130,E,5,08,1.94,28.275,M,39.399,M,4.7,0000*5C
$GNGGA,113231.80,3604.9800203,N,14004.6191037,E,5,08,1.94,28.289,M,39.399,M,4.8,0000*50
$GNGGA,113231.90,3604.9800771,N,14004.6190999,E,5,08,1.94,28.322,M,39.399,M,4.9,0000*5C
$GNGGA,113232.10,3604.9801708,N,14004.6190784,E,5,08,1.94,28.324,M,39.399,M,5.1,0000*55
$GNGGA,113232.20,3604.9802288,N,14004.6190563,E,5,08,1.94,28.330,M,39.399,M,5.2,0000*55
$GNGGA,113232.30,3604.9802896,N,14004.6190395,E,5,08,1.94,28.326,M,39.399,M,5.3,0000*58
$GNGGA,113232.40,3604.9803481,N,14004.6190194,E,5,08,1.94,28.333,M,39.399,M,5.4,0000*54
$GNGGA,113232.50,3604.9804099,N,14004.6190032,E,5,08,1.94,28.362,M,39.399,M,5.5,0000*57
$GNGGA,113232.60,3604.9804666,N,14004.6189928,E,5,08,1.94,28.358,M,39.399,M,5.6,0000*52
$GNGGA,113232.70,3604.9805208,N,14004.6189846,E,5,08,1.94,28.360,M,39.399,M,5.7,0000*5D
$GNGGA,113232.80,3604.9805874,N,14004.6189730,E,5,08,1.94,28.348,M,39.399,M,5.8,0000*58
$GNGGA,113232.90,3604.9806493,N,14004.6189656,E,5,08,1.94,28.349,M,39.399,M,5.9,0000*5E
$GNGGA,113233.00,3604.9807136,N,14004.6189592,E,5,08,1.94,28.380,M,39.399,M,6.0,0000*59
$GNGGA,113233.10,3604.9807674,N,14004.6189431,E,5,08,1.94,28.391,M,39.399,M,6.1,0000*50
$GNGGA,113233.20,3604.9808255,N,14004.6189223,E,5,08,1.94,28.381,M,39.399,M,1.2,0000*5B
$GNGGA,113233.30,3604.9808874,N,14004.6188944,E,5,08,1.94,28.379,M,39.399,M,1.3,0000*5E
$GNGGA,113233.40,3604.9809494,N,14004.6188759,E,5,08,1.94,28.371,M,39.399,M,1.4,0000*57
$GNGGA,113233.50,3604.9810142,N,14004.6188569,E,5,08,1.94,28.388,M,39.399,M,1.5,0000*56
$GNGGA,113233.60,3604.9810845,N,14004.6188382,E,5,08,1.94,28.412,M,39.399,M,1.6,0000*5F
$GNGGA,113233.80,3604.9811956,N,14004.6188103,E,5,08,1.94,28.414,M,39.399,M,1.8,0000*50
$GNGGA,113233.90,3604.9812639,N,14004.6187934,E,5,08,1.94,28.410,M,39.399,M,1.9,0000*52
$GNGGA,113234.00,3604.9813252,N,14004.6187833,E,5,08,1.94,28.423,M,39.399,M,2.0,0000*58
$GNGGA,113234.10,3604.9813819,N,14004.6187701,E,5,08,1.94,28.442,M,39.399,M,2.1,0000*54
$GNGGA,113234.30,3604.9814898,N,14004.6187237,E,5,08,1.94,28.448,M,39.399,M,2.3,0000*50
$GNGGA,113234.40,3604.9815510,N,14004.6186971,E,5,08,1.94,28.435,M,39.399,M,2.4,0000*5E
$GNGGA,113234.50,3604.9816107,N,14004.6186758,E,5,08,1.94,28.439,M,39.399,M,2.5,0000*56
$GNGGA,113234.60,3604.9816762,N,14004.6186541,E,5,08,1.94,28.458,M,39.399,M,2.6,0000*5E
$GNGGA,113234.70,3604.9817354,N,14004.6186347,E,5,08,1.94,28.473,M,39.399,M,2.7,0000*57
$GNGGA,113234.90,3604.9818414,N,14004.6186031,E,5,08,1.94,28.461,M,39.399,M,2.9,0000*5A
$GNGGA,113235.00,3604.9819047,N,14004.6185840,E,5,08,1.94,28.458,M,39.399,M,3.0,0000*5E
$GNGGA,113235.10,3604.9819705,N,14004.6185690,E,5,08,1.94,28.466,M,39.399,M,3.1,0000*51
$GNGGA,113235.20,3604.9820254,N,14004.6185587,E,5,08,1.94,28.496,M,39.399,M,3.2,0000*50
$GNGGA,113235.40,3604.9821335,N,14004.6185212,E,5,08,1.94,28.490,M,39.399,M,3.4,0000*5A
$GNGGA,113235.50,3604.9821953,N,14004.6185033,E,5,08,1.94,28.476,M,39.399,M,3.5,0000*59
$GNGGA,113235.60,3604.9822585,N,14004.6184858,E,5,08,1.94,28.498,M,39.399,M,3.6,0000*59
$GNGGA,113235.70,3604.9823285,N,14004.6184717,E,5,08,1.94,28.513,M,39.399,M,3.7,0000*59
$GNGGA,113235.80,3604.9823908,N,14004.6184714,E,5,08,1.94,28.521,M,39.399,M,3.8,0000*55
$GNGGA,113236.00,3604.9824984,N,14004.6184633,E,5,08,1.94,28.527,M,39.399,M,4.0,0000*50
$GNGGA,113236.10,3604.9825617,N,14004.6184693,E,5,08,1.94,28.521,M,39.399,M,4.1,0000*58
$GNGGA,113236.20,3604.9826201,N,14004.6184759,E,5,08,1.94,28.533,M,39.399,M,4.2,0000*5C
$GNGGA,113236.40,3604.9827169,N,14004.6184742,E,5,08,1.94,28.554,M,39.399,M,4.4,0000*5B
$GNGGA,113236.50,3604.9827716,N,14004.6184707,E,5,08,1.94,28.561,M,39.399,M,4.5,0000*52
$GNGGA,113236.70,3604.9828726,N,14004.6184705,E,5,08,1.94,28.576,M,39.399,M,4.7,0000*5A
$GNGGA,113236.90,3604.9829587,N,14004.6184893,E,5,08,1.94,28.611,M,39.399,M,4.9,0000*50
$GNGGA,113237.10,3604.9830209,N,14004.6185041,E,5,08,1.94,28.616,M,39.399,M,5.1,0000*58
$GNGGA,113237.30,3604.9830827,N,14004.6185294,E,5,08,1.94,28.624,M,39.399,M,5.3,0000*55
$GNGGA,113237.50,3604.9831377,N,14004.6185512,E,5,08,1.94,28.643,M,39.399,M,5.5,0000*52
$GNGGA,113237.80,3604.9832007,N,14004.6185809,E,5,08,1.94,28.655,M,39.399,M,5.8,0000*55
$GNGGA,113238.40,3604.9832449,N,14004.6186252,E,5,08,1.95,28.657,M,39.399,M,6.4,0000*53
$GNGGA,113239.20,3604.9833015,N,14004.6186139,E,5,08,1.95,28.664,M,39.399,M,7.2,0000*51
$GNGGA,113239.40,3604.9833468,N,14004.6185701,E,5,08,1.95,28.652,M,39.399,M,7.4,0000*54
$GNGGA,113239.70,3604.9834264,N,14004.6185376,E,5,08,1.95,28.615,M,39.399,M,7.7,0000*5E
$GNGGA,113239.90,3604.9835018,N,14004.6185440,E,5,08,1.95,28.597,M,39.399,M,7.9,0000*5D
$GNGGA,113240.10,3604.9836050,N,14004.6185713,E,5,08,1.95,28.584,M,39.399,M,8.1,0000*54
$GNGGA,113240.30,3604.9836943,N,14004.6185812,E,5,08,1.95,28.622,M,39.399,M,8.3,0000*5E
$GNGGA,113240.50,3604.9837819,N,14004.6185947,E,5,08,1.95,28.609,M,39.399,M,8.5,0000*59
$GNGGA,113240.60,3604.9838366,N,14004.6185975,E,5,08,1.95,28.595,M,39.399,M,8.6,0000*52
$GNGGA,113240.70,3604.9839010,N,14004.6186084,E,5,08,1.95,28.605,M,39.399,M,8.7,0000*5F
$GNGGA,113240.80,3604.9839593,N,14004.6186254,E,5,08,1.95,28.627,M,39.399,M,8.8,0000*5E
$GNGGA,113241.00,3604.9840646,N,14004.6186502,E,5,08,1.95,28.637,M,39.399,M,9.0,0000*5E
$GNGGA,113241.10,3604.9841219,N,14004.6186669,E,5,08,1.95,28.628,M,39.399,M,9.1,0000*51
$GNGGA,113241.20,3604.9841868,N,14004.6186849,E,5,08,1.95,28.626,M,39.399,M,9.2,0000*5F
$GNGGA,113241.30,3604.9842521,N,14004.6187005,E,5,08,1.95,28.659,M,39.399,M,9.3,0000*55
$GNGGA,113241.40,3604.9843113,N,14004.6187047,E,5,08,1.95,28.680,M,39.399,M,9.4,0000*53
$GNGGA,113241.50,3604.9843649,N,14004.6187138,E,5,08,1.95,28.676,M,39.399,M,9.5,0000*5B
$GNGGA,113241.60,3604.9844273,N,14004.6187148,E,5,08,1.95,28.665,M,39.399,M,9.6,0000*54
$GNGGA,113241.70,3604.9844926,N,14004.6187196,E,5,08,1.95,28.663,M,39.399,M,9.7,0000*5A
$GNGGA,113241.80,3604.9845614,N,14004.6187219,E,5,08,1.95,28.669,M,39.399,M,9.8,0000*5B
$GNGGA,113241.90,3604.9846403,N,14004.6187350,E,5,08,1.95,28.685,M,39.399,M,9.9,0000*52
$GNGGA,113242.00,3604.9846990,N,14004.6187479,E,5,08,1.95,28.705,M,39.399,M,10.0,0000*6B
$GNGGA,113242.10,3604.9847580,N,14004.6187592,E,5,08,1.95,28.706,M,39.399,M,10.1,0000*60
$GNGGA,113242.20,3604.9848263,N,14004.6187683,E,5,08,1.95,28.685,M,39.399,M,10.2,0000*6C
$GNGGA,113242.30,3604.9848988,N,14004.6187794,E,5,08,1.95,28.690,M,39.399,M,10.3,0000*61
$GNGGA,113242.40,3604.9849623,N,14004.6187871,E,5,08,1.95,28.719,M,39.399,M,10.4,0000*6A
$GNGGA,113242.50,3604.9850228,N,14004.6187836,E,5,08,1.95,28.732,M,39.399,M,10.5,0000*67
$GNGGA,113242.60,3604.9850804,N,14004.6187853,E,5,08,1.95,28.738,M,39.399,M,10.6,0000*6A
$GNGGA,113242.70,3604.9851483,N,14004.6187849,E,5,08,1.95,28.714,M,39.399,M,10.7,0000*6D
