$GNGGA,114326.00,3605.0753779,N,14004.7954292,E,5,09,1.56,26.236,M,39.392,M,29.0,0000*65
$GNGGA,114326.10,3605.0753327,N,14004.7953919,E,5,09,1.56,26.227,M,39.392,M,29.1,0000*65
$GNGGA,114326.30,3605.0752595,N,14004.7953374,E,5,09,1.56,26.199,M,39.392,M,29.3,0000*6C
$GNGGA,114326.50,3605.0752037,N,14004.7952541,E,2,09,1.56,26.219,M,39.392,M,29.5,0000*6C
$GNGGA,114326.60,3605.0751652,N,14004.7951929,E,2,09,1.56,26.213,M,39.392,M,29.6,0000*61
$GNGGA,114326.70,3605.0751190,N,14004.7951387,E,5,09,1.56,26.219,M,39.392,M,29.7,0000*6B
$GNGGA,114326.80,3605.0750683,N,14004.7950758,E,5,09,1.56,26.192,M,39.392,M,29.8,0000*68
$GNGGA,114326.90,3605.0750299,N,14004.7950164,E,5,09,1.56,26.217,M,39.392,M,29.9,0000*60
$GNGGA,114327.10,3605.0749236,N,14004.7949411,E,5,09,1.56,26.208,M,39.392,M,30.1,0000*65
$GNGGA,114327.20,3605.0748572,N,14004.7949013,E,5,09,1.56,26.195,M,39.392,M,30.2,0000*62
$GNGGA,114327.30,3605.0747941,N,14004.7948750,E,5,09,1.56,26.189,M,39.392,M,30.3,0000*6D
$GNGGA,114327.40,3605.0747201,N,14004.7948354,E,5,09,1.56,26.193,M,39.392,M,30.4,0000*69
$GNGGA,114327.50,3605.0746623,N,14004.7948140,E,5,09,1.56,26.203,M,39.392,M,30.5,0000*61
$GNGGA,114327.60,3605.0745970,N,14004.7947884,E,5,09,1.56,26.192,M,39.392,M,30.6,0000*6E
$GNGGA,114327.70,3605.0745178,N,14004.7947532,E,5,09,1.56,26.177,M,39.392,M,30.7,0000*65
$GNGGA,114327.80,3605.0744442,N,14004.7947197,E,5,09,1.56,26.177,M,39.392,M,30.8,0000*63
$GNGGA,114327.90,3605.0743801,N,14004.7947011,E,5,09,1.56,26.176,M,39.392,M,30.9,0000*61
$GNGGA,114328.00,3605.0743163,N,14004.7946862,E,5,09,1.56,26.195,M,39.392,M,31.0,0000*62
$GNGGA,114328.10,3605.0742448,N,14004.7946763,E,5,09,1.56,26.204,M,39.392,M,31.1,0000*6A
$GNGGA,114328.20,3605.0741708,N,14004.7946583,E,5,09,1.56,26.171,M,39.392,M,31.2,0000*63
$GNGGA,114328.30,3605.0740951,N,14004.7946535,E,5,09,1.56,26.168,M,39.392,M,31.3,0000*65
$GNGGA,114328.40,3605.0740256,N,14004.7946464,E,5,09,1.56,26.175,M,39.392,M,31.4,0000*60
$GNGGA,114328.50,3605.0739536,N,14004.7946354,E,5,09,1.56,26.200,M,39.392,M,31.5,0000*6A
$GNGGA,114328.60,3605.0738840,N,14004.7946294,E,5,09,1.56,26.184,M,39.392,M,31.6,0000*65
$GNGGA,114328.70,3605.0738116,N,14004.7946143,E,5,09,1.56,26.175,M,39.392,M,31.7,0000*68
$GNGGA,114328.80,3605.0737350,N,14004.7946130,E,5,09,1.56,26.156,M,39.392,M,31.8,0000*62
$GNGGA,114328.90,3605.0736626,N,14004.7946072,E,5,09,1.56,26.164,M,39.392,M,31.9,0000*61
$GNGGA,114329.00,3605.0736003,N,14004.7946114,E,5,09,1.56,26.170,M,39.392,M,32.0,0000*66
$GNGGA,114329.10,3605.0735322,N,14004.7946216,E,5,09,1.56,26.175,M,39.392,M,32.1,0000*61
$GNGGA,114329.20,3605.0734645,N,14004.7946253,E,5,09,1.56,26.166,M,39.392,M,32.2,0000*67
$GNGGA,114329.30,3605.0733959,N,14004.7946487,E,5,09,1.56,26.153,M,39.392,M,32.3,0000*6B
$GNGGA,114329.40,3605.0733267,N,14004.7946721,E,5,09,1.56,26.151,M,39.392,M,32.4,0000*60
$GNGGA,114329.50,3605.0732740,N,14004.7947101,E,5,09,1.56,26.159,M,39.392,M,32.5,0000*6C
$GNGGA,114329.70,3605.0731684,N,14004.7947606,E,5,09,1.56,26.173,M,39.392,M,32.7,0000*6E
$GNGGA,114329.80,3605.0731253,N,14004.7948023,E,5,09,1.56,26.181,M,39.392,M,32.8,0000*63
$GNGGA,114329.90,3605.0730742,N,14004.7948370,E,5,09,1.56,26.158,M,39.392,M,32.9,0000*66
$GNGGA,114330.20,3605.0729902,N,14004.7948856,E,5,09,1.56,26.188,M,39.392,M,33.2,0000*6F
$GNGGA,114330.70,3605.0729417,N,14004.7949199,E,5,09,1.56,26.190,M,39.392,M,33.7,0000*64
$GNGGA,114333.70,3605.0729903,N,14004.7949914,E,4,09,1.56,26.177,M,39.392,M,36.7,0000*6F
$GNGGA,114334.10,3605.0730011,N,14004.7950653,E,4,09,1.56,26.137,M,39.392,M,37.1,0000*6B
$GNGGA,114334.30,3605.0730101,N,14004.7951615,E,4,09,1.56,26.090,M,39.392,M,37.3,0000*64
$GNGGA,114334.50,3605.0730159,N,14004.7952778,E,4,09,1.56,26.088,M,39.392,M,37.5,0000*69
$GNGGA,114334.70,3605.0730138,N,14004.7953926,E,4,09,1.56,26.111,M,39.392,M,37.7,0000*6B
$GNGGA,114334.80,3605.0730172,N,14004.7954709,E,4,09,1.56,26.088,M,39.392,M,37.8,0000*60
$GNGGA,114334.90,3605.0730067,N,14004.7955473,E,4,09,1.56,26.093,M,39.392,M,37.9,0000*60
$GNGGA,114335.00,3605.0729938,N,14004.7956308,E,4,09,1.56,26.093,M,39.392,M,38.0,0000*6D
$GNGGA,114335.10,3605.0729863,N,14004.7957122,E,4,09,1.56,26.102,M,39.392,M,38.1,0000*60
$GNGGA,114335.20,3605.0729739,N,14004.7957949,E,4,09,1.56,26.111,M,39.392,M,38.2,0000*67
$GNGGA,114335.30,3605.0729661,N,14004.7958814,E,4,09,1.56,26.103,M,39.392,M,38.3,0000*6E
$GNGGA,114335.40,3605.0729613,N,14004.7959744,E,4,09,1.56,26.084,M,39.392,M,38.4,0000*6E
$GNGGA,114335.50,3605.0729493,N,14004.7960640,E,4,09,1.56,26.074,M,39.392,M,38.5,0000*64
$GNGGA,114335.60,3605.0729425,N,14004.7961556,E,4,09,1.56,26.088,M,39.392,M,38.6,0000*6F
$GNGGA,114335.70,3605.0729384,N,14004.7962511,E,4,09,1.56,26.084,M,39.392,M,38.7,0000*6F
$GNGGA,114335.80,3605.0729352,N,14004.7963295,E,4,09,1.56,26.102,M,39.392,M,38.8,0000*61
$GNGGA,114335.90,3605.0729247,N,14004.7964215,E,4,09,1.56,26.081,M,39.392,M,38.9,0000*61
$GNGGA,114336.00,3605.0729180,N,14004.7965175,E,4,09,1.56,26.082,M,39.392,M,39.0,0000*6C
$GNGGA,114336.10,3605.0729091,N,14004.7966103,E,4,09,1.56,26.097,M,39.392,M,39.1,0000*6B
$GNGGA,114336.20,3605.0729095,N,14004.7966911,E,4,09,1.56,26.108,M,39.392,M,39.2,0000*63
$GNGGA,114336.30,3605.0729104,N,14004.7967731,E,4,09,1.56,26.107,M,39.392,M,39.3,0000*68
$GNGGA,114336.40,3605.0729071,N,14004.7968581,E,4,09,1.56,26.090,M,39.392,M,39.4,0000*62
$GNGGA,114336.50,3605.0729043,N,14004.7969424,E,4,09,1.56,26.091,M,39.392,M,39.5,0000*6D
$GNGGA,114336.60,3605.0728997,N,14004.7970299,E,4,09,1.56,26.107,M,39.392,M,39.6,0000*6A
$GNGGA,114336.70,3605.0728888,N,14004.7971213,E,4,09,1.56,26.110,M,39.392,M,39.7,0000*60
$GNGGA,114336.80,3605.0728855,N,14004.7971926,E,4,09,1.56,26.128,M,39.392,M,39.8,0000*66
$GNGGA,114336.90,3605.0728787,N,14004.7972767,E,4,09,1.56,26.106,M,39.392,M,39.9,0000*62
$GNGGA,114337.00,3605.0728734,N,14004.7973589,E,4,09,1.56,26.106,M,39.392,M,40.0,0000*66
$GNGGA,114337.10,3605.0728751,N,14004.7974461,E,4,09,1.56,26.120,M,39.392,M,40.1,0000*61
$GNGGA,114337.20,3605.0728847,N,14004.7975245,E,4,09,1.56,26.122,M,39.392,M,40.2,0000*6A
$GNGGA,114337.30,3605.0729018,N,14004.7975924,E,4,09,1.56,26.152,M,39.392,M,40.3,0000*62
$GNGGA,114337.40,3605.0729357,N,14004.7976610,E,4,09,1.56,26.164,M,39.392,M,40.4,0000*64
$GNGGA,114337.50,3605.0729684,N,14004.7977246,E,4,09,1.56,26.129,M,39.392,M,40.5,0000*60
$GNGGA,114337.60,3605.0729953,N,14004.7977830,E,4,09,1.56,26.140,M,39.392,M,40.6,0000*61
$GNGGA,114337.70,3605.0730419,N,14004.7978405,E,4,09,1.56,26.160,M,39.392,M,40.7,0000*6D
$GNGGA,114337.80,3605.0730755,N,14004.7978970,E,4,09,1.56,26.177,M,39.392,M,40.8,0000*6F
$GNGGA,114337.90,3605.0731115,N,14004.7979496,E,4,09,1.56,26.151,M,39.392,M,40.9,0000*6C
$GNGGA,114338.00,3605.0731576,N,14004.7980047,E,4,09,1.56,26.159,M,39.392,M,41.0,0000*65
$GNGGA,114338.20,3605.0732398,N,14004.7981095,E,4,09,1.56,26.178,M,39.392,M,41.2,0000*6D
$GNGGA,114338.30,3605.0732867,N,14004.7981584,E,4,09,1.56,26.180,M,39.392,M,41.3,0000*64
$GNGGA,114338.40,3605.0733313,N,14004.7981994,E,4,09,1.56,26.188,M,39.392,M,41.4,0000*68
$GNGGA,114338.50,3605.0733919,N,14004.7982541,E,4,09,1.56,26.157,M,39.392,M,41.5,0000*6D
$GNGGA,114338.60,3605.0734491,N,14004.7982966,E,4,09,1.56,26.159,M,39.392,M,41.6,0000*60
$GNGGA,114338.70,3605.0735105,N,14004.7983541,E,4,09,1.56,26.180,M,39.392,M,41.7,0000*65
$GNGGA,114338.80,3605.0735462,N,14004.7984157,E,4,09,1.56,26.188,M,39.392,M,41.8,0000*6D
$GNGGA,114338.90,3605.0735988,N,14004.7984664,E,4,09,1.56,26.187,M,39.392,M,41.9,0000*6C
$GNGGA,114339.00,3605.0736516,N,14004.7985222,E,4,09,1.56,26.187,M,39.392,M,42.0,0000*61
$GNGGA,114339.10,3605.0736944,N,14004.7985937,E,4,09,1.56,26.178,M,39.392,M,42.1,0000*65
$GNGGA,114339.20,3605.0737418,N,14004.7986571,E,4,09,1.56,26.193,M,39.392,M,42.2,0000*68
$GNGGA,114339.30,3605.0737885,N,14004.7987049,E,4,09,1.56,26.220,M,39.392,M,42.3,0000*64
$GNGGA,114339.40,3605.0738289,N,14004.7987516,E,4,09,1.56,26.233,M,39.392,M,42.4,0000*60
$GNGGA,114339.50,3605.0738792,N,14004.7988079,E,4,09,1.56,26.211,M,39.392,M,42.5,0000*6C
$GNGGA,114339.60,3605.0739328,N,14004.7988573,E,4,09,1.56,26.206,M,39.392,M,42.6,0000*61
$GNGGA,114339.70,3605.0739870,N,14004.7989120,E,4,09,1.56,26.210,M,39.392,M,42.7,0000*63
$GNGGA,114339.80,3605.0740350,N,14004.7989755,E,4,09,1.56,26.225,M,39.392,M,42.8,0000*66
$GNGGA,114339.90,3605.0740753,N,14004.7990306,E,4,09,1.56,26.235,M,39.392,M,42.9,0000*6A
$GNGGA,114340.00,3605.0741131,N,14004.7990887,E,4,09,1.56,26.249,M,39.392,M,43.0,0000*6F
$GNGGA,114340.10,3605.0741517,N,14004.7991439,E,4,09,1.56,26.223,M,39.392,M,43.1,0000*6B
$GNGGA,114340.20,3605.0741910,N,14004.7992182,E,4,09,1.56,26.245,M,39.392,M,43.2,0000*66
$GNGGA,114340.30,3605.0742209,N,14004.7992985,E,4,09,1.56,26.240,M,39.392,M,43.3,0000*6C
$GNGGA,114340.40,3605.0742473,N,14004.7993568,E,4,09,1.56,26.252,M,39.392,M,43.4,0000*6A
$GNGGA,114340.50,3605.0742913,N,14004.7994137,E,4,09,1.56,26.272,M,39.392,M,43.5,0000*6A
$GNGGA,114340.60,3605.0743317,N,14004.7994845,E,4,09,1.56,26.247,M,39.392,M,43.6,0000*6F
$GNGGA,114340.70,3605.0743654,N,14004.7995468,E,4,09,1.56,26.235,M,39.392,M,43.7,0000*6A
$GNGGA,114340.80,3605.0744024,N,14004.7996116,E,4,09,1.56,26.271,M,39.392,M,43.8,0000*63
$GNGGA,114340.90,3605.0744229,N,14004.7996807,E,4,09,1.56,26.303,M,39.392,M,43.9,0000*61
$GNGGA,114341.00,3605.0744526,N,14004.7997425,E,4,09,1.56,26.295,M,39.392,M,44.0,0000*6C
$GNGGA,114341.10,3605.0744778,N,14004.7998063,E,4,09,1.56,26.294,M,39.392,M,44.1,0000*6D
$GNGGA,114341.20,3605.0744986,N,14004.7998759,E,4,09,1.56,26.271,M,39.392,M,44.2,0000*67
$GNGGA,114341.30,3605.0745353,N,14004.7999414,E,4,09,1.56,26.305,M,39.392,M,44.3,0000*6D
$GNGGA,114341.40,3605.0745669,N,14004.8000204,E,4,09,1.56,26.340,M,39.392,M,44.4,0000*61
$GNGGA,114341.60,3605.0746328,N,14004.8001277,E,4,09,1.56,26.333,M,39.392,M,44.6,0000*63
$GNGGA,114341.70,3605.0746828,N,14004.8001892,E,4,09,1.56,26.318,M,39.392,M,44.7,0000*60
$GNGGA,114341.90,3605.0747561,N,14004.8003119,E,4,09,1.56,26.320,M,39.392,M,44.9,0000*62
$GNGGA,114342.00,3605.0747962,N,14004.8003630,E,4,09,1.56,26.334,M,39.392,M,45.0,0000*66
$GNGGA,114342.20,3605.0748760,N,14004.8004690,E,4,09,1.56,26.327,M,39.392,M,45.2,0000*6A
$GNGGA,114342.30,3605.0749155,N,14004.8005235,E,4,09,1.56,26.321,M,39.392,M,45.3,0000*67
$GNGGA,114342.40,3605.0749551,N,14004.8005890,E,4,09,1.56,26.342,M,39.392,M,45.4,0000*67
$GNGGA,114342.50,3605.0749889,N,14004.8006413,E,4,09,1.56,26.365,M,39.392,M,45.5,0000*6E
$GNGGA,114342.60,3605.0750340,N,14004.8006801,E,4,09,1.56,26.369,M,39.392,M,45.6,0000*6B
$GNGGA,114342.70,3605.0750814,N,14004.8007292,E,4,09,1.56,26.363,M,39.392,M,45.7,0000*6A
$GNGGA,114342.80,3605.0751263,N,14004.8007849,E,4,09,1.56,26.365,M,39.392,M,45.8,0000*6B
$GNGGA,114342.90,3605.0751760,N,14004.8008212,E,4,09,1.56,26.357,M,39.392,M,45.9,0000*67
$GNGGA,114343.10,3605.0752437,N,14004.8008989,E,4,09,1.56,26.379,M,39.392,M,46.1,0000*62
$GNGGA,114343.30,3605.0753295,N,14004.8009589,E,4,09,1.56,26.384,M,39.392,M,46.3,0000*62
$GNGGA,114343.50,3605.0753911,N,14004.8010276,E,4,09,1.56,26.400,M,39.392,M,46.5,0000*61
$GNGGA,114343.70,3605.0754432,N,14004.8010648,E,4,09,1.56,26.417,M,39.392,M,46.7,0000*65
$GNGGA,114344.20,3605.0754907,N,14004.8011163,E,4,09,1.56,26.406,M,39.392,M,2.2,0000*56
$GNGGA,114344.50,3605.0755067,N,14004.8011981,E,4,09,1.56,26.379,M,39.392,M,2.5,0000*53
$GNGGA,114344.70,3605.0755225,N,14004.8012976,E,5,09,1.56,26.368,M,39.392,M,2.7,0000*5D
$GNGGA,114344.90,3605.0755693,N,14004.8014090,E,5,09,1.56,26.384,M,39.392,M,2.9,0000*51
$GNGGA,114345.10,3605.0756143,N,14004.8015014,E,5,09,1.56,26.404,M,39.392,M,3.1,0000*5A
$GNGGA,114345.20,3605.0756531,N,14004.8015569,E,5,09,1.56,26.396,M,39.392,M,3.2,0000*58
$GNGGA,114345.30,3605.0756921,N,14004.8016065,E,5,09,1.56,26.387,M,39.392,M,3.3,0000*5F
$GNGGA,114345.40,3605.0757295,N,14004.8016573,E,5,09,1.56,26.408,M,39.392,M,3.4,0000*58
$GNGGA,114345.50,3605.0757649,N,14004.8017096,E,5,09,1.56,26.429,M,39.392,M,3.5,0000*51
$GNGGA,114345.70,3605.0758328,N,14004.8018126,E,5,09,1.56,26.441,M,39.392,M,3.7,0000*57
$GNGGA,114345.80,3605.0758629,N,14004.8018756,E,5,09,1.56,26.442,M,39.392,M,3.8,0000*51
$GNGGA,114345.90,3605.0759021,N,14004.8019393,E,5,09,1.56,26.454,M,39.392,M,3.9,0000*55
$GNGGA,114346.00,3605.0759335,N,14004.8020005,E,5,09,1.56,26.474,M,39.392,M,4.0,0000*53
$GNGGA,114346.10,3605.0759728,N,14004.8020523,E,5,09,1.56,26.484,M,39.392,M,4.1,0000*55
$GNGGA,114346.20,3605.0760193,N,14004.8021012,E,5,09,1.56,26.482,M,39.392,M,4.2,0000*59
$GNGGA,114346.30,3605.0760720,N,14004.8021628,E,5,09,1.56,26.475,M,39.392,M,4.3,0000*50
$GNGGA,114346.40,3605.0761125,N,14004.8022161,E,5,09,1.56,26.455,M,39.392,M,4.4,0000*59
$GNGGA,114346.50,3605.0761577,N,14004.8022750,E,5,09,1.56,26.476,M,39.392,M,4.5,0000*5F
$GNGGA,114346.60,3605.0761980,N,14004.8023314,E,5,09,1.56,26.484,M,39.392,M,4.6,0000*53
$GNGGA,114346.70,3605.0762663,N,14004.8024065,E,4,09,1.56,26.700,M,39.392,M,4.7,0000*5E
$GNGGA,114346.80,3605.0763056,N,14004.8024620,E,4,09,1.56,26.664,M,39.392,M,4.8,0000*5B
$GNGGA,114346.90,3605.0763485,N,14004.8025390,E,4,09,1.56,26.661,M,39.392,M,4.9,0000*5B
$GNGGA,114347.00,3605.0763923,N,14004.8025988,E,4,09,1.56,26.678,M,39.392,M,5.0,0000*51
$GNGGA,114347.10,3605.0764339,N,14004.8026500,E,4,09,1.56,26.693,M,39.392,M,5.1,0000*5D
$GNGGA,114347.30,3605.0765149,N,14004.8027719,E,4,09,1.56,26.694,M,39.392,M,5.3,0000*55
$GNGGA,114347.40,3605.0765652,N,14004.8028167,E,4,09,1.56,26.712,M,39.392,M,5.4,0000*57
$GNGGA,114347.50,3605.0766131,N,14004.8028791,E,4,09,1.56,26.704,M,39.392,M,5.5,0000*5E
$GNGGA,114347.60,3605.0766506,N,14004.8029444,E,4,09,1.56,26.732,M,39.392,M,5.6,0000*51
$GNGGA,114347.70,3605.0766878,N,14004.8030000,E,4,09,1.56,26.739,M,39.392,M,5.7,0000*52
$GNGGA,114347.80,3605.0767296,N,14004.8030558,E,4,09,1.56,26.745,M,39.392,M,5.8,0000*5A
$GNGGA,114347.90,3605.0767703,N,14004.8031246,E,4,09,1.56,26.739,M,39.392,M,5.9,0000*51
$GNGGA,114348.00,3605.0768117,N,14004.8031975,E,4,09,1.56,26.726,M,39.392,M,6.0,0000*54
$GNGGA,114348.10,3605.0768476,N,14004.8032581,E,4,09,1.56,26.742,M,39.392,M,6.1,0000*50
$GNGGA,114348.20,3605.0768939,N,14004.8033086,E,4,09,1.56,26.746,M,39.392,M,1.2,0000*56
$GNGGA,114348.30,3605.0769392,N,14004.8033708,E,4,09,1.56,26.746,M,39.392,M,1.3,0000*5D
$GNGGA,114348.40,3605.0769829,N,14004.8034316,E,4,09,1.56,26.728,M,39.392,M,1.4,0000*52
$GNGGA,114348.50,3605.0770250,N,14004.8034908,E,4,09,1.56,26.727,M,39.392,M,1.5,0000*54
$GNGGA,114348.60,3605.0770712,N,14004.8035540,E,4,09,1.56,26.739,M,39.392,M,1.6,0000*59
$GNGGA,114348.70,3605.0771125,N,14004.8036210,E,4,09,1.56,26.743,M,39.392,M,1.7,0000*56
$GNGGA,114348.80,3605.0771496,N,14004.8036759,E,4,09,1.56,26.753,M,39.392,M,1.8,0000*52
$GNGGA,114348.90,3605.0771919,N,14004.8037310,E,4,09,1.56,26.749,M,39.392,M,1.9,0000*5B
$GNGGA,114349.00,3605.0772351,N,14004.8038047,E,4,09,1.56,26.752,M,39.392,M,2.0,0000*58
$GNGGA,114349.10,3605.0772731,N,14004.8038762,E,4,09,1.56,26.749,M,39.392,M,2.1,0000*50
$GNGGA,114349.20,3605.0773138,N,14004.8039281,E,4,09,1.56,26.758,M,39.392,M,2.2,0000*57
$GNGGA,114349.30,3605.0773536,N,14004.8039810,E,4,09,1.56,26.772,M,39.392,M,2.3,0000*57
$GNGGA,114349.40,3605.0774002,N,14004.8040479,E,4,09,1.56,26.762,M,39.392,M,2.4,0000*5E
$GNGGA,114349.50,3605.0774487,N,14004.8041099,E,4,09,1.56,26.754,M,39.392,M,2.5,0000*59
$GNGGA,114349.60,3605.0774928,N,14004.8041707,E,4,09,1.56,26.750,M,39.392,M,2.6,0000*55
$GNGGA,114349.70,3605.0775293,N,14004.8042353,E,4,09,1.56,26.764,M,39.392,M,2.7,0000*5E
$GNGGA,114349.80,3605.0775678,N,14004.8042903,E,4,09,1.56,26.776,M,39.392,M,2.8,0000*53
$GNGGA,114349.90,3605.0776081,N,14004.8043450,E,4,09,1.56,26.777,M,39.392,M,2.9,0000*5B
$GNGGA,114350.00,3605.0776436,N,14004.8044111,E,4,09,1.56,26.778,M,39.392,M,3.0,0000*52
$GNGGA,114350.10,3605.0776868,N,14004.8044783,E,4,09,1.56,26.788,M,39.392,M,3.1,0000*57
$GNGGA,114350.20,3605.0777250,N,14004.8045413,E,4,09,1.56,26.790,M,39.392,M,3.2,0000*55
$GNGGA,114350.30,3605.0777614,N,14004.8045933,E,4,09,1.56,26.792,M,39.392,M,3.3,0000*5C
$GNGGA,114350.40,3605.0778004,N,14004.8046415,E,4,09,1.56,26.796,M,39.392,M,3.4,0000*5A
$GNGGA,114350.50,3605.0778454,N,14004.8046987,E,4,09,1.56,26.800,M,39.392,M,3.5,0000*5D
$GNGGA,114350.60,3605.0778879,N,14004.8047435,E,4,09,1.56,26.787,M,39.392,M,3.6,0000*5B
$GNGGA,114350.70,3605.0779277,N,14004.8047983,E,4,09,1.56,26.797,M,39.392,M,3.7,0000*5F
$GNGGA,114350.80,3605.0779681,N,14004.8048437,E,4,09,1.56,26.817,M,39.392,M,3.8,0000*58
$GNGGA,114350.90,3605.0780098,N,14004.8048923,E,4,09,1.56,26.829,M,39.392,M,3.9,0000*55
$GNGGA,114351.00,3605.0780410,N,14004.8049474,E,4,09,1.56,26.830,M,39.392,M,4.0,0000*51
$GNGGA,114351.10,3605.0780839,N,14004.8050070,E,4,09,1.56,26.824,M,39.392,M,4.1,0000*5B
$GNGGA,114351.20,3605.0781217,N,14004.8050710,E,4,09,1.56,26.814,M,39.392,M,4.2,0000*5E
$GNGGA,114351.30,3605.0781547,N,14004.8051420,E,4,09,1.56,26.810,M,39.392,M,4.3,0000*59
$GNGGA,114351.40,3605.0781897,N,14004.8051988,E,4,09,1.56,26.821,M,39.392,M,4.4,0000*54
$GNGGA,114351.50,3605.0782272,N,14004.8052528,E,4,09,1.56,26.823,M,39.392,M,4.5,0000*51
$GNGGA,114351.60,3605.0782747,N,14004.8053122,E,4,09,1.56,26.806,M,39.392,M,4.6,0000*5A
$GNGGA,114351.70,3605.0783157,N,14004.8053687,E,4,09,1.56,26.798,M,39.392,M,4.7,0000*5C
$GNGGA,114351.80,3605.0783588,N,14004.8054356,E,4,09,1.56,26.805,M,39.392,M,4.8,0000*5F
$GNGGA,114351.90,3605.0784013,N,14004.8055028,E,4,09,1.56,26.821,M,39.392,M,4.9,0000*52
$GNGGA,114352.00,3605.0784367,N,14004.8055557,E,4,09,1.56,26.830,M,39.392,M,5.0,0000*5D
$GNGGA,114352.10,3605.0784677,N,14004.8056183,E,4,09,1.56,26.849,M,39.392,M,5.1,0000*59
$GNGGA,114352.20,3605.0785137,N,14004.8056860,E,4,09,1.56,26.849,M,39.392,M,5.2,0000*5F
$GNGGA,114352.30,3605.0785429,N,14004.8057495,E,4,09,1.56,26.851,M,39.392,M,5.3,0000*5B
$GNGGA,114352.40,3605.0785830,N,14004.8058226,E,4,09,1.56,26.869,M,39.392,M,5.4,0000*55
$GNGGA,114352.60,3605.0786509,N,14004.8059195,E,4,09,1.56,26.873,M,39.392,M,5.6,0000*50
$GNGGA,114352.70,3605.0786930,N,14004.8059797,E,4,09,1.56,26.895,M,39.392,M,5.7,0000*5A
$GNGGA,114352.80,3605.0787339,N,14004.8060348,E,4,09,1.56,26.886,M,39.392,M,5.8,0000*56
$GNGGA,114352.90,3605.0787723,N,14004.8060958,E,4,09,1.56,26.844,M,39.392,M,5.9,0000*5C
$GNGGA,114353.10,3605.0788460,N,14004.8061898,E,4,09,1.56,26.832,M,39.392,M,6.1,0000*58
$GNGGA,114353.30,3605.0789144,N,14004.8062985,E,4,09,1.56,26.801,M,39.392,M,1.3,0000*53
$GNGGA,114353.40,3605.0789479,N,14004.8063589,E,4,09,1.56,26.793,M,39.392,M,1.4,0000*5D
$GNGGA,114353.50,3605.0789810,N,14004.8064164,E,4,09,1.56,26.783,M,39.392,M,1.5,0000*5F
$GNGGA,114353.70,3605.0790290,N,14004.8065015,E,4,09,1.56,26.828,M,39.392,M,1.7,0000*5D
$GNGGA,114353.90,3605.0790847,N,14004.8065919,E,4,09,1.56,26.828,M,39.392,M,1.9,0000*58
$GNGGA,114354.10,3605.0791474,N,14004.8067041,E,4,09,1.56,26.870,M,39.392,M,2.1,0000*5A
$GNGGA,114354.30,3605.0791943,N,14004.8067880,E,4,09,1.56,26.924,M,39.392,M,2.3,0000*56
$GNGGA,114354.50,3605.0792216,N,14004.8068646,E,4,09,1.56,26.928,M,39.392,M,2.5,0000*59
$GNGGA,114354.70,3605.0792511,N,14004.8069548,E,4,09,1.56,26.951,M,39.392,M,2.7,0000*5B
$GNGGA,114354.90,3605.0792796,N,14004.8070659,E,4,09,1.56,26.954,M,39.392,M,2.9,0000*58
$GNGGA,114355.10,3605.0793279,N,14004.8071228,E,4,09,1.56,26.980,M,39.392,M,3.1,0000*57
$GNGGA,114355.30,3605.0793899,N,14004.8071719,E,4,09,1.56,26.964,M,39.392,M,3.3,0000*5E
$GNGGA,114355.50,3605.0794790,N,14004.8072180,E,4,09,1.56,26.928,M,39.392,M,3.5,0000*52
$GNGGA,114355.60,3605.0795306,N,14004.8072398,E,4,09,1.56,26.928,M,39.392,M,3.6,0000*53
$GNGGA,114355.70,3605.0795839,N,14004.8072601,E,4,09,1.56,26.914,M,39.392,M,3.7,0000*5E
$GNGGA,114355.90,3605.0796755,N,14004.8072978,E,4,09,1.56,26.919,M,39.392,M,3.9,0000*54
$GNGGA,114356.10,3605.0797770,N,14004.8073350,E,4,09,1.56,26.906,M,39.392,M,4.1,0000*59
$GNGGA,114356.20,3605.0798305,N,14004.8073564,E,4,09,1.56,26.903,M,39.392,M,4.2,0000*54
$GNGGA,114356.30,3605.0798850,N,14004.8073714,E,4,09,1.56,26.902,M,39.392,M,4.3,0000*5B
$GNGGA,114356.50,3605.0799887,N,14004.8073731,E,4,09,1.56,26.910,M,39.392,M,4.5,0000*54
$GNGGA,114356.60,3605.0800480,N,14004.8073764,E,4,09,1.56,26.898,M,39.392,M,4.6,0000*51
$GNGGA,114356.70,3605.0801063,N,14004.8073735,E,4,09,1.56,26.891,M,39.392,M,4.7,0000*54
$GNGGA,114356.80,3605.0801635,N,14004.8073716,E,4,09,1.56,26.896,M,39.392,M,4.8,0000*57
$GNGGA,114357.00,3605.0802610,N,14004.8073821,E,4,09,1.56,26.903,M,39.392,M,5.0,0000*55
$GNGGA,114357.20,3605.0803679,N,14004.8073880,E,4,09,1.56,26.890,M,39.392,M,5.2,0000*5B
$GNGGA,114357.30,3605.0804245,N,14004.8074034,E,4,09,1.56,26.879,M,39.392,M,5.3,0000*50
$GNGGA,114357.40,3605.0804791,N,14004.8074072,E,4,09,1.56,26.885,M,39.392,M,5.4,0000*5D
$GNGGA,114357.60,3605.0805864,N,14004.8074153,E,4,09,1.56,26.881,M,39.392,M,5.6,0000*5F
$GNGGA,114357.70,3605.0806440,N,14004.8074149,E,4,09,1.56,26.883,M,39.392,M,5.7,0000*5F
$GNGGA,114357.80,3605.0807026,N,14004.8074122,E,4,09,1.56,26.867,M,39.392,M,5.8,0000*5D
$GNGGA,114357.90,3605.0807607,N,14004.8074143,E,4,09,1.56,26.848,M,39.392,M,5.9,0000*52
$GNGGA,114358.00,3605.0808153,N,14004.8074234,E,4,09,1.56,26.862,M,39.392,M,6.0,0000*5C
$GNGGA,114358.20,3605.0809002,N,14004.8074398,E,4,09,1.56,26.861,M,39.392,M,1.2,0000*5B
$GNGGA,114358.40,3605.0809915,N,14004.8074723,E,4,09,1.56,26.856,M,39.392,M,1.4,0000*54
$GNGGA,114358.60,3605.0810648,N,14004.8075221,E,4,09,1.56,26.842,M,39.392,M,1.6,0000*58
$GNGGA,114358.80,3605.0811152,N,14004.8075530,E,4,09,1.56,26.865,M,39.392,M,1.8,0000*57
$GNGGA,114359.10,3605.0811616,N,14004.8076068,E,4,09,1.56,26.850,M,39.392,M,2.1,0000*5F
$GNGGA,114359.60,3605.0810900,N,14004.8076147,E,4,09,1.56,26.821,M,39.392,M,2.6,0000*5C
$GNGGA,114359.90,3605.0810132,N,14004.8075873,E,4,09,1.56,26.812,M,39.392,M,2.9,0000*58
$GNGGA,114400.20,3605.0809421,N,14004.8075720,E,4,09,1.56,26.793,M,39.392,M,3.2,0000*52
$GNGGA,114400.50,3605.0808815,N,14004.8075628,E,4,09,1.56,26.784,M,39.392,M,3.5,0000*57
$GNGGA,114401.30,3605.0808424,N,14004.8076118,E,4,09,1.56,26.769,M,39.392,M,4.3,0000*5B
$GNGGA,114401.70,3605.0808260,N,14004.8077015,E,4,09,1.56,26.762,M,39.392,M,4.7,0000*5B
$GNGGA,114401.90,3605.0808227,N,14004.8077879,E,4,09,1.56,26.760,M,39.392,M,4.9,0000*58
$GNGGA,114402.10,3605.0808199,N,14004.8078734,E,4,09,1.56,26.761,M,39.392,M,5.1,0000*54
$GNGGA,114402.40,3605.0808186,N,14004.8079453,E,4,09,1.56,26.772,M,39.392,M,5.4,0000*5B
$GNGGA,114402.70,3605.0808137,N,14004.8080301,E,4,09,1.56,26.783,M,39.392,M,5.7,0000*59
$GNGGA,114402.90,3605.0808033,N,14004.8081084,E,4,09,1.56,26.782,M,39.392,M,5.9,0000*52
$GNGGA,114404.10,3605.0807443,N,14004.8080988,E,4,09,1.56,26.794,M,39.392,M,2.1,0000*5C
$GNGGA,114404.30,3605.0806962,N,14004.8080330,E,4,09,1.56,26.786,M,39.392,M,2.3,0000*59
$GNGGA,114404.50,3605.0806427,N,14004.8079333,E,4,09,1.56,26.807,M,39.392,M,2.5,0000*56
$GNGGA,114404.70,3605.0805856,N,14004.8078550,E,4,09,1.56,26.803,M,39.392,M,2.7,0000*59
$GNGGA,114404.90,3605.0805168,N,14004.8077821,E,4,09,1.56,26.804,M,39.392,M,2.9,0000*5E
$GNGGA,114405.10,3605.0804290,N,14004.8077125,E,4,09,1.56,26.811,M,39.392,M,3.1,0000*52
$GNGGA,114405.30,3605.0803547,N,14004.8076523,E,4,09,1.56,26.819,M,39.392,M,3.3,0000*53
$GNGGA,114405.50,3605.0802820,N,14004.8076039,E,4,09,1.56,26.815,M,39.392,M,3.5,0000*5C
$GNGGA,114405.70,3605.0802210,N,14004.8075709,E,4,09,1.56,26.816,M,39.392,M,3.7,0000*51
$GNGGA,114406.00,3605.0801363,N,14004.8075640,E,4,09,1.56,26.811,M,39.392,M,4.0,0000*58
$GNGGA,114406.20,3605.0800663,N,14004.8075837,E,4,09,1.56,26.814,M,39.392,M,4.2,0000*57
$GNGGA,114406.40,3605.0799879,N,14004.8076279,E,4,09,1.56,26.808,M,39.392,M,4.4,0000*53
$GNGGA,114406.60,3605.0799235,N,14004.8076941,E,4,09,1.56,26.813,M,39.392,M,4.6,0000*5B
$GNGGA,114406.80,3605.0798599,N,14004.8077886,E,4,09,1.56,26.819,M,39.392,M,4.8,0000*5A
$GNGGA,114407.00,3605.0798134,N,14004.8078929,E,4,09,1.56,26.826,M,39.392,M,5.0,0000*5E
$GNGGA,114407.20,3605.0797712,N,14004.8079637,E,4,09,1.56,26.851,M,39.392,M,5.2,0000*52
$GNGGA,114407.40,3605.0797420,N,14004.8080489,E,4,09,1.56,26.838,M,39.392,M,5.4,0000*5E
$GNGGA,114407.60,3605.0797194,N,14004.8081544,E,4,09,1.56,26.818,M,39.392,M,5.6,0000*57
$GNGGA,114407.70,3605.0797081,N,14004.8082221,E,4,09,1.56,26.823,M,39.392,M,5.7,0000*5D
$GNGGA,114407.90,3605.0796952,N,14004.8083269,E,4,09,1.56,26.836,M,39.392,M,5.9,0000*52
$GNGGA,114408.10,3605.0796721,N,14004.8084546,E,4,09,1.56,26.829,M,39.392,M,6.1,0000*57
$GNGGA,114408.30,3605.0796608,N,14004.8085923,E,4,09,1.56,26.846,M,39.392,M,1.3,0000*5D
$GNGGA,114408.50,3605.0796492,N,14004.8087090,E,4,09,1.56,26.868,M,39.392,M,1.5,0000*53
$GNGGA,114408.70,3605.0796396,N,14004.8088415,E,4,09,1.56,26.858,M,39.392,M,1.7,0000*55
$GNGGA,114408.80,3605.0796348,N,14004.8089128,E,4,09,1.56,26.853,M,39.392,M,1.8,0000*57
$GNGGA,114408.90,3605.0796222,N,14004.8089820,E,4,09,1.56,26.845,M,39.392,M,1.9,0000*5C
$GNGGA,114409.10,3605.0796132,N,14004.8091106,E,4,09,1.56,26.855,M,39.392,M,2.1,0000*59
$GNGGA,114409.20,3605.0796066,N,14004.8091808,E,4,09,1.56,26.857,M,39.392,M,2.2,0000*5C
$GNGGA,114409.30,3605.0795958,N,14004.8092508,E,4,09,1.56,26.847,M,39.392,M,2.3,0000*54
$GNGGA,114409.40,3605.0795853,N,14004.8093269,E,4,09,1.56,26.863,M,39.392,M,2.4,0000*59
$GNGGA,114409.50,3605.0795895,N,14004.8093970,E,4,09,1.56,26.885,M,39.392,M,2.5,0000*58
$GNGGA,114409.70,3605.0795793,N,14004.8095270,E,4,09,1.56,26.888,M,39.392,M,2.7,0000*51
$GNGGA,114409.80,3605.0795840,N,14004.8096060,E,4,09,1.56,26.885,M,39.392,M,2.8,0000*5D
$GNGGA,114409.90,3605.0795833,N,14004.8096882,E,4,09,1.56,26.893,M,39.392,M,2.9,0000*5A
$GNGGA,114410.00,3605.0795695,N,14004.8097563,E,4,09,1.56,26.903,M,39.392,M,3.0,0000*5A
$GNGGA,114410.10,3605.0795653,N,14004.8098300,E,4,09,1.56,26.920,M,39.392,M,3.1,0000*5D
$GNGGA,114410.20,3605.0795590,N,14004.8099028,E,4,09,1.56,26.913,M,39.392,M,3.2,0000*59
$GNGGA,114410.30,3605.0795441,N,14004.8099812,E,4,09,1.56,26.901,M,39.391,M,3.3,0000*55
$GNGGA,114410.40,3605.0795350,N,14004.8100580,E,4,09,1.56,26.907,M,39.391,M,3.4,0000*53
$GNGGA,114410.50,3605.0795269,N,14004.8101319,E,4,09,1.56,26.924,M,39.391,M,3.5,0000*5E
$GNGGA,114410.70,3605.0795336,N,14004.8102722,E,4,09,1.56,26.962,M,39.391,M,3.7,0000*58
$GNGGA,114410.80,3605.0795345,N,14004.8103500,E,4,09,1.56,26.967,M,39.391,M,3.8,0000*5A
$GNGGA,114410.90,3605.0795337,N,14004.8104273,E,4,09,1.56,26.972,M,39.391,M,3.9,0000*5F
$GNGGA,114411.00,3605.0795251,N,14004.8105088,E,4,09,1.56,26.984,M,39.391,M,4.0,0000*56
$GNGGA,114411.20,3605.0795171,N,14004.8106445,E,4,09,1.56,26.991,M,39.391,M,4.2,0000*55
$GNGGA,114411.30,3605.0795099,N,14004.8107267,E,4,09,1.56,26.990,M,39.391,M,4.3,0000*54
$GNGGA,114411.40,3605.0794903,N,14004.8107998,E,4,09,1.56,26.991,M,39.391,M,4.4,0000*55
$GNGGA,114411.50,3605.0794808,N,14004.8108766,E,4,09,1.56,26.990,M,39.391,M,4.5,0000*5E
$GNGGA,114411.60,3605.0794798,N,14004.8109492,E,4,09,1.56,26.996,M,39.391,M,4.6,0000*57
$GNGGA,114411.70,3605.0794720,N,14004.8110189,E,4,09,1.56,26.994,M,39.391,M,4.7,0000*51
$GNGGA,114411.80,3605.0794632,N,14004.8110957,E,4,09,1.56,26.966,M,39.391,M,4.8,0000*55
$GNGGA,114411.90,3605.0794557,N,14004.8111742,E,4,09,1.56,26.947,M,39.391,M,4.9,0000*5D
$GNGGA,114412.00,3605.0794522,N,14004.8112547,E,4,09,1.56,26.960,M,39.391,M,5.0,0000*5C
$GNGGA,114412.10,3605.0794369,N,14004.8113415,E,4,09,1.56,26.955,M,39.391,M,5.1,0000*54
$GNGGA,114412.30,3605.0794177,N,14004.8114866,E,4,09,1.56,26.934,M,39.391,M,5.3,0000*51
$GNGGA,114412.40,3605.0794111,N,14004.8115709,E,4,09,1.56,26.932,M,39.391,M,5.4,0000*50
$GNGGA,114412.50,3605.0794018,N,14004.8116491,E,4,09,1.56,26.930,M,39.391,M,5.5,0000*5B
$GNGGA,114412.60,3605.0793970,N,14004.8117229,E,4,09,1.56,26.940,M,39.391,M,5.6,0000*58
$GNGGA,114412.70,3605.0794004,N,14004.8117960,E,4,09,1.56,26.950,M,39.391,M,5.7,0000*52
$GNGGA,114412.80,3605.0793974,N,14004.8118784,E,4,09,1.56,26.950,M,39.391,M,5.8,0000*50
$GNGGA,114412.90,3605.0793910,N,14004.8119600,E,4,09,1.56,26.924,M,39.391,M,5.9,0000*5D
$GNGGA,114413.00,3605.0793977,N,14004.8120517,E,4,09,1.56,26.940,M,39.391,M,6.0,0000*53
$GNGGA,114413.10,3605.0793915,N,14004.8121346,E,4,09,1.56,26.955,M,39.391,M,6.1,0000*50
$GNGGA,114413.20,3605.0793823,N,14004.8122075,E,4,09,1.56,26.955,M,39.391,M,6.2,0000*54
$GNGGA,114413.30,3605.0793727,N,14004.8122846,E,4,09,1.56,26.954,M,39.391,M,6.3,0000*56
$GNGGA,114413.40,3605.0793678,N,14004.8123732,E,4,09,1.56,26.945,M,39.391,M,6.4,0000*50
$GNGGA,114413.50,3605.0793548,N,14004.8124510,E,4,09,1.56,26.952,M,39.391,M,6.5,0000*53
$GNGGA,114413.60,3605.0793502,N,14004.8125240,E,4,09,1.56,26.958,M,39.391,M,6.6,0000*54
$GNGGA,114413.70,3605.0793505,N,14004.8125968,E,4,09,1.56,26.960,M,39.391,M,6.7,0000*59
$GNGGA,114413.80,3605.0793437,N,14004.8126770,E,4,09,1.56,26.946,M,39.391,M,6.8,0000*59
$GNGGA,114413.90,3605.0793423,N,14004.8127562,E,4,09,1.56,26.919,M,39.391,M,6.9,0000*56
$GNGGA,114414.00,3605.0793414,N,14004.8128437,E,4,09,1.56,26.907,M,39.391,M,7.0,0000*55
$GNGGA,114414.10,3605.0793300,N,14004.8129242,E,4,09,1.56,26.915,M,39.391,M,7.1,0000*51
$GNGGA,114414.20,3605.0793257,N,14004.8129959,E,4,09,1.56,26.920,M,39.391,M,2.2,0000*50
$GNGGA,114414.30,3605.0793187,N,14004.8130693,E,4,09,1.56,26.918,M,39.391,M,2.3,0000*54
$GNGGA,114414.40,3605.0793088,N,14004.8131521,E,4,09,1.56,26.910,M,39.391,M,2.4,0000*59
$GNGGA,114414.50,3605.0792953,N,14004.8132291,E,4,09,1.56,26.909,M,39.391,M,2.5,0000*50
$GNGGA,114414.60,3605.0792865,N,14004.8133111,E,4,09,1.56,26.930,M,39.391,M,2.6,0000*54
$GNGGA,114414.70,3605.0792869,N,14004.8133802,E,4,09,1.56,26.931,M,39.391,M,2.7,0000*52
$GNGGA,114414.80,3605.0792823,N,14004.8134602,E,4,09,1.56,26.931,M,39.391,M,2.8,0000*55
$GNGGA,114414.90,3605.0792771,N,14004.8135432,E,4,09,1.56,26.918,M,39.391,M,2.9,0000*56
$GNGGA,114415.00,3605.0792737,N,14004.8136251,E,4,09,1.56,26.920,M,39.391,M,3.0,0000*5F
$GNGGA,114415.10,3605.0792653,N,14004.8137077,E,4,09,1.56,26.929,M,39.391,M,3.1,0000*52
$GNGGA,114415.20,3605.0792548,N,14004.8137885,E,4,09,1.56,26.934,M,39.391,M,3.2,0000*52
$GNGGA,114415.30,3605.0792470,N,14004.8138637,E,4,09,1.56,26.924,M,39.391,M,3.3,0000*51
$GNGGA,114415.40,3605.0792403,N,14004.8139473,E,4,09,1.56,26.918,M,39.391,M,3.4,0000*59
$GNGGA,114415.50,3605.0792256,N,14004.8140271,E,4,09,1.56,26.900,M,39.391,M,3.5,0000*5C
$GNGGA,114415.60,3605.0792227,N,14004.8141127,E,4,09,1.56,26.904,M,39.391,M,3.6,0000*5F
$GNGGA,114415.70,3605.0792153,N,14004.8141838,E,4,09,1.56,26.910,M,39.391,M,3.7,0000*5D
$GNGGA,114415.80,3605.0792191,N,14004.8142554,E,4,09,1.56,26.917,M,39.391,M,3.8,0000*50
$GNGGA,114415.90,3605.0792135,N,14004.8143431,E,4,09,1.56,26.902,M,39.391,M,3.9,0000*59
$GNGGA,114416.00,3605.0792089,N,14004.8144267,E,4,09,1.56,26.891,M,39.391,M,4.0,0000*52
$GNGGA,114416.10,3605.0792091,N,14004.8145100,E,4,09,1.56,26.906,M,39.391,M,4.1,0000*57
$GNGGA,114416.20,3605.0792056,N,14004.8145886,E,4,09,1.56,26.917,M,39.391,M,4.2,0000*5B
$GNGGA,114416.30,3605.0791981,N,14004.8146625,E,4,09,1.56,26.920,M,39.391,M,4.3,0000*5B
$GNGGA,114416.40,3605.0791916,N,14004.8147438,E,4,09,1.56,26.910,M,39.391,M,4.4,0000*59
$GNGGA,114416.50,3605.0791847,N,14004.8148208,E,4,09,1.56,26.897,M,39.391,M,4.5,0000*58
$GNGGA,114416.60,3605.0791743,N,14004.8149064,E,4,09,1.56,26.908,M,39.391,M,4.6,0000*5D
$GNGGA,114416.70,3605.0791705,N,14004.8149781,E,4,09,1.56,26.918,M,39.391,M,4.7,0000*52
$GNGGA,114416.80,3605.0791717,N,14004.8150473,E,4,09,1.56,26.926,M,39.391,M,4.8,0000*5A
$GNGGA,114416.90,3605.0791657,N,14004.8151268,E,4,09,1.56,26.916,M,39.391,M,4.9,0000*51
$GNGGA,114417.00,3605.0791592,N,14004.8152109,E,4,09,1.56,26.906,M,39.391,M,5.0,0000*5D
$GNGGA,114417.10,3605.0791585,N,14004.8152939,E,4,09,1.56,26.909,M,39.391,M,5.1,0000*5F
$GNGGA,114417.20,3605.0791458,N,14004.8153727,E,4,09,1.56,26.924,M,39.391,M,5.2,0000*51
$GNGGA,114417.30,3605.0791399,N,14004.8154470,E,4,09,1.56,26.934,M,39.391,M,5.3,0000*5C
$GNGGA,114417.40,3605.0791279,N,14004.8155208,E,4,09,1.56,26.919,M,39.391,M,5.4,0000*54
$GNGGA,114417.50,3605.0791229,N,14004.8156052,E,4,09,1.56,26.921,M,39.391,M,5.5,0000*54
$GNGGA,114417.60,3605.0791077,N,14004.8156920,E,4,09,1.56,26.921,M,39.391,M,5.6,0000*51
$GNGGA,114417.70,3605.0791023,N,14004.8157641,E,4,09,1.56,26.934,M,39.391,M,5.7,0000*5D
$GNGGA,114417.90,3605.0790998,N,14004.8159085,E,4,09,1.56,26.936,M,39.391,M,5.9,0000*57
$GNGGA,114418.00,3605.0790999,N,14004.8159879,E,4,09,1.56,26.925,M,39.391,M,6.0,0000*53
$GNGGA,114418.10,3605.0790985,N,14004.8160694,E,4,09,1.56,26.914,M,39.391,M,6.1,0000*5B
$GNGGA,114418.20,3605.0790906,N,14004.8161553,E,4,09,1.56,26.919,M,39.391,M,1.2,0000*53
$GNGGA,114418.30,3605.0790821,N,14004.8162333,E,4,09,1.56,26.939,M,39.391,M,1.3,0000*56
$GNGGA,114418.40,3605.0790747,N,14004.8163010,E,4,09,1.56,26.926,M,39.391,M,1.4,0000*54
$GNGGA,114418.50,3605.0790702,N,14004.8163875,E,4,09,1.56,26.907,M,39.391,M,1.5,0000*5D
$GNGGA,114418.60,3605.0790638,N,14004.8164655,E,4,09,1.56,26.903,M,39.391,M,1.6,0000*5A
$GNGGA,114418.70,3605.0790536,N,14004.8165453,E,4,09,1.56,26.908,M,39.391,M,1.7,0000*59
$GNGGA,114418.80,3605.0790588,N,14004.8166140,E,4,09,1.56,26.922,M,39.391,M,1.8,0000*50
$GNGGA,114418.90,3605.0790603,N,14004.8166838,E,4,09,1.56,26.922,M,39.391,M,1.9,0000*56
$GNGGA,114419.00,3605.0790536,N,14004.8167709,E,4,09,1.56,26.904,M,39.391,M,2.0,0000*59
$GNGGA,114419.10,3605.0790627,N,14004.8168477,E,4,09,1.56,26.882,M,39.391,M,2.1,0000*50
$GNGGA,114419.20,3605.0790647,N,14004.8169354,E,4,09,1.56,26.903,M,39.391,M,2.2,0000*59
$GNGGA,114419.30,3605.0790503,N,14004.8170151,E,4,09,1.56,26.912,M,39.391,M,2.3,0000*55
$GNGGA,114419.40,3605.0790523,N,14004.8170862,E,4,09,1.56,26.914,M,39.391,M,2.4,0000*58
$GNGGA,114419.50,3605.0790426,N,14004.8171627,E,4,09,1.56,26.904,M,39.391,M,2.5,0000*53
$GNGGA,114419.60,3605.0790402,N,14004.8172535,E,4,09,1.56,26.902,M,39.391,M,2.6,0000*50
$GNGGA,114419.70,3605.0790292,N,14004.8173264,E,4,09,1.56,26.908,M,39.391,M,2.7,0000*57
$GNGGA,114419.80,3605.0790303,N,14004.8174011,E,4,09,1.56,26.926,M,39.391,M,2.8,0000*55
$GNGGA,114419.90,3605.0790335,N,14004.8174748,E,4,09,1.56,26.937,M,39.391,M,2.9,0000*5B
$GNGGA,114420.00,3605.0790271,N,14004.8175497,E,4,09,1.56,26.926,M,39.391,M,3.0,0000*51
$GNGGA,114420.10,3605.0790354,N,14004.8176254,E,4,09,1.56,26.908,M,39.391,M,3.1,0000*51
$GNGGA,114420.20,3605.0790405,N,14004.8177185,E,4,09,1.56,26.914,M,39.391,M,3.2,0000*51
$GNGGA,114420.30,3605.0790373,N,14004.8177884,E,4,09,1.56,26.932,M,39.391,M,3.3,0000*5B
$GNGGA,114420.40,3605.0790314,N,14004.8178565,E,4,09,1.56,26.943,M,39.391,M,3.4,0000*51
$GNGGA,114420.50,3605.0790290,N,14004.8179259,E,4,09,1.56,26.949,M,39.391,M,3.5,0000*5F
$GNGGA,114420.60,3605.0790231,N,14004.8180036,E,4,09,1.56,26.948,M,39.391,M,3.6,0000*58
$GNGGA,114420.70,3605.0790118,N,14004.8180779,E,4,09,1.56,26.943,M,39.391,M,3.7,0000*57
$GNGGA,114420.80,3605.0789961,N,14004.8181544,E,4,09,1.56,26.944,M,39.391,M,3.8,0000*53
$GNGGA,114421.00,3605.0789848,N,14004.8182778,E,4,09,1.56,26.963,M,39.391,M,4.0,0000*54
$GNGGA,114421.10,3605.0789788,N,14004.8183457,E,4,09,1.56,26.943,M,39.391,M,4.1,0000*5A
$GNGGA,114421.20,3605.0789802,N,14004.8184242,E,4,09,1.56,26.939,M,39.391,M,4.2,0000*5F
$GNGGA,114421.30,3605.0789786,N,14004.8185057,E,4,09,1.56,26.926,M,39.391,M,4.3,0000*55
$GNGGA,114421.50,3605.0789761,N,14004.8186278,E,4,09,1.56,26.961,M,39.391,M,4.5,0000*53
$GNGGA,114421.70,3605.0789902,N,14004.8187538,E,4,09,1.56,26.956,M,39.391,M,4.7,0000*5E
$GNGGA,114421.90,3605.0790048,N,14004.8188426,E,4,09,1.56,26.984,M,39.391,M,4.9,0000*5F
$GNGGA,114422.20,3605.0790600,N,14004.8189095,E,4,09,1.56,26.996,M,39.391,M,5.2,0000*59
$GNGGA,114422.50,3605.0790997,N,14004.8189668,E,4,09,1.56,26.991,M,39.391,M,5.5,0000*5B
$GNGGA,114423.10,3605.0791334,N,14004.8190341,E,4,09,1.56,26.968,M,39.391,M,6.1,0000*5B
$GNGGA,114423.40,3605.0791932,N,14004.8190548,E,4,09,1.56,26.952,M,39.391,M,1.4,0000*56
$GNGGA,114423.60,3605.0792592,N,14004.8190332,E,4,09,1.56,26.923,M,39.391,M,1.6,0000*5E
$GNGGA,114423.80,3605.0793183,N,14004.8190241,E,4,09,1.56,26.924,M,39.391,M,1.8,0000*59
$GNGGA,114424.00,3605.0793791,N,14004.8190154,E,4,09,1.56,26.912,M,39.391,M,2.0,0000*5A
$GNGGA,114424.20,3605.0794507,N,14004.8190289,E,4,09,1.56,26.908,M,39.391,M,2.2,0000*58
$GNGGA,114424.40,3605.0795122,N,14004.8190279,E,4,09,1.56,26.913,M,39.391,M,2.4,0000*5F
$GNGGA,114424.60,3605.0795813,N,14004.8190274,E,4,09,1.56,26.918,M,39.391,M,2.6,0000*52
$GNGGA,114424.80,3605.0796684,N,14004.8190123,E,4,09,1.56,26.913,M,39.391,M,2.8,0000*5B
$GNGGA,114425.00,3605.0797592,N,14004.8189961,E,4,09,1.56,26.935,M,39.391,M,3.0,0000*5C
$GNGGA,114425.20,3605.0798400,N,14004.8189875,E,4,09,1.56,26.920,M,39.391,M,3.2,0000*59
$GNGGA,114425.40,3605.0799364,N,14004.8190106,E,4,09,1.56,26.920,M,39.391,M,3.4,0000*58
$GNGGA,114425.60,3605.0800243,N,14004.8190524,E,4,09,1.56,26.907,M,39.391,M,3.6,0000*52
$GNGGA,114425.80,3605.0800905,N,14004.8190784,E,4,09,1.56,26.911,M,39.391,M,3.8,0000*54
$GNGGA,114426.00,3605.0801540,N,14004.8191245,E,4,09,1.56,26.900,M,39.391,M,4.0,0000*55
$GNGGA,114426.30,3605.0802059,N,14004.8191796,E,4,09,1.56,26.900,M,39.391,M,4.3,0000*50
$GNGGA,114426.80,3605.0802084,N,14004.8192591,E,4,09,1.56,26.890,M,39.391,M,4.8,0000*5E
$GNGGA,114427.40,3605.0801722,N,14004.8193146,E,4,09,1.56,26.886,M,39.391,M,5.4,0000*5E
$GNGGA,114428.30,3605.0802041,N,14004.8193716,E,4,09,1.56,26.848,M,39.391,M,1.3,0000*55
$GNGGA,114428.70,3605.0802207,N,14004.8194374,E,4,09,1.56,26.863,M,39.391,M,1.7,0000*5B
$GNGGA,114429.40,3605.0802799,N,14004.8194654,E,4,09,1.56,26.859,M,39.391,M,2.4,0000*55
$GNGGA,114429.60,3605.0803369,N,14004.8194767,E,4,09,1.56,26.836,M,39.391,M,2.6,0000*57
$GNGGA,114429.80,3605.0804265,N,14004.8194857,E,4,09,1.56,26.816,M,39.391,M,2.8,0000*53
$GNGGA,114430.00,3605.0805241,N,14004.8195090,E,4,09,1.56,26.800,M,39.391,M,3.0,0000*58
$GNGGA,114430.20,3605.0806261,N,14004.8195416,E,4,09,1.56,26.791,M,39.391,M,3.2,0000*54
$GNGGA,114430.30,3605.0806862,N,14004.8195668,E,4,09,1.56,26.771,M,39.391,M,3.3,0000*58
$GNGGA,114430.40,3605.0807420,N,14004.8195904,E,4,09,1.56,26.777,M,39.391,M,3.4,0000*50
$GNGGA,114430.50,3605.0807933,N,14004.8196110,E,4,09,1.56,26.784,M,39.391,M,3.5,0000*5D
$GNGGA,114430.60,3605.0808548,N,14004.8196289,E,4,09,1.56,26.782,M,39.391,M,3.6,0000*57
$GNGGA,114430.70,3605.0809248,N,14004.8196507,E,4,09,1.56,26.781,M,39.391,M,3.7,0000*53
$GNGGA,114430.80,3605.0809992,N,14004.8196794,E,4,09,1.56,26.777,M,39.391,M,3.8,0000*5E
$GNGGA,114430.90,3605.0810670,N,14004.8197116,E,4,09,1.56,26.783,M,39.391,M,3.9,0000*53
$GNGGA,114431.00,3605.0811161,N,14004.8197621,E,4,09,1.56,26.793,M,39.391,M,4.0,0000*51
$GNGGA,114431.10,3605.0811484,N,14004.8198351,E,4,09,1.56,26.796,M,39.391,M,4.1,0000*57
$GNGGA,114431.20,3605.0811603,N,14004.8199225,E,4,09,1.56,26.789,M,39.391,M,4.2,0000*57
$GNGGA,114431.30,3605.0811814,N,14004.8200181,E,4,09,1.56,26.793,M,39.391,M,4.3,0000*5A
$GNGGA,114431.40,3605.0811887,N,14004.8201037,E,4,09,1.56,26.806,M,39.391,M,4.4,0000*5E
$GNGGA,114431.50,3605.0811953,N,14004.8201864,E,4,09,1.56,26.819,M,39.391,M,4.5,0000*56
$GNGGA,114431.60,3605.0811990,N,14004.8202655,E,4,09,1.56,26.830,M,39.391,M,4.6,0000*5D
$GNGGA,114431.70,3605.0812048,N,14004.8203547,E,4,09,1.56,26.834,M,39.391,M,4.7,0000*57
$GNGGA,114431.80,3605.0812130,N,14004.8204437,E,4,09,1.56,26.825,M,39.391,M,4.8,0000*58
$GNGGA,114431.90,3605.0812190,N,14004.8205410,E,4,09,1.56,26.823,M,39.391,M,4.9,0000*50
$GNGGA,114432.00,3605.0812191,N,14004.8206307,E,4,09,1.56,26.833,M,39.391,M,5.0,0000*50
$GNGGA,114432.10,3605.0812145,N,14004.8207267,E,4,09,1.56,26.840,M,39.391,M,5.1,0000*5B
$GNGGA,114432.20,3605.0812057,N,14004.8208214,E,4,09,1.56,26.841,M,39.391,M,5.2,0000*53
$GNGGA,114432.30,3605.0811961,N,14004.8209203,E,4,09,1.56,26.833,M,39.391,M,5.3,0000*5E
$GNGGA,114432.40,3605.0811862,N,14004.8210196,E,4,09,1.56,26.833,M,39.391,M,5.4,0000*5B
$GNGGA,114432.50,3605.0811774,N,14004.8211112,E,4,09,1.56,26.847,M,39.391,M,5.5,0000*5D
$GNGGA,114432.60,3605.0811750,N,14004.8212021,E,4,09,1.56,26.851,M,39.391,M,5.6,0000*5E
$GNGGA,114432.70,3605.0811741,N,14004.8212915,E,4,09,1.56,26.850,M,39.391,M,5.7,0000*51
$GNGGA,114432.80,3605.0811748,N,14004.8213892,E,4,09,1.56,26.840,M,39.391,M,5.8,0000*56
$GNGGA,114432.90,3605.0811785,N,14004.8214861,E,4,09,1.56,26.834,M,39.391,M,5.9,0000*5F
$GNGGA,114433.00,3605.0811791,N,14004.8215818,E,4,09,1.56,26.834,M,39.391,M,6.0,0000*57
$GNGGA,114433.10,3605.0811713,N,14004.8216774,E,4,09,1.56,26.836,M,39.391,M,6.1,0000*59
$GNGGA,114433.20,3605.0811612,N,14004.8217722,E,4,09,1.56,26.827,M,39.391,M,1.2,0000*5C
$GNGGA,114433.30,3605.0811454,N,14004.8218740,E,4,09,1.56,26.820,M,39.391,M,1.3,0000*50
$GNGGA,114433.40,3605.0811330,N,14004.8219605,E,4,09,1.56,26.825,M,39.391,M,1.4,0000*51
$GNGGA,114433.50,3605.0811254,N,14004.8220515,E,4,09,1.56,26.831,M,39.391,M,1.5,0000*5F
$GNGGA,114433.60,3605.0811155,N,14004.8221363,E,4,09,1.56,26.846,M,39.391,M,1.6,0000*5B
$GNGGA,114433.70,3605.0811118,N,14004.8222238,E,4,09,1.56,26.851,M,39.391,M,1.7,0000*58
$GNGGA,114433.80,3605.0811110,N,14004.8223205,E,4,09,1.56,26.841,M,39.391,M,1.8,0000*5E
$GNGGA,114433.90,3605.0811144,N,14004.8224183,E,4,09,1.56,26.847,M,39.391,M,1.9,0000*53
$GNGGA,114434.00,3605.0811085,N,14004.8225135,E,4,09,1.56,26.862,M,39.391,M,2.0,0000*50
$GNGGA,114434.10,3605.0811048,N,14004.8226076,E,4,09,1.56,26.882,M,39.391,M,2.1,0000*5A
$GNGGA,114434.20,3605.0810946,N,14004.8227014,E,4,09,1.56,26.881,M,39.391,M,2.2,0000*5A
$GNGGA,114434.30,3605.0810846,N,14004.8227982,E,4,09,1.56,26.872,M,39.391,M,2.3,0000*51
$GNGGA,114434.40,3605.0810800,N,14004.8228972,E,4,09,1.56,26.876,M,39.391,M,2.4,0000*57
$GNGGA,114434.50,3605.0810751,N,14004.8229861,E,4,09,1.56,26.896,M,39.391,M,2.5,0000*50
$GNGGA,114434.60,3605.0810721,N,14004.8230771,E,4,09,1.56,26.899,M,39.391,M,2.6,0000*5E
$GNGGA,114434.70,3605.0810681,N,14004.8231737,E,4,09,1.56,26.886,M,39.391,M,2.7,0000*58
$GNGGA,114434.80,3605.0810643,N,14004.8232767,E,4,09,1.56,26.871,M,39.391,M,2.8,0000*58
$GNGGA,114434.90,3605.0810618,N,14004.8233799,E,4,09,1.56,26.869,M,39.391,M,2.9,0000*5F
$GNGGA,114435.00,3605.0810561,N,14004.8234791,E,4,09,1.56,26.882,M,39.391,M,3.0,0000*58
$GNGGA,114435.10,3605.0810474,N,14004.8235716,E,4,09,1.56,26.892,M,39.391,M,3.1,0000*52
$GNGGA,114435.20,3605.0810348,N,14004.8236743,E,4,09,1.56,26.879,M,39.391,M,3.2,0000*5C
$GNGGA,114435.30,3605.0810192,N,14004.8237689,E,4,09,1.56,26.873,M,39.391,M,3.3,0000*55
$GNGGA,114435.40,3605.0810106,N,14004.8238664,E,4,09,1.56,26.884,M,39.391,M,3.4,0000*5C
$GNGGA,114435.50,3605.0810022,N,14004.8239546,E,4,09,1.56,26.897,M,39.391,M,3.5,0000*5B
$GNGGA,114435.60,3605.0809952,N,14004.8240469,E,4,09,1.56,26.897,M,39.391,M,3.6,0000*5F
$GNGGA,114435.70,3605.0809881,N,14004.8241504,E,4,09,1.56,26.876,M,39.391,M,3.7,0000*54
$GNGGA,114435.80,3605.0809827,N,14004.8242491,E,4,09,1.56,26.870,M,39.391,M,3.8,0000*50
$GNGGA,114435.90,3605.0809837,N,14004.8243600,E,4,09,1.56,26.879,M,39.391,M,3.9,0000*53
$GNGGA,114436.00,3605.0809698,N,14004.8244553,E,4,09,1.56,26.890,M,39.391,M,4.0,0000*59
$GNGGA,114436.10,3605.0809629,N,14004.8245507,E,4,09,1.56,26.891,M,39.391,M,4.1,0000*52
$GNGGA,114436.20,3605.0809475,N,14004.8246551,E,4,09,1.56,26.887,M,39.391,M,4.2,0000*5E
$GNGGA,114436.30,3605.0809360,N,14004.8247531,E,4,09,1.56,26.887,M,39.391,M,4.3,0000*5A
$GNGGA,114436.40,3605.0809327,N,14004.8248441,E,4,09,1.56,26.905,M,39.391,M,4.4,0000*5B
$GNGGA,114436.50,3605.0809302,N,14004.8249326,E,4,09,1.56,26.920,M,39.391,M,4.5,0000*5C
$GNGGA,114436.60,3605.0809254,N,14004.8250270,E,4,09,1.56,26.912,M,39.391,M,4.6,0000*55
$GNGGA,114436.70,3605.0809209,N,14004.8251275,E,4,09,1.56,26.902,M,39.391,M,4.7,0000*58
$GNGGA,114436.80,3605.0809190,N,14004.8252280,E,4,09,1.56,26.904,M,39.391,M,4.8,0000*54
$GNGGA,114436.90,3605.0809142,N,14004.8253311,E,4,09,1.56,26.917,M,39.391,M,4.9,0000*51
$GNGGA,114437.00,3605.0809045,N,14004.8254205,E,4,09,1.56,26.926,M,39.391,M,5.0,0000*56
$GNGGA,114437.10,3605.0808901,N,14004.8255192,E,4,09,1.56,26.916,M,39.391,M,5.1,0000*51
$GNGGA,114437.20,3605.0808746,N,14004.8256212,E,4,09,1.56,26.909,M,39.391,M,5.2,0000*5A
$GNGGA,114437.30,3605.0808670,N,14004.8257166,E,4,09,1.56,26.918,M,39.391,M,5.3,0000*5F
$GNGGA,114437.40,3605.0808624,N,14004.8258055,E,4,09,1.56,26.924,M,39.391,M,5.4,0000*5F
$GNGGA,114437.50,3605.0808586,N,14004.8258939,E,4,09,1.56,26.925,M,39.391,M,5.5,0000*56
$GNGGA,114437.60,3605.0808530,N,14004.8259901,E,4,09,1.56,26.919,M,39.391,M,5.6,0000*5E
$GNGGA,114437.70,3605.0808442,N,14004.8260916,E,4,09,1.56,26.907,M,39.391,M,5.7,0000*59
$GNGGA,114437.80,3605.0808409,N,14004.8261973,E,4,09,1.56,26.915,M,39.391,M,5.8,0000*57
$GNGGA,114437.90,3605.0808335,N,14004.8262887,E,4,09,1.56,26.922,M,39.391,M,5.9,0000*52
$GNGGA,114438.00,3605.0808198,N,14004.8263814,E,4,09,1.56,26.936,M,39.391,M,6.0,0000*55
$GNGGA,114438.10,3605.0808048,N,14004.8264780,E,4,09,1.56,26.925,M,39.391,M,6.1,0000*5E
$GNGGA,114438.20,3605.0807871,N,14004.8265760,E,4,09,1.56,26.917,M,39.391,M,1.2,0000*5A
$GNGGA,114438.30,3605.0807797,N,14004.8266725,E,4,09,1.56,26.935,M,39.391,M,1.3,0000*5F
$GNGGA,114438.40,3605.0807769,N,14004.8267550,E,4,09,1.56,26.944,M,39.391,M,1.4,0000*59
$GNGGA,114438.50,3605.0807730,N,14004.8268432,E,4,09,1.56,26.947,M,39.391,M,1.5,0000*5C
$GNGGA,114438.60,3605.0807672,N,14004.8269385,E,4,09,1.56,26.933,M,39.391,M,1.6,0000*52
$GNGGA,114438.70,3605.0807585,N,14004.8270379,E,4,09,1.56,26.928,M,39.391,M,1.7,0000*58
$GNGGA,114438.80,3605.0807584,N,14004.8271385,E,4,09,1.56,26.938,M,39.391,M,1.8,0000*5A
$GNGGA,114438.90,3605.0807431,N,14004.8272238,E,4,09,1.56,26.953,M,39.391,M,1.9,0000*5C
$GNGGA,114439.00,3605.0807271,N,14004.8273188,E,4,09,1.56,26.950,M,39.391,M,2.0,0000*56
$GNGGA,114439.10,3605.0807145,N,14004.8274117,E,4,09,1.56,26.946,M,39.391,M,2.1,0000*54
$GNGGA,114439.20,3605.0807003,N,14004.8275072,E,4,09,1.56,26.946,M,39.391,M,2.2,0000*54
$GNGGA,114439.30,3605.0806956,N,14004.8275973,E,4,09,1.56,26.962,M,39.391,M,2.3,0000*52
$GNGGA,114439.40,3605.0806910,N,14004.8276768,E,4,09,1.56,26.972,M,39.391,M,2.4,0000*56
$GNGGA,114439.50,3605.0806899,N,14004.8277677,E,4,09,1.56,26.965,M,39.391,M,2.5,0000*5E
$GNGGA,114439.60,3605.0806804,N,14004.8278618,E,4,09,1.56,26.953,M,39.391,M,2.6,0000*59
$GNGGA,114439.70,3605.0806779,N,14004.8279590,E,4,09,1.56,26.945,M,39.391,M,2.7,0000*59
$GNGGA,114439.80,3605.0806773,N,14004.8280607,E,4,09,1.56,26.955,M,39.391,M,2.8,0000*59
$GNGGA,114439.90,3605.0806689,N,14004.8281478,E,4,09,1.56,26.956,M,39.391,M,2.9,0000*55
$GNGGA,114440.00,3605.0806635,N,14004.8282459,E,4,09,1.56,26.954,M,39.391,M,3.0,0000*5F
$GNGGA,114440.10,3605.0806540,N,14004.8283399,E,4,09,1.56,26.944,M,39.391,M,3.1,0000*55
$GNGGA,114440.20,3605.0806451,N,14004.8284323,E,4,09,1.56,26.945,M,39.391,M,3.2,0000*53
$GNGGA,114440.30,3605.0806451,N,14004.8285284,E,4,09,1.56,26.955,M,39.391,M,3.3,0000*5F
$GNGGA,114440.40,3605.0806410,N,14004.8286137,E,4,09,1.56,26.944,M,39.391,M,3.4,0000*52
$GNGGA,114440.50,3605.0806367,N,14004.8286997,E,4,09,1.56,26.938,M,39.391,M,3.5,0000*5C
$GNGGA,114440.60,3605.0806290,N,14004.8287993,E,4,09,1.56,26.930,M,39.391,M,3.6,0000*58
$GNGGA,114440.70,3605.0806260,N,14004.8288982,E,4,09,1.56,26.918,M,39.391,M,3.7,0000*52
$GNGGA,114440.80,3605.0806244,N,14004.8289940,E,4,09,1.56,26.932,M,39.391,M,3.8,0000*53
$GNGGA,114440.90,3605.0806134,N,14004.8290791,E,4,09,1.56,26.949,M,39.391,M,3.9,0000*51
$GNGGA,114441.00,3605.0806012,N,14004.8291667,E,4,09,1.56,26.945,M,39.391,M,4.0,0000*57
$GNGGA,114441.10,3605.0805868,N,14004.8292596,E,4,09,1.56,26.937,M,39.391,M,4.1,0000*5A
$GNGGA,114441.20,3605.0805786,N,14004.8293454,E,4,09,1.56,26.938,M,39.391,M,4.2,0000*54
$GNGGA,114441.30,3605.0805743,N,14004.8294281,E,4,09,1.56,26.950,M,39.391,M,4.3,0000*5A
$GNGGA,114441.40,3605.0805739,N,14004.8295039,E,4,09,1.56,26.961,M,39.391,M,4.4,0000*55
$GNGGA,114441.50,3605.0805710,N,14004.8295871,E,4,09,1.56,26.955,M,39.391,M,4.5,0000*5D
$GNGGA,114441.60,3605.0805654,N,14004.8296772,E,4,09,1.56,26.939,M,39.391,M,4.6,0000*59
$GNGGA,114441.70,3605.0805508,N,14004.8297637,E,4,09,1.56,26.933,M,39.391,M,4.7,0000*58
$GNGGA,114441.80,3605.0805430,N,14004.8298469,E,4,09,1.56,26.938,M,39.391,M,4.8,0000*5F
$GNGGA,114441.90,3605.0805224,N,14004.8299204,E,4,09,1.56,26.943,M,39.391,M,4.9,0000*5C
$GNGGA,114442.00,3605.0805003,N,14004.8299869,E,4,09,1.56,26.933,M,39.391,M,5.0,0000*5F
$GNGGA,114442.10,3605.0804800,N,14004.8300545,E,4,09,1.56,26.928,M,39.391,M,5.1,0000*5D
$GNGGA,114442.30,3605.0804087,N,14004.8301561,E,4,09,1.56,26.925,M,39.391,M,5.3,0000*50
$GNGGA,114442.40,3605.0803624,N,14004.8302040,E,4,09,1.56,26.932,M,39.391,M,5.4,0000*5B
$GNGGA,114442.50,3605.0802998,N,14004.8302198,E,4,09,1.56,26.929,M,39.391,M,5.5,0000*5C
$GNGGA,114442.60,3605.0802400,N,14004.8302311,E,4,09,1.56,26.901,M,39.391,M,5.6,0000*59
$GNGGA,114442.70,3605.0801773,N,14004.8302444,E,4,09,1.56,26.894,M,39.391,M,5.7,0000*57
$GNGGA,114442.80,3605.0801176,N,14004.8302655,E,4,09,1.56,26.896,M,39.391,M,5.8,0000*54
$GNGGA,114443.00,3605.0800205,N,14004.8302638,E,4,09,1.56,26.885,M,39.391,M,6.0,0000*59
$GNGGA,114443.20,3605.0799182,N,14004.8302594,E,4,09,1.56,26.886,M,39.391,M,6.2,0000*5C
$GNGGA,114443.30,3605.0798610,N,14004.8302404,E,4,09,1.56,26.884,M,39.391,M,6.3,0000*5B
$GNGGA,114443.40,3605.0798083,N,14004.8302228,E,4,09,1.56,26.889,M,39.391,M,6.4,0000*52
$GNGGA,114443.60,3605.0797122,N,14004.8302021,E,4,09,1.56,26.916,M,39.391,M,6.6,0000*5B
$GNGGA,114443.80,3605.0796034,N,14004.8302026,E,4,09,1.56,26.914,M,39.391,M,6.8,0000*59
$GNGGA,114443.90,3605.0795428,N,14004.8302104,E,4,09,1.56,26.911,M,39.391,M,6.9,0000*57
$GNGGA,114444.00,3605.0794771,N,14004.8302184,E,4,09,1.56,26.910,M,39.391,M,7.0,0000*56
$GNGGA,114444.10,3605.0794198,N,14004.8302113,E,4,09,1.56,26.922,M,39.391,M,7.1,0000*58
$GNGGA,114444.20,3605.0793624,N,14004.8302108,E,4,09,1.56,26.925,M,39.391,M,2.2,0000*57
$GNGGA,114444.30,3605.0793053,N,14004.8302072,E,4,09,1.56,26.914,M,39.391,M,2.3,0000*5F
$GNGGA,114444.40,3605.0792409,N,14004.8301994,E,4,09,1.56,26.907,M,39.391,M,2.4,0000*55
$GNGGA,114444.50,3605.0791756,N,14004.8301865,E,4,09,1.56,26.905,M,39.391,M,2.5,0000*52
$GNGGA,114444.60,3605.0791166,N,14004.8301858,E,4,09,1.56,26.916,M,39.391,M,2.6,0000*5B
$GNGGA,114444.70,3605.0790583,N,14004.8301875,E,4,09,1.56,26.913,M,39.391,M,2.7,0000*5F
$GNGGA,114444.80,3605.0789980,N,14004.8301836,E,4,09,1.56,26.922,M,39.391,M,2.8,0000*5D
$GNGGA,114444.90,3605.0789240,N,14004.8301849,E,4,09,1.56,26.896,M,39.391,M,2.9,0000*5C
$GNGGA,114445.00,3605.0788588,N,14004.8301837,E,4,09,1.56,26.900,M,39.391,M,3.0,0000*59
$GNGGA,114445.10,3605.0787933,N,14004.8301896,E,4,09,1.56,26.891,M,39.391,M,3.1,0000*58
$GNGGA,114445.20,3605.0787308,N,14004.8301879,E,4,09,1.56,26.902,M,39.391,M,3.2,0000*50
$GNGGA,114445.30,3605.0786731,N,14004.8301823,E,4,09,1.56,26.920,M,39.391,M,3.3,0000*50
$GNGGA,114445.40,3605.0786166,N,14004.8301797,E,4,09,1.56,26.924,M,39.391,M,3.4,0000*50
$GNGGA,114445.50,3605.0785613,N,14004.8301767,E,4,09,1.56,26.913,M,39.391,M,3.5,0000*5D
$GNGGA,114445.70,3605.0784697,N,14004.8301813,E,4,09,1.56,26.942,M,39.391,M,3.7,0000*58
$GNGGA,114445.90,3605.0783865,N,14004.8302080,E,4,09,1.56,26.943,M,39.391,M,3.9,0000*5C
$GNGGA,114446.10,3605.0783161,N,14004.8302535,E,4,09,1.56,26.927,M,39.391,M,4.1,0000*5C
$GNGGA,114446.30,3605.0782500,N,14004.8303072,E,4,09,1.56,26.938,M,39.391,M,4.3,0000*57
$GNGGA,114446.50,3605.0781809,N,14004.8303773,E,4,09,1.56,26.914,M,39.391,M,4.5,0000*58
$GNGGA,114446.70,3605.0781201,N,14004.8304841,E,4,09,1.56,26.916,M,39.391,M,4.7,0000*51
$GNGGA,114446.90,3605.0780866,N,14004.8305800,E,4,09,1.56,26.919,M,39.391,M,4.9,0000*50
$GNGGA,114447.10,3605.0780710,N,14004.8307100,E,4,09,1.56,26.921,M,39.391,M,5.1,0000*5E
$GNGGA,114447.20,3605.0780621,N,14004.8307810,E,4,09,1.56,26.926,M,39.391,M,5.2,0000*52
$GNGGA,114447.30,3605.0780526,N,14004.8308527,E,4,09,1.56,26.933,M,39.391,M,5.3,0000*54
$GNGGA,114447.40,3605.0780422,N,14004.8309192,E,4,09,1.56,26.941,M,39.391,M,5.4,0000*5F
$GNGGA,114447.50,3605.0780312,N,14004.8309856,E,4,09,1.56,26.943,M,39.391,M,5.5,0000*58
$GNGGA,114447.60,3605.0780172,N,14004.8310637,E,4,09,1.56,26.941,M,39.391,M,5.6,0000*5F
$GNGGA,114447.70,3605.0780034,N,14004.8311350,E,4,09,1.56,26.955,M,39.391,M,5.7,0000*5C
$GNGGA,114447.80,3605.0779992,N,14004.8312046,E,4,09,1.56,26.959,M,39.391,M,5.8,0000*54
$GNGGA,114447.90,3605.0779949,N,14004.8312745,E,4,09,1.56,26.975,M,39.391,M,5.9,0000*58
$GNGGA,114448.00,3605.0779960,N,14004.8313484,E,4,09,1.56,26.981,M,39.391,M,6.0,0000*5B
$GNGGA,114448.10,3605.0779948,N,14004.8314260,E,4,09,1.56,26.965,M,39.391,M,6.1,0000*50
$GNGGA,114448.20,3605.0779945,N,14004.8315052,E,4,09,1.56,26.956,M,39.391,M,1.2,0000*58
$GNGGA,114448.30,3605.0779951,N,14004.8315872,E,4,09,1.56,26.966,M,39.391,M,1.3,0000*54
$GNGGA,114448.40,3605.0779843,N,14004.8316636,E,4,09,1.56,26.972,M,39.391,M,1.4,0000*5E
$GNGGA,114448.50,3605.0779789,N,14004.8317356,E,4,09,1.56,26.972,M,39.391,M,1.5,0000*55
$GNGGA,114448.60,3605.0779751,N,14004.8318092,E,4,09,1.56,26.967,M,39.391,M,1.6,0000*50
$GNGGA,114448.70,3605.0779596,N,14004.8318875,E,4,09,1.56,26.966,M,39.391,M,1.7,0000*59
$GNGGA,114448.80,3605.0779572,N,14004.8319760,E,4,09,1.56,26.979,M,39.391,M,1.8,0000*57
$GNGGA,114448.90,3605.0779515,N,14004.8320477,E,4,09,1.56,26.997,M,39.391,M,1.9,0000*59
$GNGGA,114449.00,3605.0779498,N,14004.8321176,E,4,09,1.56,27.003,M,39.391,M,2.0,0000*5F
$GNGGA,114449.10,3605.0779516,N,14004.8321977,E,4,09,1.56,27.002,M,39.391,M,2.1,0000*50
$GNGGA,114449.20,3605.0779543,N,14004.8322725,E,4,09,1.56,26.995,M,39.391,M,2.2,0000*5C
$GNGGA,114449.30,3605.0779476,N,14004.8323513,E,4,09,1.56,27.011,M,39.391,M,2.3,0000*59
$GNGGA,114449.40,3605.0779476,N,14004.8324224,E,4,09,1.56,27.026,M,39.391,M,2.4,0000*59
$GNGGA,114449.60,3605.0779275,N,14004.8325310,E,4,09,1.56,27.067,M,39.391,M,2.6,0000*5E
$GNGGA,114449.80,3605.0778978,N,14004.8326346,E,4,09,1.56,27.070,M,39.391,M,2.8,0000*5F
$GNGGA,114450.00,3605.0778811,N,14004.8327126,E,4,09,1.56,27.092,M,39.391,M,3.0,0000*51
$GNGGA,114450.50,3605.0778756,N,14004.8327862,E,4,09,1.56,27.092,M,39.391,M,3.5,0000*54
$GNGGA,114453.50,3605.0779135,N,14004.8328409,E,4,09,1.56,27.078,M,39.391,M,1.5,0000*5D
$GNGGA,114455.20,3605.0779200,N,14004.8329291,E,4,09,1.56,27.001,M,39.391,M,3.2,0000*54
$GNGGA,114455.40,3605.0779149,N,14004.8329958,E,4,09,1.56,26.979,M,39.391,M,3.4,0000*53
$GNGGA,114455.60,3605.0778987,N,14004.8331104,E,4,09,1.56,26.953,M,39.391,M,3.6,0000*58
$GNGGA,114455.80,3605.0778843,N,14004.8332333,E,4,09,1.56,26.977,M,39.391,M,3.8,0000*52
$GNGGA,114456.00,3605.0778796,N,14004.8333714,E,4,09,1.56,26.975,M,39.391,M,4.0,0000*53
$GNGGA,114456.10,3605.0778790,N,14004.8334445,E,4,09,1.56,26.974,M,39.391,M,4.1,0000*54
$GNGGA,114456.20,3605.0778756,N,14004.8335139,E,4,09,1.56,26.975,M,39.391,M,4.2,0000*50
$GNGGA,114456.30,3605.0778780,N,14004.8335978,E,4,09,1.56,26.993,M,39.391,M,4.3,0000*5E
$GNGGA,114456.40,3605.0778753,N,14004.8336711,E,4,09,1.56,26.990,M,39.391,M,4.4,0000*51
$GNGGA,114456.50,3605.0778664,N,14004.8337457,E,4,09,1.56,26.990,M,39.391,M,4.5,0000*54
$GNGGA,114456.60,3605.0778579,N,14004.8338328,E,4,09,1.56,26.981,M,39.391,M,4.6,0000*5B
$GNGGA,114456.70,3605.0778563,N,14004.8339163,E,4,09,1.56,26.986,M,39.391,M,4.7,0000*5B
$GNGGA,114456.80,3605.0778445,N,14004.8339981,E,4,09,1.56,26.996,M,39.391,M,4.8,0000*5B
$GNGGA,114456.90,3605.0778444,N,14004.8340708,E,4,09,1.56,27.019,M,39.391,M,4.9,0000*54
$GNGGA,114457.00,3605.0778502,N,14004.8341559,E,4,09,1.56,27.020,M,39.391,M,5.0,0000*5A
$GNGGA,114457.10,3605.0778401,N,14004.8342422,E,4,09,1.56,27.008,M,39.391,M,5.1,0000*5C
$GNGGA,114457.20,3605.0778382,N,14004.8343310,E,4,09,1.56,27.004,M,39.391,M,5.2,0000*5B
$GNGGA,114457.30,3605.0778377,N,14004.8344208,E,4,09,1.56,27.015,M,39.391,M,5.3,0000*5E
$GNGGA,114457.40,3605.0778294,N,14004.8345034,E,4,09,1.56,27.032,M,39.391,M,5.4,0000*5B
$GNGGA,114457.50,3605.0778165,N,14004.8345807,E,4,09,1.56,27.028,M,39.391,M,5.5,0000*55
$GNGGA,114457.60,3605.0778085,N,14004.8346722,E,4,09,1.56,27.015,M,39.391,M,5.6,0000*5F
$GNGGA,114457.70,3605.0777933,N,14004.8347550,E,4,09,1.56,27.013,M,39.391,M,5.7,0000*54
$GNGGA,114457.80,3605.0777914,N,14004.8348371,E,4,09,1.56,27.040,M,39.391,M,5.8,0000*5D
$GNGGA,114457.90,3605.0777904,N,14004.8349175,E,4,09,1.56,27.022,M,39.391,M,5.9,0000*5F
$GNGGA,114458.00,3605.0777813,N,14004.8350010,E,4,09,1.56,27.035,M,39.391,M,6.0,0000*58
$GNGGA,114458.10,3605.0777800,N,14004.8350898,E,4,09,1.56,27.027,M,39.391,M,6.1,0000*51
$GNGGA,114458.20,3605.0777785,N,14004.8351810,E,4,09,1.56,27.018,M,39.391,M,1.2,0000*59
$GNGGA,114458.30,3605.0777722,N,14004.8352690,E,4,09,1.56,27.022,M,39.391,M,1.3,0000*58
$GNGGA,114458.40,3605.0777551,N,14004.8353599,E,4,09,1.56,27.025,M,39.391,M,1.4,0000*52
$GNGGA,114458.50,3605.0777490,N,14004.8354360,E,4,09,1.56,27.025,M,39.391,M,1.5,0000*59
$GNGGA,114458.60,3605.0777319,N,14004.8355276,E,4,09,1.56,27.006,M,39.391,M,1.6,0000*59
$GNGGA,114458.70,3605.0777197,N,14004.8356145,E,4,09,1.56,27.004,M,39.391,M,1.7,0000*5F
$GNGGA,114458.80,3605.0777151,N,14004.8357090,E,4,09,1.56,27.016,M,39.391,M,1.8,0000*5E
$GNGGA,114458.90,3605.0777101,N,14004.8357828,E,4,09,1.56,27.020,M,39.391,M,1.9,0000*55
$GNGGA,114459.00,3605.0777074,N,14004.8358657,E,4,09,1.56,27.024,M,39.391,M,2.0,0000*59
$GNGGA,114459.10,3605.0777036,N,14004.8359617,E,4,09,1.56,27.017,M,39.391,M,2.1,0000*5A
$GNGGA,114459.20,3605.0777009,N,14004.8360488,E,4,09,1.56,27.011,M,39.391,M,2.2,0000*5E
$GNGGA,114459.30,3605.0776913,N,14004.8361363,E,4,09,1.56,27.016,M,39.391,M,2.3,0000*59
$GNGGA,114459.40,3605.0776804,N,14004.8362269,E,4,09,1.56,27.027,M,39.391,M,2.4,0000*54
$GNGGA,114459.50,3605.0776677,N,14004.8363077,E,4,09,1.56,27.022,M,39.391,M,2.5,0000*57
$GNGGA,114459.60,3605.0776552,N,14004.8364007,E,4,09,1.56,27.021,M,39.391,M,2.6,0000*50
$GNGGA,114459.70,3605.0776406,N,14004.8364845,E,4,09,1.56,27.017,M,39.391,M,2.7,0000*5B
$GNGGA,114459.80,3605.0776324,N,14004.8365652,E,4,09,1.56,27.033,M,39.391,M,2.8,0000*53
$GNGGA,114459.90,3605.0776359,N,14004.8366415,E,4,09,1.56,27.045,M,39.391,M,2.9,0000*5A
$GNGGA,114500.00,3605.0776317,N,14004.8367284,E,4,09,1.56,27.035,M,39.391,M,3.0,0000*54
$GNGGA,114500.10,3605.0776253,N,14004.8368176,E,4,09,1.56,27.022,M,39.391,M,3.1,0000*52
$GNGGA,114500.20,3605.0776236,N,14004.8369053,E,4,09,1.56,27.018,M,39.391,M,3.2,0000*5F
$GNGGA,114500.30,3605.0776169,N,14004.8370010,E,4,09,1.56,27.025,M,39.391,M,3.3,0000*57
$GNGGA,114500.40,3605.0776072,N,14004.8370851,E,4,09,1.56,27.021,M,39.391,M,3.4,0000*55
$GNGGA,114500.50,3605.0776019,N,14004.8371705,E,4,09,1.56,27.020,M,39.391,M,3.5,0000*56
$GNGGA,114500.60,3605.0775884,N,14004.8372576,E,4,09,1.56,27.008,M,39.391,M,3.6,0000*56
$GNGGA,114500.70,3605.0775855,N,14004.8373445,E,4,09,1.56,27.019,M,39.391,M,3.7,0000*5A
$GNGGA,114500.80,3605.0775817,N,14004.8374298,E,4,09,1.56,27.040,M,39.391,M,3.8,0000*51
$GNGGA,114501.00,3605.0775781,N,14004.8375806,E,4,09,1.56,27.070,M,39.391,M,4.0,0000*58
$GNGGA,114501.10,3605.0775784,N,14004.8376771,E,4,09,1.56,27.060,M,39.391,M,4.1,0000*50
$GNGGA,114501.20,3605.0775754,N,14004.8377578,E,4,09,1.56,27.065,M,39.391,M,4.2,0000*52
$GNGGA,114501.30,3605.0775734,N,14004.8378493,E,4,09,1.56,27.071,M,39.390,M,4.3,0000*5B
$GNGGA,114501.40,3605.0775655,N,14004.8379366,E,4,09,1.56,27.081,M,39.390,M,4.4,0000*5E
$GNGGA,114501.50,3605.0775601,N,14004.8380160,E,4,09,1.56,27.080,M,39.390,M,4.5,0000*5C
$GNGGA,114501.60,3605.0775479,N,14004.8381069,E,4,09,1.56,27.077,M,39.390,M,4.6,0000*50
$GNGGA,114501.70,3605.0775409,N,14004.8381958,E,4,09,1.56,27.069,M,39.390,M,4.7,0000*53
