$GNGGA,115738.20,3605.0718152,N,14004.9150703,E,4,09,2.18,26.962,M,39.388,M,56.2,0000*61
$GNGGA,115742.10,3605.0716021,N,14004.9150149,E,2,09,1.27,25.103,M,39.388,M,,0137*73
$GNGGA,115743.90,3605.0716014,N,14004.9150852,E,2,09,1.27,23.802,M,39.388,M,,0137*71
$GNGGA,115744.20,3605.0717619,N,14004.9152396,E,2,09,2.19,26.467,M,39.388,M,2.2,0000*59
$GNGGA,115744.30,3605.0717575,N,14004.9149702,E,4,09,2.19,26.886,M,39.388,M,2.3,0000*56
$GNGGA,115745.40,3605.0717903,N,14004.9150302,E,4,09,2.19,26.990,M,39.388,M,3.4,0000*51
$GNGGA,115750.00,3605.0717557,N,14004.9150847,E,4,09,2.19,26.891,M,39.388,M,3.0,0000*52
$GNGGA,115751.30,3605.0717362,N,14004.9150201,E,4,09,2.19,26.851,M,39.388,M,4.3,0000*50
$GNGGA,115755.70,3605.0717080,N,14004.9150784,E,4,09,2.19,26.885,M,39.388,M,3.7,0000*5D
$GNGGA,115757.70,3605.0716819,N,14004.9151394,E,4,09,2.20,26.876,M,39.388,M,5.7,0000*52
$GNGGA,115758.30,3605.0716697,N,14004.9152182,E,4,09,2.20,26.860,M,39.388,M,1.3,0000*50
$GNGGA,115758.60,3605.0716743,N,14004.9153014,E,4,09,2.20,26.828,M,39.388,M,1.6,0000*5B
$GNGGA,115758.90,3605.0716704,N,14004.9153733,E,4,09,2.20,26.813,M,39.388,M,1.9,0000*52
$GNGGA,115759.20,3605.0716411,N,14004.9154600,E,4,09,2.20,26.788,M,39.388,M,2.2,0000*5C
$GNGGA,115759.40,3605.0715971,N,14004.9155361,E,4,09,2.20,26.783,M,39.388,M,2.4,0000*5C
$GNGGA,115759.60,3605.0715384,N,14004.9156237,E,4,09,2.20,26.805,M,39.388,M,2.6,0000*5C
$GNGGA,115759.80,3605.0714809,N,14004.9157012,E,4,09,2.20,26.795,M,39.388,M,2.8,0000*51
$GNGGA,115800.00,3605.0714134,N,14004.9157856,E,4,09,2.20,26.780,M,39.388,M,3.0,0000*58
$GNGGA,115800.20,3605.0713509,N,14004.9158907,E,4,09,2.20,26.766,M,39.388,M,3.2,0000*57
$GNGGA,115800.30,3605.0713164,N,14004.9159435,E,4,09,2.20,26.760,M,39.388,M,3.3,0000*53
$GNGGA,115800.50,3605.0712468,N,14004.9160197,E,4,09,2.20,26.765,M,39.388,M,3.5,0000*59
$GNGGA,115800.60,3605.0712043,N,14004.9160612,E,4,09,2.20,26.746,M,39.388,M,3.6,0000*5F
$GNGGA,115800.70,3605.0711572,N,14004.9161064,E,4,09,2.20,26.737,M,39.388,M,3.7,0000*5B
$GNGGA,115800.80,3605.0711086,N,14004.9161456,E,4,09,2.20,26.743,M,39.388,M,3.8,0000*53
$GNGGA,115800.90,3605.0710610,N,14004.9161952,E,4,09,2.20,26.741,M,39.388,M,3.9,0000*50
$GNGGA,115801.00,3605.0710199,N,14004.9162472,E,4,09,2.20,26.743,M,39.388,M,4.0,0000*5E
$GNGGA,115801.10,3605.0709714,N,14004.9162963,E,4,09,2.20,26.732,M,39.388,M,4.1,0000*5E
$GNGGA,115801.20,3605.0709216,N,14004.9163517,E,4,09,2.20,26.710,M,39.388,M,4.2,0000*57
$GNGGA,115801.30,3605.0708723,N,14004.9164164,E,4,09,2.20,26.709,M,39.388,M,4.3,0000*5A
$GNGGA,115801.40,3605.0708247,N,14004.9164675,E,4,09,2.20,26.724,M,39.388,M,4.4,0000*55
$GNGGA,115801.50,3605.0707720,N,14004.9165115,E,4,09,2.20,26.728,M,39.388,M,4.5,0000*52
$GNGGA,115801.60,3605.0707208,N,14004.9165627,E,4,09,2.20,26.725,M,39.388,M,4.6,0000*56
$GNGGA,115801.70,3605.0706665,N,14004.9166137,E,4,09,2.20,26.700,M,39.388,M,4.7,0000*5A
$GNGGA,115801.80,3605.0706139,N,14004.9166617,E,4,09,2.20,26.707,M,39.388,M,4.8,0000*56
$GNGGA,115801.90,3605.0705586,N,14004.9167105,E,4,09,2.20,26.713,M,39.388,M,4.9,0000*55
$GNGGA,115802.00,3605.0705094,N,14004.9167650,E,4,09,2.20,26.711,M,39.388,M,5.0,0000*54
$GNGGA,115802.10,3605.0704575,N,14004.9168182,E,4,09,2.20,26.705,M,39.388,M,5.1,0000*5D
$GNGGA,115802.20,3605.0703985,N,14004.9168758,E,4,09,2.20,26.691,M,39.388,M,5.2,0000*54
$GNGGA,115802.30,3605.0703410,N,14004.9169310,E,4,09,2.20,26.690,M,39.388,M,5.3,0000*5D
$GNGGA,115802.40,3605.0702870,N,14004.9169834,E,4,09,2.20,26.693,M,39.388,M,5.4,0000*58
$GNGGA,115802.50,3605.0702306,N,14004.9170327,E,4,09,2.20,26.692,M,39.388,M,5.5,0000*52
$GNGGA,115802.60,3605.0701747,N,14004.9170841,E,4,09,2.20,26.691,M,39.388,M,5.6,0000*58
$GNGGA,115802.70,3605.0701180,N,14004.9171405,E,4,09,2.20,26.675,M,39.388,M,5.7,0000*52
$GNGGA,115802.80,3605.0700600,N,14004.9171902,E,4,09,2.20,26.682,M,39.388,M,5.8,0000*5E
$GNGGA,115802.90,3605.0700101,N,14004.9172497,E,4,09,2.20,26.679,M,39.388,M,5.9,0000*5E
$GNGGA,115803.00,3605.0699602,N,14004.9173109,E,4,09,2.20,26.674,M,39.388,M,6.0,0000*57
$GNGGA,115803.10,3605.0699086,N,14004.9173664,E,4,09,2.20,26.672,M,39.388,M,6.1,0000*57
$GNGGA,115803.20,3605.0698552,N,14004.9174266,E,4,09,2.20,26.657,M,39.388,M,1.2,0000*5B
$GNGGA,115803.30,3605.0698028,N,14004.9174825,E,4,09,2.20,26.650,M,39.388,M,1.3,0000*59
$GNGGA,115803.40,3605.0697544,N,14004.9175437,E,4,09,2.20,26.673,M,39.388,M,1.4,0000*56
$GNGGA,115803.50,3605.0696974,N,14004.9175905,E,4,09,2.20,26.664,M,39.388,M,1.5,0000*52
$GNGGA,115803.60,3605.0696404,N,14004.9176433,E,4,09,2.20,26.655,M,39.388,M,1.6,0000*51
$GNGGA,115803.70,3605.0695866,N,14004.9176957,E,4,09,2.20,26.661,M,39.388,M,1.7,0000*52
$GNGGA,115803.80,3605.0695361,N,14004.9177439,E,4,09,2.20,26.666,M,39.388,M,1.8,0000*5D
$GNGGA,115803.90,3605.0694818,N,14004.9177966,E,4,09,2.20,26.669,M,39.388,M,1.9,0000*51
$GNGGA,115804.00,3605.0694308,N,14004.9178478,E,4,09,2.20,26.669,M,39.388,M,2.0,0000*52
$GNGGA,115804.10,3605.0693752,N,14004.9179022,E,4,09,2.20,26.655,M,39.388,M,2.1,0000*5B
$GNGGA,115804.20,3605.0693186,N,14004.9179603,E,4,09,2.20,26.655,M,39.388,M,2.2,0000*51
$GNGGA,115804.30,3605.0692742,N,14004.9180165,E,4,09,2.20,26.693,M,39.388,M,2.3,0000*55
$GNGGA,115804.40,3605.0692279,N,14004.9180694,E,4,09,2.20,26.725,M,39.388,M,2.4,0000*5D
$GNGGA,115804.50,3605.0691808,N,14004.9181238,E,4,09,2.20,26.757,M,39.388,M,2.5,0000*54
$GNGGA,115804.60,3605.0691306,N,14004.9181766,E,4,09,2.20,26.762,M,39.388,M,2.6,0000*59
$GNGGA,115804.70,3605.0690811,N,14004.9182275,E,4,09,2.20,26.788,M,39.388,M,2.7,0000*55
$GNGGA,115804.80,3605.0690334,N,14004.9182810,E,4,09,2.20,26.812,M,39.388,M,2.8,0000*5C
$GNGGA,115804.90,3605.0689870,N,14004.9183358,E,4,09,2.20,26.829,M,39.388,M,2.9,0000*51
$GNGGA,115805.00,3605.0689405,N,14004.9183934,E,4,09,2.20,26.838,M,39.388,M,3.0,0000*5F
$GNGGA,115805.10,3605.0688893,N,14004.9184522,E,4,09,2.20,26.846,M,39.388,M,3.1,0000*58
$GNGGA,115805.20,3605.0688377,N,14004.9185104,E,4,09,2.20,26.848,M,39.388,M,3.2,0000*56
$GNGGA,115805.30,3605.0687859,N,14004.9185678,E,4,09,2.20,26.877,M,39.388,M,3.3,0000*5E
$GNGGA,115805.40,3605.0687326,N,14004.9186170,E,4,09,2.20,26.880,M,39.388,M,3.4,0000*59
$GNGGA,115805.50,3605.0686796,N,14004.9186657,E,4,09,2.20,26.881,M,39.388,M,3.5,0000*54
$GNGGA,115805.60,3605.0686268,N,14004.9187223,E,4,09,2.20,26.887,M,39.388,M,3.6,0000*50
$GNGGA,115805.70,3605.0685729,N,14004.9187725,E,4,09,2.20,26.882,M,39.388,M,3.7,0000*55
$GNGGA,115805.80,3605.0685235,N,14004.9188264,E,4,09,2.20,26.904,M,39.388,M,3.8,0000*5D
$GNGGA,115805.90,3605.0684784,N,14004.9188792,E,4,09,2.20,26.908,M,39.388,M,3.9,0000*53
$GNGGA,115806.00,3605.0684283,N,14004.9189343,E,4,09,2.20,26.905,M,39.388,M,4.0,0000*51
$GNGGA,115806.10,3605.0683769,N,14004.9189904,E,4,09,2.20,26.899,M,39.388,M,4.1,0000*5A
$GNGGA,115806.20,3605.0683281,N,14004.9190504,E,4,09,2.20,26.901,M,39.388,M,4.2,0000*5D
$GNGGA,115806.30,3605.0682738,N,14004.9190977,E,4,09,2.20,26.911,M,39.388,M,4.3,0000*52
$GNGGA,115806.40,3605.0682208,N,14004.9191481,E,4,09,2.20,26.912,M,39.388,M,4.4,0000*52
$GNGGA,115806.50,3605.0681694,N,14004.9191927,E,4,09,2.20,26.906,M,39.388,M,4.5,0000*54
$GNGGA,115806.60,3605.0681132,N,14004.9192405,E,4,09,2.20,26.915,M,39.388,M,4.6,0000*53
$GNGGA,115806.70,3605.0680588,N,14004.9192914,E,4,09,2.20,26.906,M,39.388,M,4.7,0000*58
$GNGGA,115806.80,3605.0680109,N,14004.9193429,E,4,09,2.20,26.921,M,39.388,M,4.8,0000*52
$GNGGA,115806.90,3605.0679616,N,14004.9193956,E,4,09,2.20,26.919,M,39.388,M,4.9,0000*53
$GNGGA,115807.00,3605.0679137,N,14004.9194465,E,4,09,2.20,26.907,M,39.388,M,5.0,0000*52
$GNGGA,115807.10,3605.0678667,N,14004.9194990,E,4,09,2.20,26.902,M,39.388,M,5.1,0000*53
$GNGGA,115807.20,3605.0678182,N,14004.9195536,E,4,09,2.20,26.900,M,39.388,M,5.2,0000*5C
$GNGGA,115807.30,3605.0677708,N,14004.9196009,E,4,09,2.20,26.911,M,39.388,M,5.3,0000*5D
$GNGGA,115807.40,3605.0677209,N,14004.9196469,E,4,09,2.20,26.900,M,39.388,M,5.4,0000*5B
$GNGGA,115807.50,3605.0676724,N,14004.9196958,E,4,09,2.20,26.900,M,39.388,M,5.5,0000*5F
$GNGGA,115807.60,3605.0676186,N,14004.9197420,E,4,09,2.20,26.884,M,39.388,M,5.6,0000*5F
$GNGGA,115807.70,3605.0675670,N,14004.9197952,E,4,09,2.20,26.889,M,39.388,M,5.7,0000*57
$GNGGA,115807.80,3605.0675230,N,14004.9198417,E,4,09,2.20,26.897,M,39.388,M,5.8,0000*5B
$GNGGA,115807.90,3605.0674798,N,14004.9198944,E,4,09,2.20,26.898,M,39.388,M,5.9,0000*59
$GNGGA,115808.00,3605.0674315,N,14004.9199405,E,4,09,2.20,26.878,M,39.388,M,6.0,0000*53
$GNGGA,115808.10,3605.0673837,N,14004.9199977,E,4,09,2.20,26.881,M,39.388,M,6.1,0000*51
$GNGGA,115808.20,3605.0673345,N,14004.9200554,E,4,09,2.20,26.882,M,39.388,M,1.2,0000*55
$GNGGA,115808.30,3605.0672810,N,14004.9201049,E,4,09,2.20,26.877,M,39.388,M,1.3,0000*5D
$GNGGA,115808.40,3605.0672311,N,14004.9201521,E,4,09,2.20,26.877,M,39.388,M,1.4,0000*5C
$GNGGA,115808.50,3605.0671791,N,14004.9201984,E,4,09,2.20,26.861,M,39.388,M,1.5,0000*57
$GNGGA,115808.60,3605.0671261,N,14004.9202491,E,4,09,2.20,26.845,M,39.388,M,1.6,0000*51
$GNGGA,115808.70,3605.0670737,N,14004.9202958,E,4,09,2.20,26.841,M,39.388,M,1.7,0000*5A
$GNGGA,115808.80,3605.0670261,N,14004.9203411,E,4,09,2.20,26.854,M,39.388,M,1.8,0000*59
$GNGGA,115808.90,3605.0669818,N,14004.9203913,E,4,09,2.20,26.848,M,39.388,M,1.9,0000*57
$GNGGA,115809.00,3605.0669362,N,14004.9204404,E,4,09,2.20,26.838,M,39.388,M,2.0,0000*58
$GNGGA,115809.10,3605.0668836,N,14004.9204952,E,4,09,2.20,26.825,M,39.388,M,2.1,0000*51
$GNGGA,115809.20,3605.0668314,N,14004.9205511,E,4,09,2.20,26.822,M,39.388,M,2.2,0000*57
$GNGGA,115809.30,3605.0667816,N,14004.9206015,E,4,09,2.20,26.823,M,39.388,M,2.3,0000*52
$GNGGA,115809.40,3605.0667319,N,14004.9206491,E,4,09,2.20,26.823,M,39.388,M,2.4,0000*5E
$GNGGA,115809.50,3605.0666817,N,14004.9207017,E,4,09,2.20,26.812,M,39.388,M,2.5,0000*53
$GNGGA,115809.60,3605.0666316,N,14004.9207574,E,4,09,2.20,26.807,M,39.388,M,2.6,0000*5D
$GNGGA,115809.70,3605.0665812,N,14004.9208127,E,4,09,2.21,26.805,M,39.388,M,2.7,0000*5F
$GNGGA,115809.80,3605.0665346,N,14004.9208663,E,4,09,2.21,26.811,M,39.388,M,2.8,0000*57
$GNGGA,115809.90,3605.0664927,N,14004.9209205,E,4,09,2.21,26.811,M,39.388,M,2.9,0000*5E
$GNGGA,115810.00,3605.0664432,N,14004.9209830,E,4,09,2.21,26.799,M,39.388,M,3.0,0000*5D
$GNGGA,115810.10,3605.0663949,N,14004.9210405,E,4,09,2.21,26.789,M,39.388,M,3.1,0000*58
$GNGGA,115810.20,3605.0663487,N,14004.9211028,E,4,09,2.21,26.793,M,39.388,M,3.2,0000*56
$GNGGA,115810.30,3605.0662955,N,14004.9211565,E,4,09,2.21,26.795,M,39.388,M,3.3,0000*5F
$GNGGA,115810.40,3605.0662489,N,14004.9212031,E,4,09,2.21,26.796,M,39.388,M,3.4,0000*57
$GNGGA,115810.50,3605.0662012,N,14004.9212579,E,4,09,2.21,26.779,M,39.388,M,3.5,0000*59
$GNGGA,115810.60,3605.0661495,N,14004.9213105,E,4,09,2.21,26.779,M,39.388,M,3.6,0000*5F
$GNGGA,115810.70,3605.0660976,N,14004.9213637,E,4,09,2.21,26.773,M,39.388,M,3.7,0000*52
$GNGGA,115810.80,3605.0660566,N,14004.9214134,E,4,09,2.21,26.779,M,39.388,M,3.8,0000*56
$GNGGA,115810.90,3605.0660118,N,14004.9214682,E,4,09,2.21,26.781,M,39.388,M,3.9,0000*56
$GNGGA,115811.00,3605.0659608,N,14004.9215197,E,4,09,2.21,26.765,M,39.388,M,4.0,0000*54
$GNGGA,115811.10,3605.0659121,N,14004.9215740,E,4,09,2.21,26.754,M,39.388,M,4.1,0000*56
$GNGGA,115811.20,3605.0658616,N,14004.9216329,E,4,09,2.21,26.751,M,39.388,M,4.2,0000*59
$GNGGA,115811.30,3605.0658106,N,14004.9216816,E,4,09,2.21,26.753,M,39.388,M,4.3,0000*5A
$GNGGA,115811.40,3605.0657606,N,14004.9217260,E,4,09,2.21,26.753,M,39.388,M,4.4,0000*58
$GNGGA,115811.50,3605.0657123,N,14004.9217691,E,4,09,2.21,26.748,M,39.388,M,4.5,0000*58
$GNGGA,115811.60,3605.0656644,N,14004.9218204,E,4,09,2.21,26.735,M,39.388,M,4.6,0000*52
$GNGGA,115811.70,3605.0656140,N,14004.9218649,E,4,09,2.21,26.734,M,39.388,M,4.7,0000*5D
$GNGGA,115811.80,3605.0655706,N,14004.9219081,E,4,09,2.21,26.740,M,39.388,M,4.8,0000*5A
$GNGGA,115812.00,3605.0654875,N,14004.9219942,E,4,09,2.21,26.732,M,39.388,M,5.0,0000*51
$GNGGA,115812.10,3605.0654433,N,14004.9220400,E,4,09,2.21,26.729,M,39.388,M,5.1,0000*54
$GNGGA,115812.20,3605.0654025,N,14004.9220914,E,4,09,2.21,26.725,M,39.388,M,5.2,0000*53
$GNGGA,115812.30,3605.0653578,N,14004.9221333,E,4,09,2.21,26.730,M,39.388,M,5.3,0000*53
$GNGGA,115812.50,3605.0652811,N,14004.9222095,E,4,09,2.21,26.723,M,39.388,M,5.5,0000*5E
$GNGGA,115812.70,3605.0652016,N,14004.9222906,E,4,09,2.21,26.708,M,39.388,M,5.7,0000*5B
$GNGGA,115812.90,3605.0651282,N,14004.9223740,E,4,09,2.21,26.713,M,39.388,M,5.9,0000*50
$GNGGA,115813.10,3605.0650635,N,14004.9224551,E,4,09,2.21,26.712,M,39.388,M,6.1,0000*5F
$GNGGA,115813.30,3605.0649955,N,14004.9225515,E,4,09,2.21,26.687,M,39.388,M,6.3,0000*52
$GNGGA,115813.40,3605.0649567,N,14004.9226011,E,4,09,2.21,26.682,M,39.388,M,6.4,0000*58
$GNGGA,115813.60,3605.0648957,N,14004.9226769,E,4,09,2.21,26.692,M,39.388,M,6.6,0000*5F
$GNGGA,115813.80,3605.0648338,N,14004.9227489,E,4,09,2.21,26.679,M,39.388,M,6.8,0000*55
$GNGGA,115814.00,3605.0647712,N,14004.9228324,E,4,09,2.21,26.667,M,39.388,M,7.0,0000*50
$GNGGA,115814.20,3605.0647101,N,14004.9229102,E,4,09,2.21,26.673,M,39.388,M,2.2,0000*53
$GNGGA,115814.40,3605.0646574,N,14004.9229842,E,4,09,2.21,26.680,M,39.388,M,2.4,0000*55
$GNGGA,115814.60,3605.0646107,N,14004.9230680,E,4,09,2.21,26.667,M,39.388,M,2.6,0000*54
$GNGGA,115814.80,3605.0645788,N,14004.9231257,E,4,09,2.21,26.672,M,39.388,M,2.8,0000*5D
$GNGGA,115815.20,3605.0645690,N,14004.9231950,E,4,09,2.21,26.662,M,39.388,M,3.2,0000*58
$GNGGA,115816.00,3605.0645671,N,14004.9232632,E,4,09,2.21,26.619,M,39.388,M,4.0,0000*57
$GNGGA,115816.30,3605.0645881,N,14004.9233480,E,4,09,2.21,26.619,M,39.388,M,4.3,0000*5C
$GNGGA,115816.60,3605.0646045,N,14004.9234231,E,4,09,2.21,26.619,M,39.388,M,4.6,0000*54
$GNGGA,115816.90,3605.0645923,N,14004.9235023,E,4,09,2.21,26.623,M,39.388,M,4.9,0000*57
$GNGGA,115817.20,3605.0645677,N,14004.9235777,E,4,09,2.21,26.631,M,39.388,M,5.2,0000*5C
$GNGGA,115817.80,3605.0645512,N,14004.9236447,E,4,09,2.21,26.633,M,39.388,M,5.8,0000*5D
$GNGGA,115818.40,3605.0644955,N,14004.9236709,E,4,09,2.21,26.633,M,39.388,M,1.4,0000*51
$GNGGA,115818.60,3605.0644356,N,14004.9236400,E,4,09,2.21,26.635,M,39.388,M,1.6,0000*54
$GNGGA,115818.80,3605.0643815,N,14004.9235915,E,4,09,2.21,26.640,M,39.388,M,1.8,0000*57
$GNGGA,115819.10,3605.0643464,N,14004.9235276,E,4,09,2.21,26.629,M,39.388,M,2.1,0000*5E
$GNGGA,115820.10,3605.0643747,N,14004.9234690,E,4,09,2.21,26.658,M,39.388,M,3.1,0000*5C
$GNGGA,115823.10,3605.0643508,N,14004.9235350,E,4,09,2.22,26.676,M,39.388,M,6.1,0000*54
$GNGGA,115831.60,3605.0642859,N,14004.9235449,E,4,09,2.22,26.595,M,39.388,M,4.6,0000*5C
$GNGGA,115831.80,3605.0642299,N,14004.9235658,E,4,09,2.22,26.582,M,39.388,M,4.8,0000*5E
$GNGGA,115832.00,3605.0641604,N,14004.9235921,E,4,09,2.22,26.579,M,39.388,M,5.0,0000*5A
$GNGGA,115832.20,3605.0640999,N,14004.9236126,E,4,09,2.22,26.579,M,39.388,M,5.2,0000*5C
$GNGGA,115832.40,3605.0640361,N,14004.9236230,E,4,09,2.22,26.569,M,39.388,M,5.4,0000*54
$GNGGA,115832.60,3605.0639568,N,14004.9236136,E,4,09,2.22,26.569,M,39.388,M,5.6,0000*50
$GNGGA,115832.80,3605.0638652,N,14004.9235813,E,4,09,2.22,26.579,M,39.388,M,5.8,0000*57
$GNGGA,115833.00,3605.0637774,N,14004.9235657,E,4,09,2.22,26.579,M,39.388,M,6.0,0000*51
$GNGGA,115833.20,3605.0636670,N,14004.9235551,E,4,09,2.22,26.564,M,39.388,M,1.2,0000*5B
$GNGGA,115833.40,3605.0635592,N,14004.9235386,E,4,09,2.22,26.575,M,39.388,M,1.4,0000*5B
$GNGGA,115833.50,3605.0635039,N,14004.9235320,E,4,09,2.22,26.577,M,39.388,M,1.5,0000*51
$GNGGA,115833.60,3605.0634470,N,14004.9235270,E,4,09,2.22,26.565,M,39.388,M,1.6,0000*5E
$GNGGA,115833.70,3605.0633860,N,14004.9235173,E,4,09,2.22,26.561,M,39.388,M,1.7,0000*50
$GNGGA,115833.80,3605.0633253,N,14004.9235101,E,4,09,2.22,26.561,M,39.388,M,1.8,0000*5F
$GNGGA,115833.90,3605.0632609,N,14004.9235070,E,4,09,2.22,26.570,M,39.388,M,1.9,0000*52
$GNGGA,115834.10,3605.0631478,N,14004.9234939,E,4,09,2.22,26.580,M,39.388,M,2.1,0000*5B
$GNGGA,115834.20,3605.0630838,N,14004.9234862,E,4,09,2.22,26.570,M,39.388,M,2.2,0000*52
$GNGGA,115834.30,3605.0630188,N,14004.9234846,E,4,09,2.22,26.565,M,39.388,M,2.3,0000*52
$GNGGA,115834.40,3605.0629520,N,14004.9234791,E,4,09,2.22,26.558,M,39.388,M,2.4,0000*57
$GNGGA,115834.50,3605.0628934,N,14004.9234741,E,4,09,2.22,26.575,M,39.388,M,2.5,0000*5D
$GNGGA,115834.60,3605.0628300,N,14004.9234694,E,4,09,2.22,26.580,M,39.388,M,2.6,0000*53
$GNGGA,115834.70,3605.0627628,N,14004.9234586,E,4,09,2.22,26.577,M,39.388,M,2.7,0000*5B
$GNGGA,115834.80,3605.0626953,N,14004.9234489,E,4,09,2.22,26.568,M,39.388,M,2.8,0000*59
$GNGGA,115834.90,3605.0626308,N,14004.9234411,E,4,09,2.22,26.579,M,39.388,M,2.9,0000*5C
$GNGGA,115835.00,3605.0625647,N,14004.9234346,E,4,09,2.22,26.572,M,39.388,M,3.0,0000*5F
$GNGGA,115835.10,3605.0625037,N,14004.9234274,E,4,09,2.22,26.565,M,39.388,M,3.1,0000*58
$GNGGA,115835.20,3605.0624324,N,14004.9234210,E,4,09,2.22,26.556,M,39.388,M,3.2,0000*5A
$GNGGA,115835.30,3605.0623648,N,14004.9234105,E,4,09,2.22,26.548,M,39.388,M,3.3,0000*5A
$GNGGA,115835.40,3605.0623019,N,14004.9234039,E,4,09,2.22,26.555,M,39.388,M,3.4,0000*5A
$GNGGA,115835.50,3605.0622369,N,14004.9233966,E,4,09,2.22,26.558,M,39.388,M,3.5,0000*56
$GNGGA,115835.60,3605.0621774,N,14004.9233897,E,4,09,2.22,26.560,M,39.388,M,3.6,0000*59
$GNGGA,115835.70,3605.0621119,N,14004.9233806,E,4,09,2.22,26.545,M,39.388,M,3.7,0000*5B
$GNGGA,115835.80,3605.0620438,N,14004.9233671,E,4,09,2.22,26.543,M,39.388,M,3.8,0000*54
$GNGGA,115835.90,3605.0619815,N,14004.9233590,E,4,09,2.22,26.544,M,39.388,M,3.9,0000*56
$GNGGA,115836.00,3605.0619241,N,14004.9233528,E,4,09,2.22,26.551,M,39.388,M,4.0,0000*5E
$GNGGA,115836.10,3605.0618622,N,14004.9233434,E,4,09,2.22,26.553,M,39.388,M,4.1,0000*50
$GNGGA,115836.20,3605.0617944,N,14004.9233419,E,4,09,2.23,26.550,M,39.388,M,4.2,0000*5D
$GNGGA,115836.30,3605.0617320,N,14004.9233392,E,4,09,2.23,26.550,M,39.388,M,4.3,0000*51
$GNGGA,115836.40,3605.0616699,N,14004.9233313,E,4,09,2.23,26.553,M,39.388,M,4.4,0000*5D
$GNGGA,115836.50,3605.0616066,N,14004.9233327,E,4,09,2.23,26.565,M,39.388,M,4.5,0000*59
$GNGGA,115836.60,3605.0615502,N,14004.9233233,E,4,09,2.23,26.566,M,39.388,M,4.6,0000*5A
$GNGGA,115836.70,3605.0614838,N,14004.9233187,E,4,09,2.23,26.549,M,39.388,M,4.7,0000*5E
$GNGGA,115836.80,3605.0614235,N,14004.9233095,E,4,09,2.23,26.548,M,39.388,M,4.8,0000*5A
$GNGGA,115836.90,3605.0613631,N,14004.9232970,E,4,09,2.23,26.559,M,39.388,M,4.9,0000*5E
$GNGGA,115837.00,3605.0613083,N,14004.9232911,E,4,09,2.23,26.563,M,39.388,M,5.0,0000*5F
$GNGGA,115837.10,3605.0612487,N,14004.9232867,E,4,09,2.23,26.567,M,39.388,M,5.1,0000*5A
$GNGGA,115837.20,3605.0611869,N,14004.9232782,E,4,09,2.23,26.560,M,39.388,M,5.2,0000*56
$GNGGA,115837.30,3605.0611240,N,14004.9232751,E,4,09,2.23,26.545,M,39.388,M,5.3,0000*5E
$GNGGA,115837.40,3605.0610646,N,14004.9232628,E,4,09,2.23,26.549,M,39.388,M,5.4,0000*5E
$GNGGA,115837.50,3605.0610059,N,14004.9232551,E,4,09,2.23,26.555,M,39.388,M,5.5,0000*56
$GNGGA,115837.60,3605.0609474,N,14004.9232417,E,4,09,2.23,26.551,M,39.388,M,5.6,0000*52
$GNGGA,115837.70,3605.0608832,N,14004.9232272,E,4,09,2.23,26.535,M,39.388,M,5.7,0000*5A
$GNGGA,115837.80,3605.0608200,N,14004.9232133,E,4,09,2.23,26.534,M,39.388,M,5.8,0000*56
$GNGGA,115837.90,3605.0607619,N,14004.9231954,E,4,09,2.23,26.541,M,39.388,M,5.9,0000*5D
$GNGGA,115838.00,3605.0607027,N,14004.9231941,E,4,09,2.23,26.545,M,39.388,M,6.0,0000*5A
$GNGGA,115838.10,3605.0606441,N,14004.9231862,E,4,09,2.23,26.546,M,39.388,M,6.1,0000*5C
$GNGGA,115838.20,3605.0605773,N,14004.9231789,E,4,09,2.23,26.531,M,39.388,M,1.2,0000*50
$GNGGA,115838.30,3605.0605071,N,14004.9231852,E,4,09,2.23,26.514,M,39.388,M,1.3,0000*5B
$GNGGA,115838.40,3605.0604425,N,14004.9231830,E,4,09,2.23,26.530,M,39.388,M,1.4,0000*5D
$GNGGA,115838.50,3605.0603800,N,14004.9231743,E,4,09,2.23,26.538,M,39.388,M,1.5,0000*52
$GNGGA,115838.60,3605.0603164,N,14004.9231676,E,4,09,2.23,26.528,M,39.388,M,1.6,0000*5F
$GNGGA,115838.70,3605.0602494,N,14004.9231566,E,4,09,2.23,26.513,M,39.388,M,1.7,0000*5E
$GNGGA,115838.80,3605.0601820,N,14004.9231481,E,4,09,2.23,26.505,M,39.388,M,1.8,0000*51
$GNGGA,115838.90,3605.0601178,N,14004.9231415,E,4,09,2.23,26.516,M,39.388,M,1.9,0000*5A
$GNGGA,115839.00,3605.0600553,N,14004.9231414,E,4,09,2.23,26.525,M,39.388,M,2.0,0000*55
$GNGGA,115839.10,3605.0599916,N,14004.9231376,E,4,09,2.23,26.517,M,39.388,M,2.1,0000*59
$GNGGA,115839.20,3605.0599231,N,14004.9231354,E,4,09,2.23,26.504,M,39.388,M,2.2,0000*55
$GNGGA,115839.30,3605.0598540,N,14004.9231388,E,4,09,2.23,26.499,M,39.388,M,2.3,0000*51
$GNGGA,115839.40,3605.0597936,N,14004.9231386,E,4,09,2.23,26.512,M,39.388,M,2.4,0000*5F
$GNGGA,115839.50,3605.0597307,N,14004.9231311,E,4,09,2.23,26.521,M,39.388,M,2.5,0000*59
$GNGGA,115839.60,3605.0596686,N,14004.9231220,E,4,09,2.23,26.518,M,39.388,M,2.6,0000*5D
$GNGGA,115839.70,3605.0596032,N,14004.9231116,E,4,09,2.23,26.502,M,39.388,M,2.7,0000*59
$GNGGA,115839.80,3605.0595381,N,14004.9231097,E,4,09,2.23,26.511,M,39.388,M,2.8,0000*5B
$GNGGA,115839.90,3605.0594775,N,14004.9231052,E,4,09,2.23,26.520,M,39.388,M,2.9,0000*5E
$GNGGA,115840.00,3605.0594173,N,14004.9230978,E,4,09,2.23,26.514,M,39.388,M,3.0,0000*56
$GNGGA,115840.10,3605.0593508,N,14004.9230961,E,4,09,2.23,26.507,M,39.388,M,3.1,0000*53
$GNGGA,115840.20,3605.0592876,N,14004.9230922,E,4,09,2.23,26.499,M,39.388,M,3.2,0000*57
$GNGGA,115840.30,3605.0592215,N,14004.9230903,E,4,09,2.23,26.494,M,39.388,M,3.3,0000*56
$GNGGA,115840.40,3605.0591620,N,14004.9230873,E,4,09,2.23,26.515,M,39.388,M,3.4,0000*59
$GNGGA,115840.50,3605.0590994,N,14004.9230798,E,4,09,2.23,26.509,M,39.388,M,3.5,0000*5F
$GNGGA,115840.60,3605.0590339,N,14004.9230724,E,4,09,2.23,26.493,M,39.388,M,3.6,0000*57
$GNGGA,115840.70,3605.0589683,N,14004.9230670,E,4,09,2.23,26.486,M,39.388,M,3.7,0000*5F
$GNGGA,115840.80,3605.0589065,N,14004.9230620,E,4,09,2.23,26.491,M,39.388,M,3.8,0000*52
$GNGGA,115840.90,3605.0588495,N,14004.9230570,E,4,09,2.23,26.501,M,39.388,M,3.9,0000*56
$GNGGA,115841.00,3605.0587901,N,14004.9230524,E,4,09,2.23,26.496,M,39.388,M,4.0,0000*51
$GNGGA,115841.10,3605.0587265,N,14004.9230472,E,4,09,2.23,26.490,M,39.388,M,4.1,0000*5C
$GNGGA,115841.20,3605.0586592,N,14004.9230468,E,4,09,2.23,26.477,M,39.388,M,4.2,0000*50
$GNGGA,115841.30,3605.0585971,N,14004.9230446,E,4,09,2.23,26.476,M,39.388,M,4.3,0000*5F
$GNGGA,115841.40,3605.0585345,N,14004.9230406,E,4,09,2.23,26.484,M,39.388,M,4.4,0000*5B
$GNGGA,115841.50,3605.0584760,N,14004.9230366,E,4,09,2.23,26.484,M,39.388,M,4.5,0000*58
$GNGGA,115841.60,3605.0584098,N,14004.9230314,E,4,09,2.23,26.471,M,39.388,M,4.6,0000*57
$GNGGA,115841.70,3605.0583449,N,14004.9230215,E,4,09,2.23,26.456,M,39.388,M,4.7,0000*5D
$GNGGA,115841.80,3605.0582834,N,14004.9230139,E,4,09,2.23,26.468,M,39.388,M,4.8,0000*5A
$GNGGA,115841.90,3605.0582222,N,14004.9230063,E,4,09,2.23,26.470,M,39.388,M,4.9,0000*50
$GNGGA,115842.00,3605.0581625,N,14004.9229992,E,4,09,2.23,26.471,M,39.388,M,5.0,0000*5C
$GNGGA,115842.10,3605.0580943,N,14004.9229935,E,4,09,2.23,26.457,M,39.388,M,5.1,0000*5B
$GNGGA,115842.20,3605.0580293,N,14004.9229925,E,4,09,2.23,26.445,M,39.388,M,5.2,0000*5F
$GNGGA,115842.30,3605.0579619,N,14004.9229911,E,4,09,2.23,26.446,M,39.388,M,5.3,0000*5B
$GNGGA,115842.40,3605.0578997,N,14004.9229871,E,4,09,2.23,26.450,M,39.388,M,5.4,0000*53
$GNGGA,115842.50,3605.0578368,N,14004.9229812,E,4,09,2.23,26.450,M,39.388,M,5.5,0000*5C
$GNGGA,115842.60,3605.0577693,N,14004.9229739,E,4,09,2.23,26.430,M,39.388,M,5.6,0000*52
$GNGGA,115842.70,3605.0577021,N,14004.9229637,E,4,09,2.23,26.428,M,39.388,M,5.7,0000*5B
$GNGGA,115842.80,3605.0576404,N,14004.9229558,E,4,09,2.23,26.437,M,39.388,M,5.8,0000*5D
$GNGGA,115842.90,3605.0575785,N,14004.9229502,E,4,09,2.23,26.442,M,39.388,M,5.9,0000*59
$GNGGA,115843.00,3605.0575187,N,14004.9229425,E,4,09,2.23,26.446,M,39.388,M,6.0,0000*5F
$GNGGA,115843.10,3605.0574497,N,14004.9229389,E,4,09,2.23,26.430,M,39.388,M,6.1,0000*5A
$GNGGA,115843.20,3605.0573835,N,14004.9229336,E,4,09,2.23,26.424,M,39.388,M,6.2,0000*58
$GNGGA,115843.30,3605.0573169,N,14004.9229302,E,4,09,2.23,26.429,M,39.388,M,6.3,0000*52
$GNGGA,115843.40,3605.0572532,N,14004.9229223,E,4,09,2.23,26.430,M,39.388,M,6.4,0000*53
$GNGGA,115843.50,3605.0571896,N,14004.9229171,E,4,09,2.23,26.434,M,39.388,M,6.5,0000*53
$GNGGA,115843.60,3605.0571235,N,14004.9229082,E,4,09,2.23,26.421,M,39.388,M,6.6,0000*59
$GNGGA,115843.70,3605.0570580,N,14004.9229000,E,4,09,2.23,26.416,M,39.388,M,6.7,0000*5F
$GNGGA,115843.80,3605.0569939,N,14004.9228909,E,4,09,2.23,26.431,M,39.388,M,6.8,0000*5D
$GNGGA,115843.90,3605.0569319,N,14004.9228845,E,4,09,2.23,26.440,M,39.388,M,6.9,0000*5A
$GNGGA,115844.00,3605.0568677,N,14004.9228776,E,4,09,2.23,26.430,M,39.388,M,7.0,0000*58
$GNGGA,115844.10,3605.0568029,N,14004.9228687,E,4,09,2.23,26.424,M,39.388,M,7.1,0000*5F
$GNGGA,115844.20,3605.0567386,N,14004.9228644,E,4,09,2.23,26.420,M,39.388,M,2.2,0000*58
$GNGGA,115844.30,3605.0566764,N,14004.9228600,E,4,09,2.23,26.421,M,39.388,M,2.3,0000*50
$GNGGA,115844.40,3605.0566106,N,14004.9228560,E,4,09,2.23,26.430,M,39.388,M,2.4,0000*57
$GNGGA,115844.50,3605.0565479,N,14004.9228425,E,4,09,2.23,26.421,M,39.388,M,2.5,0000*59
$GNGGA,115844.60,3605.0564817,N,14004.9228331,E,4,09,2.23,26.408,M,39.388,M,2.6,0000*55
$GNGGA,115844.70,3605.0564166,N,14004.9228249,E,4,09,2.23,26.416,M,39.388,M,2.7,0000*5B
$GNGGA,115844.80,3605.0563605,N,14004.9228107,E,4,09,2.23,26.422,M,39.388,M,2.8,0000*50
$GNGGA,115844.90,3605.0562968,N,14004.9228027,E,4,09,2.23,26.422,M,39.388,M,2.9,0000*56
$GNGGA,115845.00,3605.0562353,N,14004.9227979,E,4,09,2.23,26.424,M,39.388,M,3.0,0000*5F
$GNGGA,115845.10,3605.0561687,N,14004.9227900,E,4,09,2.23,26.412,M,39.388,M,3.1,0000*5B
$GNGGA,115845.20,3605.0561046,N,14004.9227855,E,4,09,2.23,26.402,M,39.388,M,3.2,0000*50
$GNGGA,115845.30,3605.0560414,N,14004.9227760,E,4,09,2.23,26.418,M,39.388,M,3.3,0000*50
$GNGGA,115845.40,3605.0559786,N,14004.9227699,E,4,09,2.23,26.413,M,39.388,M,3.4,0000*5E
$GNGGA,115845.50,3605.0559136,N,14004.9227591,E,4,09,2.23,26.413,M,39.388,M,3.5,0000*58
$GNGGA,115845.60,3605.0558467,N,14004.9227467,E,4,09,2.23,26.400,M,39.388,M,3.6,0000*52
$GNGGA,115845.70,3605.0557813,N,14004.9227356,E,4,09,2.23,26.400,M,39.388,M,3.7,0000*57
$GNGGA,115845.80,3605.0557210,N,14004.9227294,E,4,09,2.23,26.405,M,39.388,M,3.8,0000*54
$GNGGA,115845.90,3605.0556619,N,14004.9227232,E,4,09,2.23,26.407,M,39.388,M,3.9,0000*56
$GNGGA,115846.00,3605.0555987,N,14004.9227158,E,4,09,2.23,26.395,M,39.388,M,4.0,0000*5A
$GNGGA,115846.10,3605.0555283,N,14004.9227112,E,4,09,2.23,26.379,M,39.388,M,4.1,0000*59
$GNGGA,115846.20,3605.0554644,N,14004.9227091,E,4,09,2.23,26.379,M,39.388,M,4.2,0000*5D
$GNGGA,115846.30,3605.0554006,N,14004.9227057,E,4,09,2.23,26.390,M,39.388,M,4.3,0000*50
$GNGGA,115846.40,3605.0553388,N,14004.9227034,E,4,09,2.23,26.392,M,39.388,M,4.4,0000*55
$GNGGA,115846.50,3605.0552725,N,14004.9227007,E,4,09,2.23,26.371,M,39.388,M,4.5,0000*5A
$GNGGA,115846.60,3605.0552049,N,14004.9226957,E,4,09,2.23,26.371,M,39.388,M,4.6,0000*5A
$GNGGA,115846.70,3605.0551383,N,14004.9226901,E,4,09,2.23,26.370,M,39.388,M,4.7,0000*5E
$GNGGA,115846.80,3605.0550793,N,14004.9226882,E,4,09,2.23,26.375,M,39.388,M,4.8,0000*55
$GNGGA,115846.90,3605.0550132,N,14004.9226842,E,4,09,2.23,26.381,M,39.388,M,4.9,0000*5F
$GNGGA,115847.00,3605.0549476,N,14004.9226810,E,4,09,2.23,26.363,M,39.388,M,5.0,0000*59
$GNGGA,115847.10,3605.0548814,N,14004.9226775,E,4,09,2.23,26.357,M,39.388,M,5.1,0000*5B
$GNGGA,115847.20,3605.0548192,N,14004.9226721,E,4,09,2.23,26.360,M,39.388,M,5.2,0000*59
$GNGGA,115847.30,3605.0547516,N,14004.9226713,E,4,09,2.23,26.368,M,39.388,M,5.3,0000*57
$GNGGA,115847.40,3605.0546884,N,14004.9226661,E,4,09,2.23,26.364,M,39.388,M,5.4,0000*58
$GNGGA,115847.50,3605.0546224,N,14004.9226576,E,4,09,2.23,26.351,M,39.388,M,5.5,0000*5B
$GNGGA,115847.60,3605.0545555,N,14004.9226494,E,4,09,2.23,26.340,M,39.388,M,5.6,0000*54
$GNGGA,115847.70,3605.0544905,N,14004.9226441,E,4,09,2.23,26.352,M,39.388,M,5.7,0000*57
$GNGGA,115847.80,3605.0544311,N,14004.9226370,E,4,09,2.23,26.362,M,39.388,M,5.8,0000*5E
$GNGGA,115847.90,3605.0543678,N,14004.9226272,E,4,09,2.23,26.352,M,39.388,M,5.9,0000*53
$GNGGA,115848.00,3605.0542981,N,14004.9226194,E,4,09,2.23,26.346,M,39.388,M,6.0,0000*59
$GNGGA,115848.10,3605.0542332,N,14004.9226132,E,4,09,2.23,26.331,M,39.388,M,6.1,0000*57
$GNGGA,115848.20,3605.0541697,N,14004.9226056,E,4,09,2.23,26.342,M,39.388,M,1.2,0000*5E
$GNGGA,115848.30,3605.0541044,N,14004.9225934,E,4,09,2.23,26.344,M,39.388,M,1.3,0000*5E
$GNGGA,115848.40,3605.0540420,N,14004.9225840,E,4,09,2.23,26.339,M,39.388,M,1.4,0000*51
$GNGGA,115848.50,3605.0539743,N,14004.9225723,E,4,09,2.23,26.316,M,39.388,M,1.5,0000*5E
$GNGGA,115848.60,3605.0539092,N,14004.9225625,E,4,09,2.23,26.322,M,39.388,M,1.6,0000*55
$GNGGA,115848.70,3605.0538448,N,14004.9225538,E,4,09,2.23,26.330,M,39.388,M,1.7,0000*5B
$GNGGA,115848.80,3605.0537885,N,14004.9225379,E,4,09,2.23,26.338,M,39.388,M,1.8,0000*52
$GNGGA,115848.90,3605.0537210,N,14004.9225267,E,4,09,2.23,26.324,M,39.388,M,1.9,0000*57
$GNGGA,115849.00,3605.0536559,N,14004.9225215,E,4,09,2.23,26.311,M,39.388,M,2.0,0000*5D
$GNGGA,115849.10,3605.0535893,N,14004.9225119,E,4,09,2.23,26.301,M,39.388,M,2.1,0000*5B
$GNGGA,115849.20,3605.0535253,N,14004.9225058,E,4,09,2.24,26.308,M,39.388,M,2.2,0000*57
$GNGGA,115849.30,3605.0534618,N,14004.9224948,E,4,09,2.24,26.310,M,39.388,M,2.3,0000*5D
$GNGGA,115849.40,3605.0533996,N,14004.9224818,E,4,09,2.24,26.300,M,39.388,M,2.4,0000*56
$GNGGA,115849.50,3605.0533295,N,14004.9224723,E,4,09,2.24,26.290,M,39.388,M,2.5,0000*51
$GNGGA,115849.60,3605.0532678,N,14004.9224649,E,4,09,2.24,26.289,M,39.388,M,2.6,0000*52
$GNGGA,115849.70,3605.0532057,N,14004.9224594,E,4,09,2.24,26.299,M,39.388,M,2.7,0000*5B
$GNGGA,115849.80,3605.0531435,N,14004.9224545,E,4,09,2.24,26.305,M,39.388,M,2.8,0000*50
$GNGGA,115849.90,3605.0530790,N,14004.9224465,E,4,09,2.24,26.293,M,39.388,M,2.9,0000*50
$GNGGA,115850.00,3605.0530143,N,14004.9224420,E,4,09,2.24,26.279,M,39.388,M,3.0,0000*54
$GNGGA,115850.10,3605.0529513,N,14004.9224376,E,4,09,2.24,26.284,M,39.388,M,3.1,0000*5B
$GNGGA,115850.20,3605.0528903,N,14004.9224366,E,4,09,2.24,26.286,M,39.388,M,3.2,0000*54
$GNGGA,115850.30,3605.0528268,N,14004.9224311,E,4,09,2.24,26.293,M,39.388,M,3.3,0000*56
$GNGGA,115850.40,3605.0527649,N,14004.9224248,E,4,09,2.24,26.276,M,39.388,M,3.4,0000*58
$GNGGA,115850.50,3605.0526996,N,14004.9224157,E,4,09,2.24,26.269,M,39.388,M,3.5,0000*57
$GNGGA,115850.60,3605.0526349,N,14004.9224116,E,4,09,2.24,26.276,M,39.388,M,3.6,0000*54
$GNGGA,115850.70,3605.0525748,N,14004.9224089,E,4,09,2.24,26.284,M,39.388,M,3.7,0000*58
$GNGGA,115850.80,3605.0525145,N,14004.9224034,E,4,09,2.24,26.285,M,39.388,M,3.8,0000*54
$GNGGA,115850.90,3605.0524481,N,14004.9224029,E,4,09,2.24,26.275,M,39.388,M,3.9,0000*5B
$GNGGA,115851.00,3605.0523829,N,14004.9223973,E,4,09,2.24,26.265,M,39.388,M,4.0,0000*54
$GNGGA,115851.10,3605.0523172,N,14004.9224017,E,4,09,2.24,26.262,M,39.388,M,4.1,0000*58
$GNGGA,115851.20,3605.0522565,N,14004.9223978,E,4,09,2.24,26.263,M,39.388,M,4.2,0000*5D
$GNGGA,115851.30,3605.0521963,N,14004.9223944,E,4,09,2.24,26.269,M,39.388,M,4.3,0000*51
$GNGGA,115851.40,3605.0521291,N,14004.9223912,E,4,09,2.24,26.252,M,39.388,M,4.4,0000*5C
$GNGGA,115851.50,3605.0520629,N,14004.9223807,E,4,09,2.24,26.237,M,39.388,M,4.5,0000*5C
$GNGGA,115851.60,3605.0519959,N,14004.9223784,E,4,09,2.24,26.250,M,39.388,M,4.6,0000*5B
$GNGGA,115851.70,3605.0519379,N,14004.9223762,E,4,09,2.24,26.255,M,39.388,M,4.7,0000*5E
$GNGGA,115851.80,3605.0518763,N,14004.9223707,E,4,09,2.24,26.261,M,39.388,M,4.8,0000*54
$GNGGA,115851.90,3605.0518119,N,14004.9223734,E,4,09,2.24,26.242,M,39.388,M,4.9,0000*5E
$GNGGA,115852.00,3605.0517464,N,14004.9223688,E,4,09,2.24,26.233,M,39.388,M,5.0,0000*5C
$GNGGA,115852.10,3605.0516802,N,14004.9223625,E,4,09,2.24,26.229,M,39.388,M,5.1,0000*5D
$GNGGA,115852.20,3605.0516160,N,14004.9223556,E,4,09,2.24,26.236,M,39.388,M,5.2,0000*59
$GNGGA,115852.30,3605.0515560,N,14004.9223512,E,4,09,2.24,26.242,M,39.388,M,5.3,0000*5D
$GNGGA,115852.40,3605.0514936,N,14004.9223366,E,4,09,2.24,26.222,M,39.388,M,5.4,0000*50
$GNGGA,115852.50,3605.0514254,N,14004.9223250,E,4,09,2.24,26.216,M,39.388,M,5.5,0000*5C
$GNGGA,115852.60,3605.0513678,N,14004.9223131,E,4,09,2.24,26.230,M,39.388,M,5.6,0000*51
$GNGGA,115852.70,3605.0513104,N,14004.9223048,E,4,09,2.24,26.238,M,39.388,M,5.7,0000*5A
$GNGGA,115852.80,3605.0512502,N,14004.9222920,E,4,09,2.24,26.235,M,39.388,M,5.8,0000*52
$GNGGA,115852.90,3605.0511873,N,14004.9222847,E,4,09,2.24,26.228,M,39.388,M,5.9,0000*56
$GNGGA,115853.00,3605.0511245,N,14004.9222721,E,4,09,2.24,26.221,M,39.388,M,6.0,0000*5D
$GNGGA,115853.10,3605.0510628,N,14004.9222662,E,4,09,2.24,26.225,M,39.388,M,6.1,0000*51
$GNGGA,115853.20,3605.0510008,N,14004.9222579,E,4,09,2.24,26.237,M,39.388,M,1.2,0000*58
$GNGGA,115853.30,3605.0509417,N,14004.9222546,E,4,09,2.24,26.235,M,39.388,M,1.3,0000*54
$GNGGA,115853.40,3605.0508809,N,14004.9222378,E,4,09,2.24,26.213,M,39.388,M,1.4,0000*59
$GNGGA,115853.50,3605.0508154,N,14004.9222274,E,4,09,2.24,26.213,M,39.388,M,1.5,0000*55
$GNGGA,115853.60,3605.0507565,N,14004.9222165,E,4,09,2.24,26.220,M,39.388,M,1.6,0000*5F
$GNGGA,115853.70,3605.0506990,N,14004.9222122,E,4,09,2.24,26.227,M,39.388,M,1.7,0000*5C
$GNGGA,115853.80,3605.0506382,N,14004.9222082,E,4,09,2.24,26.223,M,39.388,M,1.8,0000*5A
$GNGGA,115853.90,3605.0505729,N,14004.9222006,E,4,09,2.24,26.209,M,39.388,M,1.9,0000*58
$GNGGA,115854.00,3605.0505100,N,14004.9221930,E,4,09,2.24,26.195,M,39.388,M,2.0,0000*58
$GNGGA,115854.10,3605.0504490,N,14004.9221884,E,4,09,2.24,26.201,M,39.388,M,2.1,0000*55
$GNGGA,115854.20,3605.0503881,N,14004.9221777,E,4,09,2.24,26.207,M,39.388,M,2.2,0000*5B
$GNGGA,115854.30,3605.0503294,N,14004.9221711,E,4,09,2.24,26.207,M,39.388,M,2.3,0000*55
$GNGGA,115854.40,3605.0502666,N,14004.9221611,E,4,09,2.24,26.200,M,39.388,M,2.4,0000*5B
$GNGGA,115854.50,3605.0502046,N,14004.9221463,E,4,09,2.24,26.188,M,39.388,M,2.5,0000*5B
$GNGGA,115854.60,3605.0501477,N,14004.9221341,E,4,09,2.24,26.195,M,39.388,M,2.6,0000*55
$GNGGA,115854.70,3605.0500897,N,14004.9221296,E,4,09,2.24,26.206,M,39.388,M,2.7,0000*54
$GNGGA,115854.80,3605.0500293,N,14004.9221244,E,4,09,2.24,26.192,M,39.388,M,2.8,0000*5B
$GNGGA,115854.90,3605.0499610,N,14004.9221184,E,4,09,2.24,26.185,M,39.388,M,2.9,0000*5C
$GNGGA,115855.00,3605.0498996,N,14004.9221184,E,4,09,2.24,26.172,M,39.388,M,3.0,0000*54
$GNGGA,115855.10,3605.0498353,N,14004.9221139,E,4,09,2.24,26.173,M,39.388,M,3.1,0000*50
$GNGGA,115855.20,3605.0497773,N,14004.9221141,E,4,09,2.24,26.178,M,39.388,M,3.2,0000*5D
$GNGGA,115855.30,3605.0497190,N,14004.9221045,E,4,09,2.24,26.177,M,39.388,M,3.3,0000*5C
$GNGGA,115855.40,3605.0496535,N,14004.9220974,E,4,09,2.24,26.161,M,39.388,M,3.4,0000*5B
$GNGGA,115855.50,3605.0495907,N,14004.9220931,E,4,09,2.24,26.162,M,39.388,M,3.5,0000*57
$GNGGA,115855.60,3605.0495316,N,14004.9220851,E,4,09,2.24,26.166,M,39.388,M,3.6,0000*5E
$GNGGA,115855.70,3605.0494728,N,14004.9220792,E,4,09,2.24,26.172,M,39.388,M,3.7,0000*53
$GNGGA,115855.80,3605.0494130,N,14004.9220756,E,4,09,2.24,26.165,M,39.388,M,3.8,0000*52
$GNGGA,115855.90,3605.0493486,N,14004.9220723,E,4,09,2.24,26.154,M,39.388,M,3.9,0000*5D
$GNGGA,115856.00,3605.0492900,N,14004.9220720,E,4,09,2.24,26.145,M,39.388,M,4.0,0000*58
$GNGGA,115856.10,3605.0492355,N,14004.9220597,E,4,09,2.24,26.162,M,39.388,M,4.1,0000*59
$GNGGA,115856.20,3605.0491758,N,14004.9220506,E,4,09,2.24,26.158,M,39.388,M,4.2,0000*52
$GNGGA,115856.30,3605.0491202,N,14004.9220365,E,4,09,2.24,26.148,M,39.388,M,4.3,0000*5A
$GNGGA,115856.40,3605.0490620,N,14004.9220232,E,4,09,2.24,26.143,M,39.388,M,4.4,0000*57
$GNGGA,115856.50,3605.0490032,N,14004.9220164,E,4,09,2.24,26.146,M,39.388,M,4.5,0000*57
$GNGGA,115856.70,3605.0488985,N,14004.9219975,E,4,09,2.24,26.146,M,39.388,M,4.7,0000*59
$GNGGA,115856.80,3605.0488390,N,14004.9219956,E,4,09,2.24,26.165,M,39.388,M,4.8,0000*57
$GNGGA,115856.90,3605.0487806,N,14004.9219948,E,4,09,2.24,26.135,M,39.388,M,4.9,0000*56
$GNGGA,115857.00,3605.0487246,N,14004.9219872,E,4,09,2.24,26.142,M,39.388,M,5.0,0000*50
$GNGGA,115857.10,3605.0486678,N,14004.9219868,E,4,09,2.24,26.153,M,39.388,M,5.1,0000*53
$GNGGA,115857.20,3605.0486122,N,14004.9219777,E,4,09,2.24,26.151,M,39.388,M,5.2,0000*58
$GNGGA,115857.30,3605.0485544,N,14004.9219643,E,4,09,2.24,26.130,M,39.388,M,5.3,0000*5E
$GNGGA,115857.40,3605.0484932,N,14004.9219510,E,4,09,2.24,26.117,M,39.388,M,5.4,0000*52
$GNGGA,115857.50,3605.0484295,N,14004.9219323,E,4,09,2.24,26.116,M,39.388,M,5.5,0000*53
$GNGGA,115857.60,3605.0483643,N,14004.9219193,E,4,09,2.24,26.140,M,39.388,M,5.6,0000*51
$GNGGA,115857.80,3605.0482563,N,14004.9218960,E,4,09,2.24,26.169,M,39.388,M,5.8,0000*5F
$GNGGA,115857.90,3605.0481985,N,14004.9218900,E,4,09,2.24,26.150,M,39.388,M,5.9,0000*54
$GNGGA,115858.00,3605.0481365,N,14004.9218803,E,4,09,2.24,26.147,M,39.388,M,6.0,0000*58
$GNGGA,115858.10,3605.0480759,N,14004.9218757,E,4,09,2.24,26.156,M,39.388,M,6.1,0000*5C
$GNGGA,115858.30,3605.0479764,N,14004.9218623,E,4,09,2.24,26.146,M,39.388,M,1.3,0000*50
$GNGGA,115858.40,3605.0479162,N,14004.9218517,E,4,09,2.24,26.147,M,39.388,M,1.4,0000*55
$GNGGA,115858.60,3605.0478076,N,14004.9218357,E,4,09,2.24,26.154,M,39.388,M,1.6,0000*50
$GNGGA,115858.80,3605.0477093,N,14004.9218258,E,4,09,2.24,26.157,M,39.388,M,1.8,0000*59
$GNGGA,115858.90,3605.0476531,N,14004.9218173,E,4,09,2.24,26.169,M,39.388,M,1.9,0000*52
$GNGGA,115859.00,3605.0475953,N,14004.9218242,E,4,09,2.24,26.143,M,39.388,M,2.0,0000*52
$GNGGA,115859.10,3605.0475370,N,14004.9218209,E,4,09,2.24,26.153,M,39.388,M,2.1,0000*57
$GNGGA,115859.20,3605.0474785,N,14004.9218209,E,4,09,2.24,26.167,M,39.388,M,2.2,0000*5F
$GNGGA,115859.30,3605.0474203,N,14004.9218138,E,4,09,2.24,26.174,M,39.388,M,2.3,0000*57
$GNGGA,115859.40,3605.0473655,N,14004.9218064,E,4,09,2.24,26.173,M,39.388,M,2.4,0000*58
$GNGGA,115859.50,3605.0473075,N,14004.9217955,E,4,09,2.24,26.174,M,39.388,M,2.5,0000*5F
$GNGGA,115859.60,3605.0472508,N,14004.9217883,E,4,09,2.24,26.162,M,39.388,M,2.6,0000*5C
$GNGGA,115859.70,3605.0471931,N,14004.9217808,E,4,09,2.24,26.165,M,39.388,M,2.7,0000*5D
$GNGGA,115859.80,3605.0471376,N,14004.9217772,E,4,09,2.24,26.164,M,39.388,M,2.8,0000*57
$GNGGA,115900.00,3605.0470262,N,14004.9217682,E,4,09,2.24,26.147,M,39.388,M,3.0,0000*51
$GNGGA,115900.10,3605.0469657,N,14004.9217684,E,4,09,2.24,26.137,M,39.388,M,3.1,0000*5A
$GNGGA,115900.20,3605.0469080,N,14004.9217655,E,4,09,2.24,26.131,M,39.388,M,3.2,0000*5C
$GNGGA,115900.30,3605.0468522,N,14004.9217614,E,4,09,2.24,26.140,M,39.388,M,3.3,0000*53
$GNGGA,115900.50,3605.0467445,N,14004.9217481,E,4,09,2.24,26.134,M,39.388,M,3.5,0000*51
$GNGGA,115900.60,3605.0466904,N,14004.9217461,E,4,09,2.24,26.115,M,39.388,M,3.6,0000*55
$GNGGA,115900.70,3605.0466336,N,14004.9217340,E,4,09,2.24,26.118,M,39.388,M,3.7,0000*57
$GNGGA,115900.80,3605.0465775,N,14004.9217266,E,4,09,2.24,26.119,M,39.388,M,3.8,0000*53
$GNGGA,115901.00,3605.0464756,N,14004.9217285,E,4,09,2.24,26.114,M,39.388,M,4.0,0000*55
$GNGGA,115901.10,3605.0464155,N,14004.9217337,E,4,09,2.24,26.097,M,39.388,M,4.1,0000*52
$GNGGA,115901.30,3605.0463150,N,14004.9217399,E,4,09,2.24,26.090,M,39.388,M,4.3,0000*53
$GNGGA,115901.40,3605.0462601,N,14004.9217375,E,4,09,2.24,26.070,M,39.388,M,4.4,0000*5D
$GNGGA,115901.60,3605.0461617,N,14004.9217328,E,4,09,2.24,26.055,M,39.388,M,4.6,0000*56
$GNGGA,115901.80,3605.0460533,N,14004.9217144,E,4,09,2.24,26.055,M,39.388,M,4.8,0000*5A
$GNGGA,115902.00,3605.0459647,N,14004.9217143,E,4,09,2.24,26.052,M,39.388,M,5.0,0000*52
$GNGGA,115902.20,3605.0458685,N,14004.9217074,E,4,09,2.25,26.043,M,39.388,M,5.2,0000*59
$GNGGA,115902.40,3605.0457832,N,14004.9217104,E,4,09,2.25,26.047,M,39.388,M,5.4,0000*56
$GNGGA,115902.60,3605.0457019,N,14004.9217030,E,4,09,2.25,26.060,M,39.388,M,5.6,0000*54
$GNGGA,115902.80,3605.0456329,N,14004.9217055,E,4,09,2.25,26.032,M,39.388,M,5.8,0000*51
$GNGGA,115903.00,3605.0455598,N,14004.9216882,E,4,09,2.25,26.046,M,39.388,M,6.0,0000*5C
$GNGGA,115903.30,3605.0454815,N,14004.9216810,E,4,09,2.25,26.039,M,39.388,M,1.3,0000*51
$GNGGA,115903.60,3605.0454181,N,14004.9216749,E,4,09,2.25,26.062,M,39.388,M,1.6,0000*58
$GNGGA,115904.00,3605.0453575,N,14004.9216668,E,4,09,2.25,26.042,M,39.388,M,2.0,0000*54
$GNGGA,115904.30,3605.0453065,N,14004.9216436,E,4,09,2.25,26.050,M,39.388,M,2.3,0000*5A
$GNGGA,115905.80,3605.0452610,N,14004.9217053,E,4,09,2.25,26.050,M,39.388,M,3.8,0000*59
$GNGGA,115906.00,3605.0452430,N,14004.9217821,E,4,09,2.25,26.051,M,39.388,M,4.0,0000*51
$GNGGA,115906.20,3605.0452255,N,14004.9218704,E,4,09,2.25,26.041,M,39.388,M,4.2,0000*52
$GNGGA,115906.40,3605.0451950,N,14004.9219636,E,4,09,2.25,26.033,M,39.388,M,4.4,0000*5B
$GNGGA,115906.60,3605.0451646,N,14004.9220354,E,4,09,2.25,26.035,M,39.388,M,4.6,0000*5E
$GNGGA,115906.90,3605.0451112,N,14004.9221028,E,4,09,2.25,26.015,M,39.388,M,4.9,0000*53
$GNGGA,115907.20,3605.0450783,N,14004.9221588,E,4,09,2.25,25.991,M,39.388,M,5.2,0000*55
$GNGGA,115907.50,3605.0450558,N,14004.9222273,E,4,09,2.25,25.964,M,39.388,M,5.5,0000*5B
$GNGGA,115907.80,3605.0450204,N,14004.9222963,E,4,09,2.25,25.952,M,39.388,M,5.8,0000*5A
$GNGGA,115908.10,3605.0449718,N,14004.9223254,E,4,09,2.25,25.950,M,39.388,M,6.1,0000*5A
$GNGGA,115908.60,3605.0449144,N,14004.9222835,E,4,09,2.25,25.962,M,39.388,M,1.6,0000*5F
$GNGGA,115909.00,3605.0449054,N,14004.9222092,E,4,09,2.25,25.978,M,39.388,M,2.0,0000*53
$GNGGA,115909.40,3605.0449433,N,14004.9221525,E,4,09,2.25,25.959,M,39.388,M,2.4,0000*5F
$GNGGA,115909.80,3605.0449960,N,14004.9221304,E,4,09,2.25,25.975,M,39.388,M,2.8,0000*5F
$GNGGA,115910.30,3605.0450454,N,14004.9221583,E,4,09,2.25,25.996,M,39.388,M,3.3,0000*50
$GNGGA,115910.70,3605.0450505,N,14004.9222395,E,4,09,2.25,25.963,M,39.388,M,3.7,0000*5D
$GNGGA,115911.00,3605.0450386,N,14004.9223175,E,4,09,2.25,25.952,M,39.388,M,4.0,0000*59
$GNGGA,115911.50,3605.0449749,N,14004.9223287,E,4,09,2.25,25.978,M,39.388,M,4.5,0000*50
$GNGGA,115911.80,3605.0449681,N,14004.9222566,E,4,09,2.25,25.973,M,39.388,M,4.8,0000*57
$GNGGA,115912.00,3605.0449756,N,14004.9221721,E,4,09,2.25,25.955,M,39.388,M,5.0,0000*58
$GNGGA,115912.20,3605.0449835,N,14004.9220842,E,4,09,2.25,25.966,M,39.388,M,5.2,0000*59
$GNGGA,115912.40,3605.0449897,N,14004.9219983,E,4,09,2.25,25.977,M,39.388,M,5.4,0000*57
$GNGGA,115912.60,3605.0449989,N,14004.9219070,E,4,09,2.25,26.016,M,39.388,M,5.6,0000*51
$GNGGA,115912.80,3605.0450150,N,14004.9218071,E,4,09,2.25,26.033,M,39.388,M,5.8,0000*52
$GNGGA,115913.00,3605.0450255,N,14004.9217084,E,4,09,2.25,26.049,M,39.388,M,6.0,0000*5E
$GNGGA,115913.20,3605.0450290,N,14004.9216053,E,4,09,2.25,26.042,M,39.388,M,6.2,0000*57
$GNGGA,115913.40,3605.0450279,N,14004.9215021,E,4,09,2.25,26.041,M,39.388,M,6.4,0000*55
$GNGGA,115913.60,3605.0450299,N,14004.9214043,E,4,09,2.25,26.041,M,39.388,M,6.6,0000*5E
$GNGGA,115913.80,3605.0450303,N,14004.9213231,E,4,09,2.25,26.039,M,39.388,M,6.8,0000*53
$GNGGA,115914.00,3605.0450287,N,14004.9212390,E,4,09,2.25,26.025,M,39.388,M,7.0,0000*5E
$GNGGA,115914.20,3605.0450282,N,14004.9211656,E,4,09,2.25,26.015,M,39.388,M,2.2,0000*51
$GNGGA,115914.50,3605.0450277,N,14004.9210939,E,4,09,2.25,26.000,M,39.388,M,2.5,0000*58
$GNGGA,115915.00,3605.0450121,N,14004.9210259,E,4,09,2.25,25.974,M,39.388,M,3.0,0000*5C
$GNGGA,115915.40,3605.0450677,N,14004.9210086,E,4,09,2.26,26.002,M,39.388,M,3.4,0000*50
$GNGGA,115915.90,3605.0450414,N,14004.9210784,E,4,09,2.26,26.020,M,39.388,M,3.9,0000*52
$GNGGA,115916.30,3605.0449855,N,14004.9210882,E,4,09,2.26,26.005,M,39.388,M,4.3,0000*59
$GNGGA,115916.90,3605.0450087,N,14004.9210138,E,4,09,2.26,25.984,M,39.388,M,4.9,0000*5D
$GNGGA,115920.10,3605.0450174,N,14004.9209290,E,4,09,2.26,25.970,M,39.388,M,3.1,0000*50
$GNGGA,115920.30,3605.0450346,N,14004.9208356,E,4,09,2.26,25.967,M,39.388,M,3.3,0000*5F
$GNGGA,115920.50,3605.0450552,N,14004.9207274,E,4,09,2.26,25.994,M,39.388,M,3.5,0000*5E
$GNGGA,115920.70,3605.0450697,N,14004.9206146,E,4,09,2.26,26.007,M,39.388,M,3.7,0000*57
$GNGGA,115920.90,3605.0450758,N,14004.9204916,E,4,09,2.26,26.019,M,39.388,M,3.9,0000*55
$GNGGA,115921.00,3605.0450740,N,14004.9204182,E,4,09,2.26,26.010,M,39.388,M,4.0,0000*56
$GNGGA,115921.10,3605.0450776,N,14004.9203508,E,4,09,2.26,26.027,M,39.388,M,4.1,0000*56
$GNGGA,115921.20,3605.0450867,N,14004.9202792,E,4,09,2.26,26.043,M,39.388,M,4.2,0000*5B
$GNGGA,115921.40,3605.0450970,N,14004.9201513,E,4,09,2.26,26.033,M,39.388,M,4.4,0000*53
$GNGGA,115921.60,3605.0451048,N,14004.9200244,E,4,09,2.26,26.024,M,39.388,M,4.6,0000*52
$GNGGA,115921.80,3605.0451134,N,14004.9199184,E,4,09,2.26,26.006,M,39.388,M,4.8,0000*54
$GNGGA,115922.00,3605.0451163,N,14004.9198318,E,4,09,2.26,26.011,M,39.388,M,5.0,0000*54
$GNGGA,115922.20,3605.0451200,N,14004.9197499,E,4,09,2.26,26.001,M,39.388,M,5.2,0000*52
$GNGGA,115922.50,3605.0451249,N,14004.9196692,E,4,09,2.26,26.005,M,39.388,M,5.5,0000*53
$GNGGA,115923.60,3605.0451587,N,14004.9196159,E,4,09,2.26,26.011,M,39.388,M,1.6,0000*56
$GNGGA,115924.30,3605.0451608,N,14004.9196842,E,4,09,2.26,26.032,M,39.388,M,2.3,0000*54
$GNGGA,115927.30,3605.0451204,N,14004.9196372,E,4,09,2.26,26.027,M,39.388,M,5.3,0000*54
$GNGGA,115927.50,3605.0451181,N,14004.9195459,E,4,09,2.26,26.022,M,39.388,M,5.5,0000*52
$GNGGA,115927.70,3605.0451161,N,14004.9194406,E,4,09,2.26,26.031,M,39.388,M,5.7,0000*55
$GNGGA,115927.90,3605.0451287,N,14004.9193337,E,4,09,2.27,26.031,M,39.388,M,5.9,0000*5D
$GNGGA,115928.10,3605.0451457,N,14004.9192154,E,4,09,2.27,26.025,M,39.388,M,6.1,0000*59
$GNGGA,115928.30,3605.0451688,N,14004.9190969,E,4,09,2.27,26.015,M,39.388,M,1.3,0000*59
$GNGGA,115928.50,3605.0451884,N,14004.9189821,E,4,09,2.27,26.017,M,39.388,M,1.5,0000*5C
$GNGGA,115928.70,3605.0451957,N,14004.9188673,E,4,09,2.27,26.010,M,39.388,M,1.7,0000*5C
$GNGGA,115928.90,3605.0452007,N,14004.9187458,E,4,09,2.27,26.001,M,39.388,M,1.9,0000*57
$GNGGA,115929.10,3605.0452109,N,14004.9186588,E,4,09,2.27,26.012,M,39.388,M,2.1,0000*55
$GNGGA,115929.30,3605.0452156,N,14004.9185708,E,4,09,2.27,26.007,M,39.388,M,2.3,0000*52
$GNGGA,115929.50,3605.0452302,N,14004.9185047,E,4,09,2.27,26.018,M,39.388,M,2.5,0000*53
$GNGGA,115929.80,3605.0452414,N,14004.9184250,E,4,09,2.27,26.012,M,39.388,M,2.8,0000*5C
$GNGGA,115930.30,3605.0452313,N,14004.9183508,E,4,09,2.27,26.022,M,39.388,M,3.3,0000*5B
$GNGGA,115932.80,3605.0452558,N,14004.9182632,E,4,09,2.27,25.999,M,39.388,M,5.8,0000*57
$GNGGA,115933.00,3605.0452603,N,14004.9181817,E,4,09,2.27,25.983,M,39.388,M,6.0,0000*59
$GNGGA,115933.20,3605.0452716,N,14004.9180773,E,4,09,2.27,25.998,M,39.388,M,1.2,0000*5D
$GNGGA,115933.40,3605.0452889,N,14004.9179603,E,4,09,2.27,25.991,M,39.388,M,1.4,0000*5D
$GNGGA,115933.60,3605.0453140,N,14004.9178485,E,4,09,2.27,25.987,M,39.388,M,1.6,0000*5A
$GNGGA,115933.80,3605.0453239,N,14004.9177317,E,4,09,2.27,25.985,M,39.388,M,1.8,0000*56
$GNGGA,115934.00,3605.0453292,N,14004.9176226,E,4,09,2.27,25.994,M,39.388,M,2.0,0000*51
$GNGGA,115934.20,3605.0453270,N,14004.9174915,E,4,09,2.27,25.983,M,39.388,M,2.2,0000*52
$GNGGA,115934.40,3605.0453299,N,14004.9173716,E,4,09,2.27,25.983,M,39.388,M,2.4,0000*5F
$GNGGA,115934.60,3605.0453325,N,14004.9172637,E,4,09,2.27,25.985,M,39.388,M,2.6,0000*5C
$GNGGA,115934.80,3605.0453366,N,14004.9171791,E,4,09,2.27,25.993,M,39.388,M,2.8,0000*52
$GNGGA,115935.10,3605.0453361,N,14004.9170850,E,4,09,2.27,25.994,M,39.388,M,3.1,0000*51
$GNGGA,115939.20,3605.0453333,N,14004.9170162,E,4,09,2.27,25.961,M,39.388,M,2.2,0000*59
$GNGGA,115941.00,3605.0453734,N,14004.9170679,E,4,09,2.28,25.956,M,39.388,M,4.0,0000*55
$GNGGA,115941.30,3605.0454378,N,14004.9171297,E,4,09,2.28,25.927,M,39.388,M,4.3,0000*5D
$GNGGA,115941.50,3605.0454858,N,14004.9171697,E,4,09,2.28,25.909,M,39.388,M,4.5,0000*5C
$GNGGA,115941.80,3605.0455565,N,14004.9172148,E,4,09,2.28,25.902,M,39.388,M,4.8,0000*53
$GNGGA,115942.10,3605.0455980,N,14004.9172622,E,4,09,2.28,25.913,M,39.388,M,5.1,0000*5D
$GNGGA,115943.10,3605.0456129,N,14004.9173291,E,4,09,2.28,25.917,M,39.388,M,6.1,0000*5E
$GNGGA,115946.30,3605.0455636,N,14004.9172852,E,4,09,2.28,25.880,M,39.388,M,4.3,0000*58
$GNGGA,115946.60,3605.0455028,N,14004.9172273,E,4,09,2.28,25.865,M,39.388,M,4.6,0000*53
$GNGGA,115946.90,3605.0454593,N,14004.9171793,E,4,09,2.28,25.880,M,39.388,M,4.9,0000*54
$GNGGA,115947.30,3605.0454061,N,14004.9171030,E,4,09,2.28,25.888,M,39.388,M,5.3,0000*5A
$GNGGA,115947.50,3605.0453627,N,14004.9170598,E,4,09,2.28,25.887,M,39.388,M,5.5,0000*50
$GNGGA,115948.00,3605.0453476,N,14004.9169804,E,4,09,2.28,25.880,M,39.388,M,6.0,0000*5D
$GNGGA,115948.30,3605.0453744,N,14004.9169075,E,4,09,2.28,25.845,M,39.388,M,1.3,0000*5F
$GNGGA,115948.50,3605.0453969,N,14004.9168256,E,4,09,2.28,25.861,M,39.388,M,1.5,0000*5A
$GNGGA,115948.70,3605.0454242,N,14004.9167372,E,4,09,2.28,25.889,M,39.388,M,1.7,0000*51
$GNGGA,115948.90,3605.0454367,N,14004.9166491,E,4,09,2.28,25.920,M,39.388,M,1.9,0000*5E
$GNGGA,115949.10,3605.0454503,N,14004.9165623,E,4,09,2.28,25.929,M,39.388,M,2.1,0000*59
$GNGGA,115949.20,3605.0454542,N,14004.9164888,E,4,09,2.28,25.949,M,39.388,M,2.2,0000*54
$GNGGA,115949.40,3605.0454621,N,14004.9163760,E,4,09,2.28,25.968,M,39.388,M,2.4,0000*5F
$GNGGA,115949.60,3605.0454656,N,14004.9162644,E,4,09,2.28,25.990,M,39.388,M,2.6,0000*5E
$GNGGA,115949.80,3605.0454737,N,14004.9161561,E,4,09,2.28,25.991,M,39.388,M,2.8,0000*5E
$GNGGA,115950.00,3605.0454794,N,14004.9160557,E,4,09,2.28,26.014,M,39.388,M,3.0,0000*5D
$GNGGA,115950.20,3605.0454728,N,14004.9159668,E,4,09,2.28,26.014,M,39.388,M,3.2,0000*5F
$GNGGA,115950.40,3605.0454584,N,14004.9158684,E,4,09,2.28,26.009,M,39.388,M,3.4,0000*54
$GNGGA,115950.60,3605.0454357,N,14004.9157941,E,4,09,2.28,26.028,M,39.388,M,3.6,0000*56
$GNGGA,115950.90,3605.0454229,N,14004.9157202,E,4,09,2.28,26.026,M,39.388,M,3.9,0000*5C
$GNGGA,115951.40,3605.0454371,N,14004.9156547,E,4,09,2.28,26.034,M,39.388,M,4.4,0000*52
$GNGGA,115952.80,3605.0454422,N,14004.9155814,E,4,09,2.28,25.936,M,39.388,M,5.8,0000*51
$GNGGA,115954.60,3605.0454155,N,14004.9156486,E,4,09,2.29,25.937,M,39.388,M,2.6,0000*51
$GNGGA,115954.90,3605.0453986,N,14004.9157175,E,4,09,2.29,25.922,M,39.388,M,2.9,0000*5C
$GNGGA,115955.30,3605.0453589,N,14004.9157805,E,4,09,2.29,25.907,M,39.388,M,3.3,0000*56
$GNGGA,115956.30,3605.0454013,N,14004.9158289,E,4,09,2.29,25.904,M,39.388,M,4.3,0000*51
$GNGGA,115957.00,3605.0454548,N,14004.9158486,E,4,09,2.29,25.888,M,39.388,M,5.0,0000*56
$GNGGA,115957.90,3605.0455006,N,14004.9158095,E,4,09,2.29,25.873,M,39.388,M,5.9,0000*5A
$GNGGA,120003.60,3605.0454447,N,14004.9157958,E,4,09,2.29,25.777,M,39.388,M,1.6,0000*5C
$GNGGA,120004.90,3605.0454729,N,14004.9157366,E,4,09,2.29,25.776,M,39.388,M,2.9,0000*55
$GNGGA,120005.30,3605.0455261,N,14004.9157179,E,4,09,2.29,25.765,M,39.388,M,3.3,0000*53
$GNGGA,120005.80,3605.0454856,N,14004.9156729,E,4,09,2.30,25.763,M,39.388,M,3.8,0000*50
$GNGGA,120006.00,3605.0454338,N,14004.9156384,E,4,09,2.30,25.764,M,39.388,M,4.0,0000*53
$GNGGA,120006.30,3605.0453695,N,14004.9156010,E,4,09,2.30,25.768,M,39.388,M,4.3,0000*54
$GNGGA,120006.50,3605.0453109,N,14004.9155855,E,4,09,2.30,25.760,M,39.388,M,4.5,0000*54
$GNGGA,120006.70,3605.0452405,N,14004.9155869,E,4,09,2.30,25.754,M,39.388,M,4.7,0000*54
$GNGGA,120006.90,3605.0451456,N,14004.9156004,E,4,09,2.30,25.743,M,39.388,M,4.9,0000*57
$GNGGA,120007.10,3605.0450341,N,14004.9156136,E,4,09,2.30,25.738,M,39.388,M,5.1,0000*5B
$GNGGA,120007.20,3605.0449769,N,14004.9156107,E,4,09,2.30,25.737,M,39.388,M,5.2,0000*50
$GNGGA,120007.30,3605.0449206,N,14004.9156147,E,4,09,2.30,25.723,M,39.388,M,5.3,0000*5D
$GNGGA,120007.50,3605.0448129,N,14004.9156085,E,4,09,2.30,25.715,M,39.388,M,5.5,0000*58
$GNGGA,120007.70,3605.0447062,N,14004.9156083,E,4,09,2.30,25.705,M,39.388,M,5.7,0000*5E
$GNGGA,120007.90,3605.0446169,N,14004.9156153,E,4,09,2.30,25.712,M,39.388,M,5.9,0000*5F
$GNGGA,120008.10,3605.0445273,N,14004.9156429,E,4,09,2.30,25.694,M,39.388,M,6.1,0000*5F
$GNGGA,120008.30,3605.0444535,N,14004.9157004,E,4,09,2.30,25.665,M,39.388,M,1.3,0000*58
$GNGGA,120008.50,3605.0444029,N,14004.9157733,E,4,09,2.30,25.690,M,39.388,M,1.5,0000*59
$GNGGA,120008.70,3605.0443586,N,14004.9158851,E,4,09,2.30,25.670,M,39.388,M,1.7,0000*54
$GNGGA,120008.80,3605.0443433,N,14004.9159512,E,4,09,2.30,25.680,M,39.388,M,1.8,0000*5F
$GNGGA,120008.90,3605.0443298,N,14004.9160170,E,4,09,2.30,25.680,M,39.388,M,1.9,0000*52
$GNGGA,120009.10,3605.0443177,N,14004.9161507,E,4,09,2.30,25.690,M,39.388,M,2.1,0000*56
$GNGGA,120009.20,3605.0443124,N,14004.9162288,E,4,09,2.30,25.674,M,39.388,M,2.2,0000*59
$GNGGA,120009.30,3605.0443121,N,14004.9163054,E,4,09,2.30,25.675,M,39.388,M,2.3,0000*5F
$GNGGA,120009.40,3605.0443164,N,14004.9163874,E,4,09,2.30,25.688,M,39.388,M,2.4,0000*56
$GNGGA,120009.50,3605.0443108,N,14004.9164604,E,4,09,2.30,25.704,M,39.388,M,2.5,0000*57
$GNGGA,120009.60,3605.0443065,N,14004.9165294,E,4,09,2.30,25.696,M,39.388,M,2.6,0000*5B
$GNGGA,120009.70,3605.0443086,N,14004.9166092,E,4,09,2.30,25.701,M,39.388,M,2.7,0000*5E
$GNGGA,120009.80,3605.0443014,N,14004.9166865,E,4,09,2.30,25.707,M,39.388,M,2.8,0000*53
$GNGGA,120009.90,3605.0442936,N,14004.9167612,E,4,09,2.30,25.695,M,39.388,M,2.9,0000*5E
$GNGGA,120010.10,3605.0442810,N,14004.9168895,E,4,09,2.30,25.724,M,39.388,M,3.1,0000*57
$GNGGA,120010.20,3605.0442735,N,14004.9169574,E,4,09,2.30,25.705,M,39.388,M,3.2,0000*5F
$GNGGA,120010.30,3605.0442627,N,14004.9170313,E,4,09,2.30,25.726,M,39.388,M,3.3,0000*53
$GNGGA,120010.40,3605.0442552,N,14004.9171008,E,4,09,2.30,25.722,M,39.388,M,3.4,0000*5E
$GNGGA,120010.60,3605.0442371,N,14004.9172087,E,4,09,2.30,25.742,M,39.388,M,3.6,0000*5B
$GNGGA,120010.80,3605.0442365,N,14004.9172941,E,4,09,2.30,25.763,M,39.388,M,3.8,0000*5E
$GNGGA,120011.10,3605.0442393,N,14004.9173741,E,4,09,2.30,25.775,M,39.388,M,4.1,0000*59
$GNGGA,120011.40,3605.0442165,N,14004.9174348,E,4,09,2.30,25.768,M,39.388,M,4.4,0000*54
$GNGGA,120011.70,3605.0441593,N,14004.9174818,E,4,09,2.30,25.758,M,39.388,M,4.7,0000*57
$GNGGA,120011.90,3605.0441030,N,14004.9174747,E,4,09,2.30,25.765,M,39.388,M,4.9,0000*50
$GNGGA,120012.10,3605.0440217,N,14004.9174635,E,4,09,2.30,25.737,M,39.388,M,5.1,0000*57
$GNGGA,120012.30,3605.0439119,N,14004.9174549,E,4,09,2.30,25.729,M,39.388,M,5.3,0000*53
$GNGGA,120012.40,3605.0438554,N,14004.9174457,E,4,09,2.30,25.738,M,39.388,M,5.4,0000*51
$GNGGA,120012.50,3605.0438001,N,14004.9174437,E,4,09,2.30,25.744,M,39.388,M,5.5,0000*59
$GNGGA,120012.60,3605.0437435,N,14004.9174477,E,4,09,2.30,25.727,M,39.388,M,5.6,0000*54
$GNGGA,120012.70,3605.0436755,N,14004.9174527,E,4,09,2.30,25.719,M,39.388,M,5.7,0000*59
$GNGGA,120012.80,3605.0436093,N,14004.9174523,E,4,09,2.30,25.719,M,39.388,M,5.8,0000*50
$GNGGA,120012.90,3605.0435486,N,14004.9174563,E,4,09,2.30,25.746,M,39.388,M,5.9,0000*5D
$GNGGA,120013.00,3605.0434827,N,14004.9174472,E,4,09,2.30,25.750,M,39.388,M,6.0,0000*5F
$GNGGA,120013.10,3605.0434174,N,14004.9174422,E,4,09,2.30,25.743,M,39.388,M,6.1,0000*57
$GNGGA,120013.20,3605.0433481,N,14004.9174405,E,4,09,2.30,25.742,M,39.388,M,6.2,0000*5B
$GNGGA,120013.30,3605.0432751,N,14004.9174342,E,4,09,2.30,25.759,M,39.388,M,6.3,0000*5A
$GNGGA,120013.40,3605.0432066,N,14004.9174281,E,4,09,2.30,25.771,M,39.388,M,6.4,0000*5D
$GNGGA,120013.50,3605.0431388,N,14004.9174263,E,4,09,2.30,25.774,M,39.388,M,6.5,0000*54
$GNGGA,120013.60,3605.0430677,N,14004.9174237,E,4,09,2.30,25.784,M,39.388,M,6.6,0000*5E
$GNGGA,120013.70,3605.0429919,N,14004.9174197,E,4,09,2.30,25.766,M,39.388,M,6.7,0000*54
$GNGGA,120013.80,3605.0429197,N,14004.9174149,E,4,09,2.30,25.768,M,39.388,M,6.8,0000*57
$GNGGA,120013.90,3605.0428497,N,14004.9174068,E,4,09,2.30,25.777,M,39.388,M,6.9,0000*5F
$GNGGA,120014.00,3605.0427816,N,14004.9173946,E,4,09,2.30,25.776,M,39.388,M,7.0,0000*50
$GNGGA,120014.10,3605.0427135,N,14004.9173839,E,4,09,2.30,25.766,M,39.388,M,7.1,0000*50
$GNGGA,120014.20,3605.0426436,N,14004.9173763,E,4,09,2.30,25.763,M,39.388,M,2.2,0000*57
$GNGGA,120014.30,3605.0425705,N,14004.9173655,E,4,09,2.30,25.761,M,39.388,M,2.3,0000*51
$GNGGA,120014.40,3605.0425046,N,14004.9173547,E,4,09,2.30,25.771,M,39.388,M,2.4,0000*50
$GNGGA,120014.50,3605.0424418,N,14004.9173508,E,4,09,2.30,25.781,M,39.388,M,2.5,0000*5A
$GNGGA,120014.60,3605.0423761,N,14004.9173443,E,4,09,2.30,25.779,M,39.388,M,2.6,0000*59
$GNGGA,120014.70,3605.0423060,N,14004.9173362,E,4,09,2.30,25.769,M,39.388,M,2.7,0000*5A
$GNGGA,120014.80,3605.0422361,N,14004.9173301,E,4,09,2.30,25.765,M,39.388,M,2.8,0000*50
$GNGGA,120014.90,3605.0421709,N,14004.9173216,E,4,09,2.30,25.781,M,39.388,M,2.9,0000*54
$GNGGA,120015.00,3605.0421043,N,14004.9173134,E,4,09,2.30,25.786,M,39.388,M,3.0,0000*59
$GNGGA,120015.10,3605.0420415,N,14004.9172991,E,4,09,2.30,25.777,M,39.388,M,3.1,0000*57
$GNGGA,120015.20,3605.0419681,N,14004.9172858,E,4,09,2.30,25.766,M,39.388,M,3.2,0000*56
$GNGGA,120015.30,3605.0418974,N,14004.9172751,E,4,09,2.30,25.777,M,39.388,M,3.3,0000*54
$GNGGA,120015.40,3605.0418357,N,14004.9172648,E,4,09,2.30,25.781,M,39.388,M,3.4,0000*5F
$GNGGA,120015.50,3605.0417728,N,14004.9172605,E,4,09,2.30,25.776,M,39.388,M,3.5,0000*5D
$GNGGA,120015.60,3605.0417059,N,14004.9172573,E,4,09,2.30,25.784,M,39.388,M,3.6,0000*53
$GNGGA,120015.70,3605.0416305,N,14004.9172569,E,4,09,2.30,25.762,M,39.388,M,3.7,0000*5B
$GNGGA,120015.80,3605.0415635,N,14004.9172539,E,4,09,2.30,25.763,M,39.388,M,3.8,0000*5A
$GNGGA,120015.90,3605.0414927,N,14004.9172492,E,4,09,2.30,25.771,M,39.388,M,3.9,0000*54
$GNGGA,120016.00,3605.0414288,N,14004.9172486,E,4,09,2.30,25.774,M,39.388,M,4.0,0000*5E
$GNGGA,120016.10,3605.0413656,N,14004.9172425,E,4,09,2.30,25.763,M,39.388,M,4.1,0000*51
$GNGGA,120016.20,3605.0412916,N,14004.9172371,E,4,09,2.30,25.761,M,39.388,M,4.2,0000*5F
$GNGGA,120016.30,3605.0412224,N,14004.9172318,E,4,09,2.30,25.762,M,39.388,M,4.3,0000*59
$GNGGA,120016.40,3605.0411594,N,14004.9172237,E,4,09,2.30,25.770,M,39.388,M,4.4,0000*59
$GNGGA,120016.50,3605.0411002,N,14004.9172209,E,4,09,2.30,25.780,M,39.388,M,4.5,0000*51
$GNGGA,120016.60,3605.0410349,N,14004.9172172,E,4,09,2.30,25.771,M,39.388,M,4.6,0000*5D
$GNGGA,120016.70,3605.0409666,N,14004.9172085,E,4,09,2.30,25.765,M,39.388,M,4.7,0000*51
$GNGGA,120016.80,3605.0408999,N,14004.9172073,E,4,09,2.30,25.766,M,39.388,M,4.8,0000*55
$GNGGA,120016.90,3605.0408372,N,14004.9171960,E,4,09,2.30,25.777,M,39.388,M,4.9,0000*52
$GNGGA,120017.00,3605.0407778,N,14004.9171848,E,4,09,2.30,25.779,M,39.388,M,5.0,0000*56
$GNGGA,120017.10,3605.0407146,N,14004.9171747,E,4,09,2.30,25.772,M,39.388,M,5.1,0000*56
$GNGGA,120017.20,3605.0406501,N,14004.9171576,E,4,09,2.30,25.775,M,39.388,M,5.2,0000*57
$GNGGA,120017.30,3605.0405847,N,14004.9171434,E,4,09,2.30,25.771,M,39.388,M,5.3,0000*58
$GNGGA,120017.40,3605.0405263,N,14004.9171309,E,4,09,2.30,25.787,M,39.388,M,5.4,0000*54
$GNGGA,120017.50,3605.0404702,N,14004.9171243,E,4,09,2.30,25.793,M,39.388,M,5.5,0000*5D
$GNGGA,120017.60,3605.0404094,N,14004.9171153,E,4,09,2.30,25.798,M,39.388,M,5.6,0000*5C
$GNGGA,120017.70,3605.0403435,N,14004.9170983,E,4,09,2.30,25.782,M,39.388,M,5.7,0000*5B
$GNGGA,120017.80,3605.0402806,N,14004.9170901,E,4,09,2.30,25.780,M,39.388,M,5.8,0000*5E
$GNGGA,120017.90,3605.0402166,N,14004.9170822,E,4,09,2.30,25.779,M,39.388,M,5.9,0000*57
$GNGGA,120018.00,3605.0401564,N,14004.9170654,E,4,09,2.30,25.789,M,39.388,M,6.0,0000*5E
$GNGGA,120018.10,3605.0401003,N,14004.9170584,E,4,09,2.30,25.787,M,39.388,M,6.1,0000*5A
$GNGGA,120018.20,3605.0400360,N,14004.9170482,E,4,09,2.30,25.773,M,39.388,M,1.2,0000*56
$GNGGA,120018.30,3605.0399731,N,14004.9170334,E,4,09,2.31,25.780,M,39.388,M,1.3,0000*56
$GNGGA,120018.40,3605.0399179,N,14004.9170271,E,4,09,2.31,25.798,M,39.388,M,1.4,0000*55
$GNGGA,120018.60,3605.0398143,N,14004.9170229,E,4,09,2.31,25.809,M,39.388,M,1.6,0000*57
