$GNGGA,115156.70,3605.0759212,N,14004.7950845,E,4,09,1.40,26.248,M,39.392,M,4.7,0000*57
$GNGGA,115157.50,3605.0759764,N,14004.7950791,E,4,09,1.40,26.242,M,39.392,M,5.5,0000*5F
$GNGGA,115157.70,3605.0760372,N,14004.7951366,E,4,09,1.40,26.230,M,39.392,M,5.7,0000*5E
$GNGGA,115157.90,3605.0761101,N,14004.7951692,E,4,09,1.40,26.243,M,39.392,M,5.9,0000*53
$GNGGA,115158.10,3605.0761961,N,14004.7952208,E,4,09,1.40,26.251,M,39.392,M,6.1,0000*56
$GNGGA,115158.30,3605.0762899,N,14004.7952665,E,4,09,1.40,26.254,M,39.392,M,1.3,0000*5E
$GNGGA,115158.50,3605.0763923,N,14004.7953082,E,4,09,1.40,26.211,M,39.392,M,1.5,0000*50
$GNGGA,115158.60,3605.0764489,N,14004.7953342,E,4,09,1.40,26.200,M,39.392,M,1.6,0000*55
$GNGGA,115158.80,3605.0765468,N,14004.7953798,E,4,09,1.40,26.199,M,39.392,M,1.8,0000*5B
$GNGGA,115158.90,3605.0766059,N,14004.7954084,E,4,09,1.40,26.199,M,39.392,M,1.9,0000*53
$GNGGA,115159.00,3605.0766571,N,14004.7954413,E,4,09,1.40,26.209,M,39.392,M,2.0,0000*5E
$GNGGA,115159.10,3605.0767176,N,14004.7954636,E,4,09,1.40,26.229,M,39.392,M,2.1,0000*5B
$GNGGA,115159.20,3605.0767678,N,14004.7954983,E,4,09,1.40,26.243,M,39.392,M,2.2,0000*5F
$GNGGA,115159.30,3605.0768266,N,14004.7955121,E,4,09,1.40,26.287,M,39.392,M,2.3,0000*52
$GNGGA,115159.40,3605.0768835,N,14004.7955425,E,4,09,1.40,26.310,M,39.392,M,2.4,0000*50
$GNGGA,115159.50,3605.0769532,N,14004.7955611,E,4,09,1.40,26.320,M,39.392,M,2.5,0000*5D
$GNGGA,115159.60,3605.0770076,N,14004.7955988,E,4,09,1.40,26.333,M,39.392,M,2.6,0000*5D
$GNGGA,115159.70,3605.0770725,N,14004.7956345,E,4,09,1.40,26.354,M,39.392,M,2.7,0000*55
$GNGGA,115159.80,3605.0771315,N,14004.7956752,E,4,09,1.40,26.385,M,39.392,M,2.8,0000*5D
$GNGGA,115159.90,3605.0771918,N,14004.7957018,E,4,09,1.40,26.395,M,39.392,M,2.9,0000*53
$GNGGA,115200.00,3605.0772531,N,14004.7957453,E,4,09,1.40,26.402,M,39.392,M,3.0,0000*5B
$GNGGA,115200.10,3605.0773111,N,14004.7957857,E,4,09,1.40,26.408,M,39.392,M,3.1,0000*5E
$GNGGA,115200.20,3605.0773640,N,14004.7958138,E,4,09,1.40,26.423,M,39.392,M,3.2,0000*5B
$GNGGA,115200.30,3605.0774166,N,14004.7958537,E,4,09,1.40,26.415,M,39.392,M,3.3,0000*51
$GNGGA,115200.40,3605.0774778,N,14004.7958874,E,4,09,1.40,26.426,M,39.392,M,3.4,0000*52
$GNGGA,115200.50,3605.0775316,N,14004.7959299,E,4,09,1.40,26.409,M,39.392,M,3.5,0000*5A
$GNGGA,115200.60,3605.0775872,N,14004.7959692,E,4,09,1.40,26.397,M,39.392,M,3.6,0000*5C
$GNGGA,115200.70,3605.0776372,N,14004.7960119,E,4,09,1.40,26.384,M,39.392,M,3.7,0000*58
$GNGGA,115200.80,3605.0776862,N,14004.7960582,E,4,09,1.40,26.377,M,39.392,M,3.8,0000*58
$GNGGA,115200.90,3605.0777373,N,14004.7961055,E,4,09,1.40,26.356,M,39.392,M,3.9,0000*5F
$GNGGA,115201.00,3605.0777900,N,14004.7961581,E,4,09,1.40,26.341,M,39.392,M,4.0,0000*5D
$GNGGA,115201.10,3605.0778401,N,14004.7962049,E,4,09,1.40,26.326,M,39.392,M,4.1,0000*5D
$GNGGA,115201.20,3605.0778847,N,14004.7962568,E,4,09,1.40,26.325,M,39.392,M,4.2,0000*56
$GNGGA,115201.30,3605.0779338,N,14004.7962976,E,4,09,1.40,26.334,M,39.392,M,4.3,0000*57
$GNGGA,115201.40,3605.0779906,N,14004.7963376,E,4,09,1.40,26.321,M,39.392,M,4.4,0000*5F
$GNGGA,115201.50,3605.0780466,N,14004.7963847,E,4,09,1.40,26.326,M,39.392,M,4.5,0000*5C
$GNGGA,115201.60,3605.0781014,N,14004.7964330,E,4,09,1.40,26.314,M,39.392,M,4.6,0000*51
$GNGGA,115201.70,3605.0781593,N,14004.7964825,E,4,09,1.40,26.316,M,39.392,M,4.7,0000*56
$GNGGA,115201.80,3605.0782144,N,14004.7965309,E,4,09,1.40,26.313,M,39.392,M,4.8,0000*5A
$GNGGA,115201.90,3605.0782712,N,14004.7965758,E,4,09,1.40,26.315,M,39.392,M,4.9,0000*59
$GNGGA,115202.00,3605.0783241,N,14004.7966327,E,4,09,1.40,26.306,M,39.392,M,5.0,0000*54
$GNGGA,115202.10,3605.0783765,N,14004.7966871,E,4,09,1.40,26.302,M,39.392,M,5.1,0000*5B
$GNGGA,115202.20,3605.0784289,N,14004.7967376,E,4,09,1.40,26.320,M,39.392,M,5.2,0000*56
$GNGGA,115202.30,3605.0784816,N,14004.7967836,E,4,09,1.40,26.325,M,39.392,M,5.3,0000*50
$GNGGA,115202.40,3605.0785366,N,14004.7968260,E,4,09,1.40,26.320,M,39.392,M,5.4,0000*5E
$GNGGA,115202.50,3605.0785901,N,14004.7968782,E,4,09,1.40,26.317,M,39.392,M,5.5,0000*58
$GNGGA,115202.60,3605.0786441,N,14004.7969291,E,4,09,1.40,26.318,M,39.392,M,5.6,0000*5B
$GNGGA,115202.70,3605.0786975,N,14004.7969848,E,4,09,1.40,26.309,M,39.392,M,5.7,0000*5F
$GNGGA,115202.80,3605.0787432,N,14004.7970435,E,4,09,1.40,26.309,M,39.392,M,5.8,0000*5E
$GNGGA,115202.90,3605.0787919,N,14004.7970986,E,4,09,1.40,26.315,M,39.392,M,5.9,0000*52
$GNGGA,115203.00,3605.0788441,N,14004.7971592,E,4,09,1.40,26.307,M,39.392,M,6.0,0000*54
$GNGGA,115203.10,3605.0788896,N,14004.7972206,E,4,09,1.40,26.305,M,39.392,M,6.1,0000*59
$GNGGA,115203.20,3605.0789374,N,14004.7972693,E,4,09,1.40,26.309,M,39.392,M,1.2,0000*5C
$GNGGA,115203.30,3605.0789862,N,14004.7973141,E,4,09,1.40,26.317,M,39.392,M,1.3,0000*56
$GNGGA,115203.40,3605.0790417,N,14004.7973638,E,4,09,1.40,26.334,M,39.392,M,1.4,0000*58
$GNGGA,115203.50,3605.0790975,N,14004.7974180,E,4,09,1.40,26.347,M,39.392,M,1.5,0000*56
$GNGGA,115203.60,3605.0791533,N,14004.7974696,E,4,09,1.40,26.358,M,39.392,M,1.6,0000*57
$GNGGA,115203.70,3605.0792055,N,14004.7975291,E,4,09,1.40,26.369,M,39.392,M,1.7,0000*51
$GNGGA,115203.80,3605.0792548,N,14004.7975847,E,4,09,1.40,26.385,M,39.392,M,1.8,0000*5B
$GNGGA,115203.90,3605.0793048,N,14004.7976360,E,4,09,1.40,26.382,M,39.392,M,1.9,0000*55
$GNGGA,115204.00,3605.0793526,N,14004.7976906,E,4,09,1.40,26.388,M,39.392,M,2.0,0000*5C
$GNGGA,115204.10,3605.0793998,N,14004.7977524,E,4,09,1.40,26.384,M,39.392,M,2.1,0000*54
$GNGGA,115204.20,3605.0794456,N,14004.7978045,E,4,09,1.40,26.389,M,39.392,M,2.2,0000*5C
$GNGGA,115204.30,3605.0794955,N,14004.7978531,E,4,09,1.40,26.401,M,39.392,M,2.3,0000*53
$GNGGA,115204.40,3605.0795461,N,14004.7978999,E,4,09,1.40,26.401,M,39.392,M,2.4,0000*56
$GNGGA,115204.50,3605.0795928,N,14004.7979595,E,4,09,1.40,26.406,M,39.392,M,2.5,0000*50
$GNGGA,115204.60,3605.0796424,N,14004.7980191,E,4,09,1.40,26.408,M,39.392,M,2.6,0000*5A
$GNGGA,115204.70,3605.0796897,N,14004.7980734,E,4,09,1.40,26.417,M,39.392,M,2.7,0000*59
$GNGGA,115204.80,3605.0797324,N,14004.7981322,E,4,09,1.40,26.423,M,39.392,M,2.8,0000*5E
$GNGGA,115204.90,3605.0797801,N,14004.7981887,E,4,09,1.40,26.416,M,39.392,M,2.9,0000*50
$GNGGA,115205.00,3605.0798297,N,14004.7982464,E,4,09,1.40,26.426,M,39.392,M,3.0,0000*5B
$GNGGA,115205.10,3605.0798710,N,14004.7983059,E,4,09,1.40,26.417,M,39.392,M,3.1,0000*58
$GNGGA,115205.20,3605.0799116,N,14004.7983644,E,4,09,1.40,26.415,M,39.392,M,3.2,0000*51
$GNGGA,115205.30,3605.0799533,N,14004.7984205,E,4,09,1.40,26.422,M,39.392,M,3.3,0000*50
$GNGGA,115205.40,3605.0800005,N,14004.7984710,E,4,09,1.40,26.420,M,39.392,M,3.4,0000*5C
$GNGGA,115205.50,3605.0800486,N,14004.7985276,E,4,09,1.40,26.414,M,39.392,M,3.5,0000*50
$GNGGA,115205.60,3605.0800921,N,14004.7985874,E,4,09,1.40,26.415,M,39.392,M,3.6,0000*59
$GNGGA,115205.70,3605.0801343,N,14004.7986508,E,4,09,1.40,26.414,M,39.392,M,3.7,0000*52
$GNGGA,115205.80,3605.0801799,N,14004.7987081,E,4,09,1.40,26.420,M,39.392,M,3.8,0000*53
$GNGGA,115205.90,3605.0802180,N,14004.7987758,E,4,09,1.40,26.420,M,39.392,M,3.9,0000*5D
$GNGGA,115206.00,3605.0802579,N,14004.7988387,E,4,09,1.40,26.420,M,39.392,M,4.0,0000*52
$GNGGA,115206.10,3605.0802950,N,14004.7989018,E,4,09,1.40,26.422,M,39.392,M,4.1,0000*53
$GNGGA,115206.20,3605.0803297,N,14004.7989670,E,4,09,1.40,26.419,M,39.392,M,4.2,0000*52
$GNGGA,115206.30,3605.0803634,N,14004.7990253,E,4,09,1.40,26.428,M,39.392,M,4.3,0000*50
$GNGGA,115206.40,3605.0803992,N,14004.7990890,E,4,09,1.40,26.428,M,39.392,M,4.4,0000*56
$GNGGA,115206.50,3605.0804380,N,14004.7991563,E,4,09,1.40,26.424,M,39.392,M,4.5,0000*54
$GNGGA,115206.60,3605.0804746,N,14004.7992254,E,4,09,1.40,26.427,M,39.392,M,4.6,0000*59
$GNGGA,115206.70,3605.0805058,N,14004.7992927,E,4,09,1.40,26.432,M,39.392,M,4.7,0000*5B
$GNGGA,115206.80,3605.0805310,N,14004.7993677,E,4,09,1.40,26.441,M,39.392,M,4.8,0000*5B
$GNGGA,115206.90,3605.0805563,N,14004.7994376,E,4,09,1.40,26.450,M,39.392,M,4.9,0000*5A
$GNGGA,115207.00,3605.0805760,N,14004.7995116,E,4,09,1.40,26.456,M,39.392,M,5.0,0000*58
$GNGGA,115207.10,3605.0805918,N,14004.7995905,E,4,09,1.40,26.453,M,39.392,M,5.1,0000*56
$GNGGA,115207.20,3605.0806058,N,14004.7996587,E,4,09,1.40,26.464,M,39.392,M,5.2,0000*59
$GNGGA,115207.30,3605.0806210,N,14004.7997256,E,4,09,1.40,26.474,M,39.392,M,5.3,0000*5C
$GNGGA,115207.40,3605.0806324,N,14004.7997909,E,4,09,1.40,26.481,M,39.392,M,5.4,0000*51
$GNGGA,115207.50,3605.0806455,N,14004.7998655,E,4,09,1.40,26.481,M,39.392,M,5.5,0000*59
$GNGGA,115207.60,3605.0806586,N,14004.7999355,E,4,09,1.40,26.480,M,39.392,M,5.6,0000*53
$GNGGA,115207.70,3605.0806702,N,14004.8000080,E,4,09,1.40,26.482,M,39.392,M,5.7,0000*52
$GNGGA,115207.80,3605.0806725,N,14004.8000777,E,4,09,1.40,26.485,M,39.392,M,5.8,0000*5F
$GNGGA,115208.00,3605.0806742,N,14004.8001888,E,4,09,1.40,26.500,M,39.392,M,6.0,0000*50
$GNGGA,115208.20,3605.0806701,N,14004.8002969,E,4,09,1.40,26.498,M,39.392,M,1.2,0000*5D
$GNGGA,115208.40,3605.0806624,N,14004.8003885,E,4,09,1.40,26.509,M,39.392,M,1.4,0000*50
$GNGGA,115208.70,3605.0806499,N,14004.8004713,E,4,09,1.40,26.517,M,39.392,M,1.7,0000*5C
$GNGGA,115209.40,3605.0805863,N,14004.8004796,E,4,09,1.40,26.504,M,39.392,M,2.4,0000*5B
$GNGGA,115209.70,3605.0805549,N,14004.8004213,E,4,09,1.40,26.477,M,39.392,M,2.7,0000*53
$GNGGA,115210.00,3605.0805464,N,14004.8003509,E,4,09,1.40,26.453,M,39.392,M,3.0,0000*59
$GNGGA,115210.20,3605.0805423,N,14004.8002642,E,4,09,1.40,26.446,M,39.392,M,3.2,0000*53
$GNGGA,115210.40,3605.0805345,N,14004.8001519,E,4,09,1.40,26.440,M,39.392,M,3.4,0000*5C
$GNGGA,115210.50,3605.0805305,N,14004.8000835,E,4,09,1.40,26.435,M,39.392,M,3.5,0000*58
$GNGGA,115210.60,3605.0805309,N,14004.8000153,E,4,09,1.40,26.437,M,39.392,M,3.6,0000*5F
$GNGGA,115210.80,3605.0805329,N,14004.7999004,E,4,09,1.40,26.437,M,39.392,M,3.8,0000*58
$GNGGA,115211.00,3605.0805625,N,14004.7998290,E,4,09,1.40,26.418,M,39.392,M,4.0,0000*54
$GNGGA,115211.20,3605.0806185,N,14004.7997888,E,4,09,1.40,26.414,M,39.392,M,4.2,0000*5A
$GNGGA,115211.40,3605.0806780,N,14004.7997909,E,4,09,1.40,26.408,M,39.392,M,4.4,0000*5C
$GNGGA,115211.60,3605.0807497,N,14004.7998091,E,4,09,1.40,26.391,M,39.392,M,4.6,0000*58
$GNGGA,115211.80,3605.0808175,N,14004.7998566,E,4,09,1.40,26.367,M,39.392,M,4.8,0000*5A
$GNGGA,115212.00,3605.0808869,N,14004.7999284,E,4,09,1.40,26.349,M,39.392,M,5.0,0000*5A
$GNGGA,115212.20,3605.0809551,N,14004.8000246,E,4,09,1.40,26.350,M,39.392,M,5.2,0000*5D
$GNGGA,115212.30,3605.0809847,N,14004.8000812,E,4,09,1.40,26.352,M,39.392,M,5.3,0000*5E
$GNGGA,115212.40,3605.0810147,N,14004.8001376,E,4,09,1.40,26.367,M,39.392,M,5.4,0000*51
$GNGGA,115212.50,3605.0810467,N,14004.8001959,E,4,09,1.40,26.379,M,39.392,M,5.5,0000*5E
$GNGGA,115212.60,3605.0810791,N,14004.8002591,E,4,09,1.40,26.398,M,39.392,M,5.6,0000*50
$GNGGA,115212.70,3605.0811123,N,14004.8003221,E,4,09,1.40,26.410,M,39.392,M,5.7,0000*54
$GNGGA,115212.80,3605.0811449,N,14004.8003858,E,4,09,1.40,26.416,M,39.392,M,5.8,0000*5F
$GNGGA,115212.90,3605.0811751,N,14004.8004548,E,4,09,1.40,26.438,M,39.392,M,5.9,0000*52
$GNGGA,115213.00,3605.0811946,N,14004.8005201,E,4,09,1.40,26.451,M,39.392,M,6.0,0000*5C
$GNGGA,115213.10,3605.0812215,N,14004.8005877,E,4,09,1.40,26.461,M,39.392,M,6.1,0000*5A
$GNGGA,115213.20,3605.0812444,N,14004.8006543,E,4,09,1.40,26.469,M,39.392,M,6.2,0000*59
$GNGGA,115213.30,3605.0812621,N,14004.8007178,E,4,09,1.40,26.475,M,39.392,M,6.3,0000*58
$GNGGA,115213.40,3605.0812821,N,14004.8007843,E,4,09,1.40,26.486,M,39.392,M,6.4,0000*5B
$GNGGA,115213.60,3605.0813222,N,14004.8009110,E,4,09,1.40,26.500,M,39.392,M,6.6,0000*5D
$GNGGA,115213.70,3605.0813424,N,14004.8009760,E,4,09,1.40,26.491,M,39.392,M,6.7,0000*55
$GNGGA,115213.80,3605.0813662,N,14004.8010450,E,4,09,1.40,26.494,M,39.392,M,6.8,0000*58
$GNGGA,115213.90,3605.0813894,N,14004.8011189,E,4,09,1.40,26.496,M,39.392,M,6.9,0000*5D
$GNGGA,115214.00,3605.0814031,N,14004.8011917,E,4,09,1.40,26.491,M,39.392,M,7.0,0000*53
$GNGGA,115214.10,3605.0814238,N,14004.8012592,E,4,09,1.40,26.496,M,39.392,M,7.1,0000*5D
$GNGGA,115214.20,3605.0814421,N,14004.8013309,E,4,09,1.40,26.489,M,39.392,M,2.2,0000*5D
$GNGGA,115214.30,3605.0814590,N,14004.8014055,E,4,09,1.40,26.488,M,39.392,M,2.3,0000*5A
$GNGGA,115214.40,3605.0814785,N,14004.8014728,E,4,09,1.40,26.491,M,39.392,M,2.4,0000*59
$GNGGA,115214.50,3605.0814986,N,14004.8015413,E,4,09,1.40,26.500,M,39.392,M,2.5,0000*57
$GNGGA,115214.60,3605.0815219,N,14004.8016051,E,4,09,1.40,26.500,M,39.392,M,2.6,0000*5A
$GNGGA,115214.70,3605.0815458,N,14004.8016765,E,4,09,1.40,26.498,M,39.392,M,2.7,0000*59
$GNGGA,115214.80,3605.0815768,N,14004.8017474,E,4,09,1.40,26.494,M,39.392,M,2.8,0000*57
$GNGGA,115214.90,3605.0816032,N,14004.8018208,E,4,09,1.40,26.489,M,39.392,M,2.9,0000*52
$GNGGA,115215.00,3605.0816218,N,14004.8018969,E,4,09,1.40,26.499,M,39.392,M,3.0,0000*55
$GNGGA,115215.10,3605.0816436,N,14004.8019653,E,4,09,1.40,26.503,M,39.392,M,3.1,0000*5A
$GNGGA,115215.20,3605.0816672,N,14004.8020423,E,4,09,1.40,26.502,M,39.392,M,3.2,0000*56
$GNGGA,115215.30,3605.0816854,N,14004.8021236,E,4,09,1.40,26.497,M,39.392,M,3.3,0000*52
$GNGGA,115215.40,3605.0816941,N,14004.8022042,E,4,09,1.40,26.495,M,39.392,M,3.4,0000*57
$GNGGA,115215.50,3605.0817112,N,14004.8022737,E,4,09,1.40,26.500,M,39.392,M,3.5,0000*50
$GNGGA,115215.60,3605.0817271,N,14004.8023457,E,4,09,1.40,26.514,M,39.392,M,3.6,0000*57
$GNGGA,115215.70,3605.0817377,N,14004.8024180,E,4,09,1.40,26.498,M,39.392,M,3.7,0000*5D
$GNGGA,115215.80,3605.0817580,N,14004.8024899,E,4,09,1.40,26.503,M,39.392,M,3.8,0000*51
$GNGGA,115215.90,3605.0817675,N,14004.8025619,E,4,09,1.40,26.499,M,39.392,M,3.9,0000*5D
$GNGGA,115216.00,3605.0817769,N,14004.8026378,E,4,09,1.40,26.493,M,39.392,M,4.0,0000*5E
$GNGGA,115216.20,3605.0817910,N,14004.8027618,E,4,09,1.40,26.494,M,39.392,M,4.2,0000*5B
$GNGGA,115216.30,3605.0817878,N,14004.8028299,E,4,09,1.40,26.487,M,39.392,M,4.3,0000*54
$GNGGA,115216.50,3605.0817897,N,14004.8029593,E,4,09,1.40,26.482,M,39.392,M,4.5,0000*5C
$GNGGA,115216.70,3605.0817782,N,14004.8030702,E,4,09,1.40,26.494,M,39.392,M,4.7,0000*52
$GNGGA,115216.90,3605.0817675,N,14004.8031934,E,4,09,1.40,26.480,M,39.392,M,4.9,0000*54
$GNGGA,115217.00,3605.0817562,N,14004.8032595,E,4,09,1.40,26.492,M,39.392,M,5.0,0000*56
$GNGGA,115217.20,3605.0817209,N,14004.8033859,E,4,09,1.40,26.510,M,39.392,M,5.2,0000*5B
$GNGGA,115217.40,3605.0816878,N,14004.8034824,E,4,09,1.40,26.539,M,39.392,M,5.4,0000*50
$GNGGA,115217.60,3605.0816492,N,14004.8035726,E,4,09,1.40,26.544,M,39.392,M,5.6,0000*5E
$GNGGA,115217.80,3605.0816098,N,14004.8036619,E,4,09,1.40,26.507,M,39.392,M,5.8,0000*59
$GNGGA,115218.00,3605.0815952,N,14004.8037417,E,4,09,1.40,26.497,M,39.392,M,6.0,0000*5C
$GNGGA,115218.20,3605.0816050,N,14004.8038257,E,4,09,1.40,26.470,M,39.392,M,1.2,0000*57
$GNGGA,115218.40,3605.0816413,N,14004.8038914,E,4,09,1.40,26.456,M,39.392,M,1.4,0000*5C
$GNGGA,115218.60,3605.0816797,N,14004.8039425,E,4,09,1.40,26.461,M,39.392,M,1.6,0000*59
$GNGGA,115218.80,3605.0817306,N,14004.8040127,E,4,09,1.40,26.456,M,39.392,M,1.8,0000*59
$GNGGA,115219.00,3605.0817772,N,14004.8040976,E,4,09,1.40,26.453,M,39.392,M,2.0,0000*55
$GNGGA,115219.20,3605.0818141,N,14004.8041513,E,4,09,1.40,26.459,M,39.392,M,2.2,0000*58
$GNGGA,115219.60,3605.0818473,N,14004.8042043,E,4,09,1.40,26.509,M,39.392,M,2.6,0000*5B
$GNGGA,115221.10,3605.0819123,N,14004.8042165,E,4,09,1.40,26.457,M,39.392,M,4.1,0000*58
$GNGGA,115221.30,3605.0819738,N,14004.8042649,E,4,09,1.40,26.439,M,39.392,M,4.3,0000*55
$GNGGA,115221.50,3605.0820393,N,14004.8043410,E,4,09,1.40,26.450,M,39.392,M,4.5,0000*5A
$GNGGA,115221.70,3605.0820690,N,14004.8044438,E,4,09,1.40,26.421,M,39.392,M,4.7,0000*57
$GNGGA,115221.80,3605.0820796,N,14004.8045193,E,4,09,1.40,26.417,M,39.392,M,4.8,0000*50
$GNGGA,115221.90,3605.0820875,N,14004.8045892,E,4,09,1.40,26.403,M,39.392,M,4.9,0000*5F
$GNGGA,115222.00,3605.0820893,N,14004.8046640,E,4,09,1.40,26.390,M,39.392,M,5.0,0000*5A
$GNGGA,115222.10,3605.0820940,N,14004.8047417,E,4,09,1.40,26.388,M,39.392,M,5.1,0000*5D
$GNGGA,115222.20,3605.0821047,N,14004.8048185,E,4,09,1.40,26.383,M,39.392,M,5.2,0000*58
$GNGGA,115222.30,3605.0821120,N,14004.8049003,E,4,09,1.40,26.382,M,39.392,M,5.3,0000*57
$GNGGA,115222.40,3605.0821157,N,14004.8049858,E,4,09,1.40,26.397,M,39.392,M,5.4,0000*55
$GNGGA,115222.50,3605.0821149,N,14004.8050743,E,4,09,1.40,26.374,M,39.392,M,5.5,0000*5A
$GNGGA,115222.60,3605.0821240,N,14004.8051640,E,4,09,1.40,26.392,M,39.392,M,5.6,0000*5B
$GNGGA,115222.70,3605.0821180,N,14004.8052435,E,4,09,1.40,26.395,M,39.392,M,5.7,0000*50
$GNGGA,115222.80,3605.0821162,N,14004.8053262,E,4,09,1.40,26.393,M,39.392,M,5.8,0000*5F
$GNGGA,115222.90,3605.0821107,N,14004.8054115,E,4,09,1.40,26.396,M,39.392,M,5.9,0000*5D
$GNGGA,115223.00,3605.0820962,N,14004.8054914,E,4,09,1.40,26.386,M,39.392,M,6.0,0000*5D
$GNGGA,115223.10,3605.0820891,N,14004.8055720,E,4,09,1.40,26.390,M,39.392,M,6.1,0000*5F
$GNGGA,115223.20,3605.0820842,N,14004.8056499,E,4,09,1.40,26.406,M,39.392,M,1.2,0000*5C
$GNGGA,115223.30,3605.0820770,N,14004.8057256,E,4,09,1.40,26.405,M,39.392,M,1.3,0000*55
$GNGGA,115223.40,3605.0820656,N,14004.8058032,E,4,09,1.40,26.397,M,39.392,M,1.4,0000*53
$GNGGA,115223.50,3605.0820632,N,14004.8058863,E,4,09,1.40,26.413,M,39.392,M,1.5,0000*56
$GNGGA,115223.60,3605.0820551,N,14004.8059646,E,4,09,1.40,26.427,M,39.392,M,1.6,0000*5F
$GNGGA,115223.70,3605.0820461,N,14004.8060407,E,4,09,1.40,26.444,M,39.392,M,1.7,0000*55
$GNGGA,115223.80,3605.0820354,N,14004.8061111,E,4,09,1.40,26.447,M,39.392,M,1.8,0000*54
$GNGGA,115223.90,3605.0820283,N,14004.8061864,E,4,09,1.40,26.457,M,39.392,M,1.9,0000*55
$GNGGA,115224.00,3605.0820237,N,14004.8062619,E,4,09,1.40,26.467,M,39.392,M,2.0,0000*5A
$GNGGA,115224.20,3605.0820146,N,14004.8063873,E,4,09,1.40,26.487,M,39.392,M,2.2,0000*52
$GNGGA,115224.40,3605.0820118,N,14004.8065064,E,4,09,1.40,26.501,M,39.392,M,2.4,0000*5E
$GNGGA,115224.50,3605.0820184,N,14004.8065742,E,4,09,1.40,26.502,M,39.392,M,2.5,0000*5B
$GNGGA,115224.60,3605.0820208,N,14004.8066461,E,4,09,1.40,26.508,M,39.392,M,2.6,0000*57
$GNGGA,115224.70,3605.0820150,N,14004.8067151,E,4,09,1.40,26.515,M,39.392,M,2.7,0000*52
$GNGGA,115224.90,3605.0820219,N,14004.8068355,E,4,09,1.40,26.533,M,39.392,M,2.9,0000*51
$GNGGA,115225.10,3605.0820223,N,14004.8069581,E,4,09,1.40,26.534,M,39.392,M,3.1,0000*51
$GNGGA,115225.30,3605.0820175,N,14004.8070669,E,4,09,1.40,26.543,M,39.392,M,3.3,0000*5C
$GNGGA,115225.50,3605.0820144,N,14004.8071635,E,4,09,1.40,26.549,M,39.392,M,3.5,0000*5C
$GNGGA,115225.70,3605.0819997,N,14004.8072513,E,4,09,1.40,26.542,M,39.392,M,3.7,0000*5F
$GNGGA,115226.00,3605.0819592,N,14004.8073214,E,4,09,1.40,26.540,M,39.392,M,4.0,0000*51
$GNGGA,115226.30,3605.0818810,N,14004.8073198,E,4,09,1.40,26.535,M,39.392,M,4.3,0000*52
$GNGGA,115226.50,3605.0818034,N,14004.8072783,E,4,09,1.40,26.547,M,39.392,M,4.5,0000*54
$GNGGA,115226.70,3605.0817249,N,14004.8072389,E,4,09,1.40,26.542,M,39.392,M,4.7,0000*58
$GNGGA,115226.90,3605.0816448,N,14004.8072073,E,4,09,1.40,26.538,M,39.392,M,4.9,0000*55
$GNGGA,115227.10,3605.0815685,N,14004.8072001,E,4,09,1.40,26.555,M,39.392,M,5.1,0000*5B
$GNGGA,115227.30,3605.0814911,N,14004.8072028,E,4,09,1.40,26.562,M,39.392,M,5.3,0000*57
$GNGGA,115227.50,3605.0814246,N,14004.8072085,E,4,09,1.40,26.571,M,39.392,M,5.5,0000*5B
$GNGGA,115227.80,3605.0813522,N,14004.8072022,E,4,09,1.40,26.591,M,39.392,M,5.8,0000*5A
$GNGGA,115228.10,3605.0812990,N,14004.8071854,E,4,09,1.40,26.604,M,39.392,M,6.1,0000*57
$GNGGA,115233.10,3605.0812668,N,14004.8072760,E,4,09,1.40,26.678,M,39.392,M,6.1,0000*55
$GNGGA,115233.30,3605.0812476,N,14004.8073532,E,4,09,1.40,26.683,M,39.392,M,1.3,0000*5F
$GNGGA,115233.50,3605.0812283,N,14004.8074270,E,4,09,1.40,26.709,M,39.392,M,1.5,0000*56
$GNGGA,115233.70,3605.0812116,N,14004.8075011,E,4,09,1.40,26.720,M,39.392,M,1.7,0000*56
$GNGGA,115233.90,3605.0811865,N,14004.8075791,E,4,09,1.40,26.732,M,39.392,M,1.9,0000*54
$GNGGA,115234.10,3605.0811546,N,14004.8076638,E,4,09,1.40,26.747,M,39.392,M,2.1,0000*5F
$GNGGA,115234.30,3605.0811314,N,14004.8077423,E,4,09,1.40,26.754,M,39.392,M,2.3,0000*55
$GNGGA,115234.50,3605.0811166,N,14004.8078420,E,4,09,1.40,26.749,M,39.392,M,2.5,0000*52
$GNGGA,115234.70,3605.0811019,N,14004.8079460,E,4,09,1.40,26.751,M,39.392,M,2.7,0000*57
$GNGGA,115234.90,3605.0810792,N,14004.8080581,E,4,09,1.40,26.752,M,39.392,M,2.9,0000*59
$GNGGA,115235.10,3605.0810611,N,14004.8081769,E,4,09,1.40,26.758,M,39.392,M,3.1,0000*5C
$GNGGA,115235.30,3605.0810413,N,14004.8083060,E,4,09,1.40,26.775,M,39.392,M,3.3,0000*5F
$GNGGA,115235.50,3605.0810390,N,14004.8084293,E,4,09,1.40,26.791,M,39.392,M,3.5,0000*50
$GNGGA,115235.60,3605.0810392,N,14004.8084973,E,4,09,1.40,26.805,M,39.392,M,3.6,0000*55
$GNGGA,115235.70,3605.0810403,N,14004.8085676,E,4,09,1.40,26.802,M,39.392,M,3.7,0000*56
$GNGGA,115235.80,3605.0810374,N,14004.8086378,E,4,09,1.40,26.804,M,39.392,M,3.8,0000*5F
$GNGGA,115235.90,3605.0810296,N,14004.8087046,E,4,09,1.40,26.816,M,39.392,M,3.9,0000*5E
$GNGGA,115236.00,3605.0810208,N,14004.8087709,E,4,09,1.40,26.812,M,39.392,M,4.0,0000*55
$GNGGA,115236.20,3605.0810048,N,14004.8089086,E,4,09,1.40,26.808,M,39.392,M,4.2,0000*56
$GNGGA,115236.30,3605.0809949,N,14004.8089788,E,4,09,1.40,26.800,M,39.392,M,4.3,0000*57
$GNGGA,115236.40,3605.0809903,N,14004.8090505,E,4,09,1.40,26.804,M,39.392,M,4.4,0000*52
$GNGGA,115236.50,3605.0809888,N,14004.8091230,E,4,09,1.40,26.810,M,39.392,M,4.5,0000*55
$GNGGA,115236.70,3605.0809843,N,14004.8092618,E,4,09,1.40,26.810,M,39.392,M,4.7,0000*5F
$GNGGA,115236.80,3605.0809830,N,14004.8093400,E,4,09,1.40,26.809,M,39.392,M,4.8,0000*59
$GNGGA,115236.90,3605.0809833,N,14004.8094126,E,4,09,1.40,26.816,M,39.392,M,4.9,0000*52
$GNGGA,115237.00,3605.0809851,N,14004.8094913,E,4,09,1.40,26.823,M,39.392,M,5.0,0000*5E
$GNGGA,115237.20,3605.0809790,N,14004.8096283,E,4,09,1.40,26.842,M,39.392,M,5.2,0000*5B
$GNGGA,115237.30,3605.0809734,N,14004.8097011,E,4,09,1.40,26.840,M,39.392,M,5.3,0000*5F
$GNGGA,115237.40,3605.0809688,N,14004.8097706,E,4,09,1.40,26.827,M,39.392,M,5.4,0000*59
$GNGGA,115237.50,3605.0809631,N,14004.8098447,E,4,09,1.40,26.834,M,39.392,M,5.5,0000*50
$GNGGA,115237.60,3605.0809589,N,14004.8099189,E,4,09,1.40,26.856,M,39.391,M,5.6,0000*51
$GNGGA,115237.70,3605.0809614,N,14004.8099895,E,4,09,1.40,26.876,M,39.391,M,5.7,0000*50
$GNGGA,115237.80,3605.0809614,N,14004.8100689,E,4,09,1.40,26.899,M,39.391,M,5.8,0000*53
$GNGGA,115237.90,3605.0809655,N,14004.8101470,E,4,09,1.40,26.900,M,39.391,M,5.9,0000*52
$GNGGA,115238.00,3605.0809695,N,14004.8102255,E,4,09,1.40,26.926,M,39.391,M,6.0,0000*54
$GNGGA,115238.10,3605.0809606,N,14004.8103069,E,4,09,1.40,26.926,M,39.391,M,6.1,0000*52
$GNGGA,115238.20,3605.0809601,N,14004.8103828,E,4,09,1.40,26.941,M,39.391,M,1.2,0000*5E
$GNGGA,115238.30,3605.0809488,N,14004.8104551,E,4,09,1.40,26.935,M,39.391,M,1.3,0000*5A
$GNGGA,115238.40,3605.0809421,N,14004.8105389,E,4,09,1.40,26.937,M,39.391,M,1.4,0000*59
$GNGGA,115238.50,3605.0809377,N,14004.8106134,E,4,09,1.40,26.949,M,39.391,M,1.5,0000*53
$GNGGA,115238.60,3605.0809190,N,14004.8106880,E,4,09,1.40,26.954,M,39.391,M,1.6,0000*52
$GNGGA,115238.70,3605.0809129,N,14004.8107585,E,4,09,1.40,26.946,M,39.391,M,1.7,0000*5A
$GNGGA,115238.80,3605.0809089,N,14004.8108273,E,4,09,1.40,26.930,M,39.391,M,1.8,0000*51
$GNGGA,115238.90,3605.0809048,N,14004.8109072,E,4,09,1.40,26.934,M,39.391,M,1.9,0000*5A
$GNGGA,115239.00,3605.0809013,N,14004.8109808,E,4,09,1.40,26.939,M,39.391,M,2.0,0000*5E
$GNGGA,115239.10,3605.0808919,N,14004.8110558,E,4,09,1.40,26.933,M,39.391,M,2.1,0000*56
$GNGGA,115239.20,3605.0808813,N,14004.8111322,E,4,09,1.40,26.931,M,39.391,M,2.2,0000*55
$GNGGA,115239.40,3605.0808627,N,14004.8112779,E,4,09,1.40,26.897,M,39.391,M,2.4,0000*58
$GNGGA,115239.50,3605.0808541,N,14004.8113529,E,4,09,1.40,26.894,M,39.391,M,2.5,0000*5E
$GNGGA,115239.60,3605.0808530,N,14004.8114201,E,4,09,1.40,26.889,M,39.391,M,2.6,0000*5E
$GNGGA,115239.70,3605.0808567,N,14004.8114917,E,4,09,1.40,26.893,M,39.391,M,2.7,0000*5B
$GNGGA,115239.80,3605.0808613,N,14004.8115595,E,4,09,1.40,26.893,M,39.391,M,2.8,0000*5C
$GNGGA,115239.90,3605.0808617,N,14004.8116274,E,4,09,1.40,26.888,M,39.391,M,2.9,0000*59
$GNGGA,115240.00,3605.0808608,N,14004.8117015,E,4,09,1.40,26.876,M,39.391,M,3.0,0000*5D
$GNGGA,115240.10,3605.0808626,N,14004.8117745,E,4,09,1.40,26.875,M,39.391,M,3.1,0000*50
$GNGGA,115240.20,3605.0808564,N,14004.8118479,E,4,09,1.40,26.872,M,39.391,M,3.2,0000*51
$GNGGA,115240.30,3605.0808569,N,14004.8119189,E,4,09,1.40,26.890,M,39.391,M,3.3,0000*5B
$GNGGA,115240.40,3605.0808497,N,14004.8119864,E,4,09,1.40,26.890,M,39.391,M,3.4,0000*51
$GNGGA,115240.50,3605.0808427,N,14004.8120579,E,4,09,1.40,26.888,M,39.391,M,3.5,0000*58
$GNGGA,115240.60,3605.0808372,N,14004.8121302,E,4,09,1.40,26.888,M,39.391,M,3.6,0000*54
$GNGGA,115240.70,3605.0808304,N,14004.8121972,E,4,09,1.40,26.899,M,39.391,M,3.7,0000*58
$GNGGA,115240.80,3605.0808304,N,14004.8122654,E,4,09,1.40,26.899,M,39.391,M,3.8,0000*50
$GNGGA,115241.00,3605.0808312,N,14004.8124006,E,4,09,1.40,26.900,M,39.391,M,4.0,0000*57
$GNGGA,115241.10,3605.0808322,N,14004.8124768,E,4,09,1.40,26.907,M,39.391,M,4.1,0000*5C
$GNGGA,115241.30,3605.0808287,N,14004.8126106,E,4,09,1.40,26.919,M,39.391,M,4.3,0000*51
$GNGGA,115241.50,3605.0808277,N,14004.8127333,E,4,09,1.40,26.911,M,39.391,M,4.5,0000*53
$GNGGA,115241.70,3605.0808211,N,14004.8128594,E,4,09,1.40,26.906,M,39.391,M,4.7,0000*51
$GNGGA,115241.90,3605.0808142,N,14004.8129698,E,4,09,1.40,26.934,M,39.391,M,4.9,0000*5B
$GNGGA,115242.10,3605.0808194,N,14004.8130838,E,4,09,1.40,26.913,M,39.391,M,5.1,0000*5B
$GNGGA,115242.30,3605.0808201,N,14004.8131956,E,4,09,1.40,26.909,M,39.391,M,5.3,0000*57
$GNGGA,115242.50,3605.0808153,N,14004.8133004,E,4,09,1.40,26.923,M,39.391,M,5.5,0000*57
$GNGGA,115242.70,3605.0808094,N,14004.8134050,E,4,09,1.40,26.909,M,39.391,M,5.7,0000*53
$GNGGA,115242.90,3605.0807945,N,14004.8135177,E,4,09,1.40,26.901,M,39.391,M,5.9,0000*54
$GNGGA,115243.10,3605.0807827,N,14004.8136239,E,4,09,1.40,26.910,M,39.391,M,6.1,0000*59
$GNGGA,115243.30,3605.0807761,N,14004.8137456,E,4,09,1.40,26.906,M,39.391,M,6.3,0000*5D
$GNGGA,115243.50,3605.0807649,N,14004.8138808,E,4,09,1.40,26.890,M,39.391,M,6.5,0000*50
$GNGGA,115243.60,3605.0807547,N,14004.8139483,E,4,09,1.40,26.890,M,39.391,M,6.6,0000*53
$GNGGA,115243.70,3605.0807442,N,14004.8140174,E,4,09,1.40,26.885,M,39.391,M,6.7,0000*50
$GNGGA,115243.80,3605.0807402,N,14004.8140875,E,4,09,1.40,26.882,M,39.391,M,6.8,0000*5B
$GNGGA,115243.90,3605.0807291,N,14004.8141546,E,4,09,1.40,26.885,M,39.391,M,6.9,0000*5C
$GNGGA,115244.00,3605.0807182,N,14004.8142276,E,4,09,1.40,26.886,M,39.391,M,7.0,0000*5F
$GNGGA,115244.10,3605.0806995,N,14004.8142970,E,4,09,1.40,26.887,M,39.391,M,7.1,0000*5C
$GNGGA,115244.30,3605.0806829,N,14004.8144230,E,4,09,1.40,26.880,M,39.391,M,2.3,0000*51
$GNGGA,115244.40,3605.0806749,N,14004.8144975,E,4,09,1.40,26.882,M,39.391,M,2.4,0000*50
$GNGGA,115244.50,3605.0806685,N,14004.8145707,E,4,09,1.40,26.886,M,39.391,M,2.5,0000*5F
$GNGGA,115244.70,3605.0806514,N,14004.8146991,E,4,09,1.40,26.882,M,39.391,M,2.7,0000*52
$GNGGA,115244.90,3605.0806413,N,14004.8148101,E,4,09,1.40,26.886,M,39.391,M,2.9,0000*5F
$GNGGA,115245.10,3605.0806161,N,14004.8149131,E,4,09,1.40,26.885,M,39.391,M,3.1,0000*5E
$GNGGA,115245.30,3605.0805979,N,14004.8150047,E,4,09,1.40,26.890,M,39.391,M,3.3,0000*50
$GNGGA,115245.50,3605.0805955,N,14004.8150905,E,4,09,1.40,26.894,M,39.391,M,3.5,0000*55
$GNGGA,115245.70,3605.0805945,N,14004.8151790,E,4,09,1.40,26.890,M,39.391,M,3.7,0000*53
$GNGGA,115245.90,3605.0805964,N,14004.8152746,E,4,09,1.40,26.890,M,39.391,M,3.9,0000*58
$GNGGA,115246.10,3605.0805927,N,14004.8153682,E,4,09,1.40,26.884,M,39.391,M,4.1,0000*56
$GNGGA,115246.30,3605.0805786,N,14004.8154745,E,4,09,1.40,26.883,M,39.391,M,4.3,0000*59
$GNGGA,115246.50,3605.0805576,N,14004.8155905,E,4,09,1.40,26.878,M,39.391,M,4.5,0000*5B
$GNGGA,115246.70,3605.0805438,N,14004.8157008,E,4,09,1.40,26.878,M,39.391,M,4.7,0000*56
$GNGGA,115246.90,3605.0805430,N,14004.8158249,E,4,09,1.40,26.875,M,39.391,M,4.9,0000*5B
$GNGGA,115247.10,3605.0805442,N,14004.8159593,E,4,09,1.40,26.864,M,39.391,M,5.1,0000*5F
$GNGGA,115247.30,3605.0805387,N,14004.8160808,E,4,09,1.40,26.874,M,39.391,M,5.3,0000*55
$GNGGA,115247.50,3605.0805219,N,14004.8162099,E,4,09,1.40,26.862,M,39.391,M,5.5,0000*56
$GNGGA,115247.70,3605.0805070,N,14004.8163325,E,4,09,1.40,26.870,M,39.391,M,5.7,0000*5D
$GNGGA,115247.90,3605.0804986,N,14004.8164422,E,4,09,1.40,26.877,M,39.391,M,5.9,0000*5C
$GNGGA,115248.10,3605.0804899,N,14004.8165660,E,4,09,1.40,26.873,M,39.391,M,6.1,0000*5E
$GNGGA,115248.20,3605.0804897,N,14004.8166337,E,4,09,1.40,26.876,M,39.391,M,1.2,0000*56
$GNGGA,115248.40,3605.0804742,N,14004.8167625,E,4,09,1.40,26.873,M,39.391,M,1.4,0000*53
$GNGGA,115248.60,3605.0804543,N,14004.8168774,E,4,09,1.40,26.871,M,39.391,M,1.6,0000*58
$GNGGA,115248.80,3605.0804345,N,14004.8169929,E,4,09,1.40,26.875,M,39.391,M,1.8,0000*5B
$GNGGA,115249.00,3605.0804247,N,14004.8170936,E,4,09,1.40,26.891,M,39.391,M,2.0,0000*56
$GNGGA,115249.20,3605.0804206,N,14004.8172060,E,4,09,1.40,26.879,M,39.391,M,2.2,0000*5D
$GNGGA,115249.40,3605.0804254,N,14004.8173309,E,4,09,1.40,26.874,M,39.391,M,2.4,0000*5A
$GNGGA,115249.60,3605.0804219,N,14004.8174413,E,4,09,1.40,26.871,M,39.391,M,2.6,0000*5D
$GNGGA,115249.80,3605.0804189,N,14004.8175477,E,4,09,1.40,26.873,M,39.391,M,2.8,0000*56
$GNGGA,115250.00,3605.0804084,N,14004.8176726,E,4,09,1.40,26.873,M,39.391,M,3.0,0000*57
$GNGGA,115250.20,3605.0804030,N,14004.8177826,E,4,09,1.40,26.882,M,39.391,M,3.2,0000*58
$GNGGA,115250.40,3605.0804116,N,14004.8179062,E,4,09,1.40,26.879,M,39.391,M,3.4,0000*5F
$GNGGA,115250.60,3605.0804191,N,14004.8180455,E,4,09,1.40,26.857,M,39.391,M,3.6,0000*5A
$GNGGA,115250.70,3605.0804216,N,14004.8181157,E,4,09,1.40,26.853,M,39.391,M,3.7,0000*54
$GNGGA,115250.90,3605.0804155,N,14004.8182398,E,4,09,1.40,26.852,M,39.391,M,3.9,0000*53
$GNGGA,115251.00,3605.0804150,N,14004.8183100,E,4,09,1.40,26.846,M,39.391,M,4.0,0000*57
$GNGGA,115251.10,3605.0804071,N,14004.8183787,E,4,09,1.40,26.843,M,39.391,M,4.1,0000*59
$GNGGA,115251.30,3605.0803988,N,14004.8184983,E,4,09,1.40,26.846,M,39.391,M,4.3,0000*59
$GNGGA,115251.50,3605.0803944,N,14004.8186191,E,4,09,1.40,26.837,M,39.391,M,4.5,0000*56
$GNGGA,115251.70,3605.0803971,N,14004.8187475,E,4,09,1.40,26.815,M,39.391,M,4.7,0000*5E
$GNGGA,115251.90,3605.0803955,N,14004.8188521,E,4,09,1.40,26.816,M,39.391,M,4.9,0000*54
$GNGGA,115252.10,3605.0803857,N,14004.8189286,E,4,09,1.40,26.823,M,39.391,M,5.1,0000*58
$GNGGA,115252.40,3605.0803601,N,14004.8190074,E,4,09,1.40,26.837,M,39.391,M,5.4,0000*57
$GNGGA,115252.80,3605.0803145,N,14004.8190585,E,4,09,1.40,26.824,M,39.391,M,5.8,0000*59
$GNGGA,115253.30,3605.0802503,N,14004.8190469,E,4,09,1.40,26.814,M,39.391,M,1.3,0000*5B
$GNGGA,115253.60,3605.0801832,N,14004.8190152,E,4,09,1.40,26.789,M,39.391,M,1.6,0000*51
$GNGGA,115253.80,3605.0801072,N,14004.8189805,E,4,09,1.40,26.769,M,39.391,M,1.8,0000*50
$GNGGA,115254.00,3605.0800234,N,14004.8189382,E,4,09,1.40,26.761,M,39.391,M,2.0,0000*59
$GNGGA,115254.20,3605.0799369,N,14004.8189032,E,4,09,1.40,26.756,M,39.391,M,2.2,0000*53
$GNGGA,115254.40,3605.0798440,N,14004.8188877,E,4,09,1.40,26.750,M,39.391,M,2.4,0000*50
$GNGGA,115254.60,3605.0797388,N,14004.8188789,E,4,09,1.40,26.752,M,39.391,M,2.6,0000*50
$GNGGA,115254.80,3605.0796463,N,14004.8188647,E,4,09,1.40,26.759,M,39.391,M,2.8,0000*5B
$GNGGA,115255.00,3605.0795519,N,14004.8188539,E,4,09,1.40,26.758,M,39.391,M,3.0,0000*5F
$GNGGA,115255.20,3605.0794574,N,14004.8188436,E,4,09,1.40,26.765,M,39.391,M,3.2,0000*55
$GNGGA,115255.40,3605.0793689,N,14004.8188477,E,4,09,1.40,26.786,M,39.391,M,3.4,0000*5B
$GNGGA,115255.60,3605.0792809,N,14004.8188661,E,4,09,1.40,26.784,M,39.391,M,3.6,0000*5B
$GNGGA,115255.80,3605.0791959,N,14004.8188950,E,4,09,1.40,26.795,M,39.391,M,3.8,0000*51
$GNGGA,115256.00,3605.0791346,N,14004.8189155,E,4,09,1.40,26.801,M,39.391,M,4.0,0000*5F
$GNGGA,115256.20,3605.0790675,N,14004.8189229,E,4,09,1.40,26.819,M,39.391,M,4.2,0000*5A
$GNGGA,115256.40,3605.0790089,N,14004.8189276,E,4,09,1.40,26.833,M,39.391,M,4.4,0000*5D
$GNGGA,115256.60,3605.0789452,N,14004.8189392,E,4,09,1.40,26.860,M,39.391,M,4.6,0000*5A
$GNGGA,115256.90,3605.0788776,N,14004.8189829,E,4,09,1.40,26.858,M,39.391,M,4.9,0000*5E
$GNGGA,115257.10,3605.0788237,N,14004.8190214,E,4,09,1.40,26.851,M,39.391,M,5.1,0000*5B
$GNGGA,115257.30,3605.0787509,N,14004.8190543,E,4,09,1.40,26.848,M,39.391,M,5.3,0000*53
$GNGGA,115257.50,3605.0786556,N,14004.8190917,E,4,09,1.40,26.873,M,39.391,M,5.5,0000*5D
$GNGGA,115257.60,3605.0785984,N,14004.8191127,E,4,09,1.40,26.878,M,39.391,M,5.6,0000*5C
$GNGGA,115257.80,3605.0785105,N,14004.8191333,E,4,09,1.40,26.946,M,39.391,M,5.8,0000*56
$GNGGA,115258.00,3605.0784340,N,14004.8191909,E,4,09,1.40,26.979,M,39.391,M,6.0,0000*57
$GNGGA,115258.20,3605.0783880,N,14004.8192885,E,4,09,1.40,27.015,M,39.391,M,1.2,0000*54
$GNGGA,115258.40,3605.0783471,N,14004.8194033,E,4,09,1.40,27.061,M,39.391,M,1.4,0000*56
$GNGGA,115258.60,3605.0783203,N,14004.8195329,E,4,09,1.40,27.086,M,39.391,M,1.6,0000*55
$GNGGA,115258.70,3605.0783015,N,14004.8196048,E,4,09,1.40,27.074,M,39.391,M,1.7,0000*5A
$GNGGA,115258.80,3605.0782845,N,14004.8196836,E,4,09,1.40,27.086,M,39.391,M,1.8,0000*5A
$GNGGA,115258.90,3605.0782650,N,14004.8197622,E,4,09,1.40,27.095,M,39.391,M,1.9,0000*58
$GNGGA,115259.00,3605.0782555,N,14004.8198299,E,4,09,1.40,27.107,M,39.391,M,2.0,0000*5D
$GNGGA,115259.10,3605.0782511,N,14004.8199059,E,4,09,1.40,27.100,M,39.391,M,2.1,0000*55
$GNGGA,115259.20,3605.0782391,N,14004.8199920,E,4,09,1.40,27.090,M,39.391,M,2.2,0000*54
$GNGGA,115259.30,3605.0782362,N,14004.8200710,E,4,09,1.40,27.109,M,39.391,M,2.3,0000*57
$GNGGA,115259.40,3605.0782311,N,14004.8201464,E,4,09,1.40,27.119,M,39.391,M,2.4,0000*53
$GNGGA,115259.50,3605.0782197,N,14004.8202289,E,4,09,1.40,27.139,M,39.391,M,2.5,0000*5B
$GNGGA,115259.60,3605.0782124,N,14004.8203105,E,4,09,1.40,27.164,M,39.391,M,2.6,0000*5D
$GNGGA,115259.70,3605.0782050,N,14004.8203903,E,4,09,1.40,27.156,M,39.391,M,2.7,0000*50
$GNGGA,115259.80,3605.0781890,N,14004.8204778,E,4,09,1.40,27.170,M,39.391,M,2.8,0000*56
$GNGGA,115259.90,3605.0781782,N,14004.8205593,E,4,09,1.40,27.187,M,39.391,M,2.9,0000*54
$GNGGA,115300.00,3605.0781668,N,14004.8206434,E,4,09,1.40,27.198,M,39.391,M,3.0,0000*5C
$GNGGA,115300.10,3605.0781669,N,14004.8207189,E,4,09,1.40,27.196,M,39.391,M,3.1,0000*51
$GNGGA,115300.20,3605.0781572,N,14004.8208056,E,4,09,1.40,27.188,M,39.391,M,3.2,0000*5B
$GNGGA,115300.30,3605.0781565,N,14004.8208936,E,4,09,1.40,27.176,M,39.391,M,3.3,0000*53
$GNGGA,115300.40,3605.0781545,N,14004.8209811,E,4,09,1.40,27.181,M,39.391,M,3.4,0000*5C
$GNGGA,115300.50,3605.0781492,N,14004.8210656,E,4,09,1.40,27.188,M,39.391,M,3.5,0000*5B
$GNGGA,115300.60,3605.0781445,N,14004.8211527,E,4,09,1.40,27.178,M,39.391,M,3.6,0000*5A
$GNGGA,115300.70,3605.0781380,N,14004.8212360,E,4,09,1.40,27.178,M,39.391,M,3.7,0000*52
$GNGGA,115300.80,3605.0781307,N,14004.8213293,E,4,09,1.40,27.175,M,39.391,M,3.8,0000*5C
$GNGGA,115300.90,3605.0781223,N,14004.8214118,E,4,09,1.40,27.178,M,39.391,M,3.9,0000*51
$GNGGA,115301.00,3605.0781124,N,14004.8214925,E,4,09,1.40,27.182,M,39.391,M,4.0,0000*50
$GNGGA,115301.10,3605.0781012,N,14004.8215759,E,4,09,1.40,27.187,M,39.391,M,4.1,0000*55
$GNGGA,115301.20,3605.0780963,N,14004.8216670,E,4,09,1.40,27.179,M,39.391,M,4.2,0000*53
$GNGGA,115301.30,3605.0780934,N,14004.8217591,E,4,09,1.40,27.169,M,39.391,M,4.3,0000*5D
$GNGGA,115301.40,3605.0780876,N,14004.8218400,E,4,09,1.40,27.181,M,39.391,M,4.4,0000*5A
$GNGGA,115301.50,3605.0780821,N,14004.8219316,E,4,09,1.40,27.186,M,39.391,M,4.5,0000*5E
$GNGGA,115301.60,3605.0780788,N,14004.8220168,E,4,09,1.40,27.184,M,39.391,M,4.6,0000*51
$GNGGA,115301.70,3605.0780752,N,14004.8221044,E,4,09,1.40,27.168,M,39.391,M,4.7,0000*5A
$GNGGA,115301.80,3605.0780630,N,14004.8221878,E,4,09,1.40,27.181,M,39.391,M,4.8,0000*5F
$GNGGA,115301.90,3605.0780579,N,14004.8222763,E,4,09,1.40,27.181,M,39.391,M,4.9,0000*57
$GNGGA,115302.00,3605.0780530,N,14004.8223538,E,4,09,1.40,27.184,M,39.391,M,5.0,0000*50
$GNGGA,115302.10,3605.0780467,N,14004.8224361,E,4,09,1.40,27.182,M,39.391,M,5.1,0000*58
$GNGGA,115302.20,3605.0780461,N,14004.8225256,E,4,09,1.40,27.180,M,39.391,M,5.2,0000*58
$GNGGA,115302.30,3605.0780422,N,14004.8226173,E,4,09,1.40,27.172,M,39.391,M,5.3,0000*55
$GNGGA,115302.40,3605.0780373,N,14004.8226957,E,4,09,1.40,27.165,M,39.391,M,5.4,0000*5E
$GNGGA,115302.50,3605.0780228,N,14004.8227818,E,4,09,1.40,27.171,M,39.391,M,5.5,0000*5F
$GNGGA,115302.60,3605.0780187,N,14004.8228624,E,4,09,1.40,27.179,M,39.391,M,5.6,0000*5F
$GNGGA,115302.70,3605.0780097,N,14004.8229452,E,4,09,1.40,27.169,M,39.391,M,5.7,0000*5C
$GNGGA,115302.80,3605.0779913,N,14004.8230445,E,4,09,1.40,27.164,M,39.391,M,5.8,0000*5C
$GNGGA,115302.90,3605.0779831,N,14004.8231243,E,4,09,1.40,27.170,M,39.391,M,5.9,0000*59
$GNGGA,115303.00,3605.0779742,N,14004.8232012,E,4,09,1.40,27.179,M,39.391,M,6.0,0000*5C
$GNGGA,115303.10,3605.0779703,N,14004.8232898,E,4,09,1.40,27.178,M,39.391,M,6.1,0000*52
$GNGGA,115303.20,3605.0779742,N,14004.8233744,E,4,09,1.40,27.183,M,39.391,M,1.2,0000*5B
$GNGGA,115303.30,3605.0779719,N,14004.8234655,E,4,09,1.40,27.170,M,39.391,M,1.3,0000*5F
$GNGGA,115303.40,3605.0779662,N,14004.8235474,E,4,09,1.40,27.167,M,39.391,M,1.4,0000*54
$GNGGA,115303.50,3605.0779633,N,14004.8236260,E,4,09,1.40,27.181,M,39.391,M,1.5,0000*58
$GNGGA,115303.60,3605.0779595,N,14004.8237146,E,4,09,1.40,27.179,M,39.391,M,1.6,0000*56
$GNGGA,115303.70,3605.0779543,N,14004.8238036,E,4,09,1.40,27.164,M,39.391,M,1.7,0000*58
$GNGGA,115303.80,3605.0779431,N,14004.8238859,E,4,09,1.40,27.169,M,39.391,M,1.8,0000*50
$GNGGA,115303.90,3605.0779430,N,14004.8239646,E,4,09,1.40,27.175,M,39.391,M,1.9,0000*5D
$GNGGA,115304.00,3605.0779359,N,14004.8240473,E,4,09,1.40,27.178,M,39.391,M,2.0,0000*56
$GNGGA,115304.10,3605.0779386,N,14004.8241292,E,4,09,1.40,27.177,M,39.391,M,2.1,0000*53
$GNGGA,115304.20,3605.0779425,N,14004.8242143,E,4,09,1.40,27.168,M,39.391,M,2.2,0000*5F
$GNGGA,115304.30,3605.0779423,N,14004.8243023,E,4,09,1.40,27.178,M,39.391,M,2.3,0000*5E
$GNGGA,115304.40,3605.0779388,N,14004.8243789,E,4,09,1.40,27.178,M,39.391,M,2.4,0000*5F
$GNGGA,115304.50,3605.0779357,N,14004.8244641,E,4,09,1.40,27.182,M,39.391,M,2.5,0000*5A
$GNGGA,115304.60,3605.0779277,N,14004.8245465,E,4,09,1.40,27.179,M,39.391,M,2.6,0000*58
$GNGGA,115304.70,3605.0779237,N,14004.8246264,E,4,09,1.40,27.173,M,39.391,M,2.7,0000*52
$GNGGA,115304.80,3605.0779112,N,14004.8247157,E,4,09,1.40,27.176,M,39.391,M,2.8,0000*51
$GNGGA,115304.90,3605.0779003,N,14004.8247961,E,4,09,1.40,27.174,M,39.391,M,2.9,0000*5F
$GNGGA,115305.00,3605.0778958,N,14004.8248724,E,4,09,1.40,27.183,M,39.391,M,3.0,0000*51
$GNGGA,115305.10,3605.0778956,N,14004.8249539,E,4,09,1.40,27.187,M,39.391,M,3.1,0000*54
$GNGGA,115305.20,3605.0778958,N,14004.8250358,E,4,09,1.40,27.187,M,39.391,M,3.2,0000*53
$GNGGA,115305.30,3605.0778939,N,14004.8251111,E,4,09,1.40,27.183,M,39.391,M,3.3,0000*5E
$GNGGA,115305.40,3605.0778810,N,14004.8251984,E,4,09,1.40,27.196,M,39.391,M,3.4,0000*54
$GNGGA,115305.50,3605.0778719,N,14004.8252702,E,4,09,1.40,27.189,M,39.391,M,3.5,0000*5F
$GNGGA,115305.60,3605.0778658,N,14004.8253434,E,4,09,1.40,27.182,M,39.391,M,3.6,0000*57
$GNGGA,115305.70,3605.0778632,N,14004.8254326,E,4,09,1.40,27.175,M,39.391,M,3.7,0000*50
$GNGGA,115305.80,3605.0778581,N,14004.8255050,E,4,09,1.40,27.173,M,39.391,M,3.8,0000*5E
$GNGGA,115305.90,3605.0778471,N,14004.8255768,E,4,09,1.40,27.185,M,39.391,M,3.9,0000*55
$GNGGA,115306.10,3605.0778354,N,14004.8257092,E,4,09,1.40,27.180,M,39.391,M,4.1,0000*54
$GNGGA,115306.30,3605.0778310,N,14004.8258291,E,4,09,1.40,27.164,M,39.391,M,4.3,0000*50
$GNGGA,115306.50,3605.0778185,N,14004.8259364,E,4,09,1.40,27.150,M,39.391,M,4.5,0000*53
$GNGGA,115306.70,3605.0778074,N,14004.8260495,E,4,09,1.40,27.140,M,39.391,M,4.7,0000*5E
$GNGGA,115306.90,3605.0777834,N,14004.8261594,E,4,09,1.40,27.130,M,39.391,M,4.9,0000*5B
$GNGGA,115307.10,3605.0777795,N,14004.8262593,E,4,09,1.40,27.133,M,39.391,M,5.1,0000*58
$GNGGA,115307.30,3605.0777689,N,14004.8263432,E,4,09,1.40,27.143,M,39.391,M,5.3,0000*58
$GNGGA,115307.50,3605.0777740,N,14004.8264199,E,4,09,1.40,27.130,M,39.391,M,5.5,0000*5B
$GNGGA,115307.80,3605.0777710,N,14004.8265018,E,4,09,1.40,27.145,M,39.391,M,5.8,0000*55
$GNGGA,115309.10,3605.0777715,N,14004.8265769,E,4,09,1.40,27.206,M,39.391,M,2.1,0000*5C
$GNGGA,115309.50,3605.0777683,N,14004.8266578,E,4,09,1.40,27.193,M,39.391,M,2.5,0000*5C
$GNGGA,115309.70,3605.0777556,N,14004.8267484,E,4,09,1.40,27.169,M,39.391,M,2.7,0000*51
$GNGGA,115309.90,3605.0777411,N,14004.8268469,E,4,09,1.40,27.157,M,39.391,M,2.9,0000*52
$GNGGA,115310.10,3605.0777335,N,14004.8269617,E,4,09,1.40,27.161,M,39.391,M,3.1,0000*55
$GNGGA,115310.30,3605.0777335,N,14004.8270827,E,4,09,1.40,27.164,M,39.391,M,3.3,0000*55
$GNGGA,115310.40,3605.0777337,N,14004.8271500,E,4,09,1.40,27.167,M,39.391,M,3.4,0000*5D
$GNGGA,115310.50,3605.0777277,N,14004.8272164,E,4,09,1.40,27.172,M,39.391,M,3.5,0000*59
$GNGGA,115310.70,3605.0777221,N,14004.8273519,E,4,09,1.40,27.167,M,39.391,M,3.7,0000*51
$GNGGA,115310.90,3605.0777049,N,14004.8274970,E,4,09,1.40,27.160,M,39.391,M,3.9,0000*5E
$GNGGA,115311.00,3605.0777000,N,14004.8275661,E,4,09,1.40,27.158,M,39.391,M,4.0,0000*50
$GNGGA,115311.10,3605.0776945,N,14004.8276358,E,4,09,1.40,27.173,M,39.391,M,4.1,0000*5C
$GNGGA,115311.20,3605.0776896,N,14004.8277143,E,4,09,1.40,27.181,M,39.391,M,4.2,0000*57
$GNGGA,115311.30,3605.0776863,N,14004.8277867,E,4,09,1.40,27.173,M,39.391,M,4.3,0000*5F
$GNGGA,115311.40,3605.0776863,N,14004.8278644,E,4,09,1.40,27.171,M,39.391,M,4.4,0000*5D
$GNGGA,115311.50,3605.0776772,N,14004.8279376,E,4,09,1.40,27.174,M,39.391,M,4.5,0000*52
$GNGGA,115311.60,3605.0776677,N,14004.8280062,E,4,09,1.40,27.168,M,39.391,M,4.6,0000*5B
$GNGGA,115311.70,3605.0776635,N,14004.8280782,E,4,09,1.40,27.170,M,39.391,M,4.7,0000*5D
$GNGGA,115311.80,3605.0776572,N,14004.8281452,E,4,09,1.40,27.167,M,39.391,M,4.8,0000*54
$GNGGA,115311.90,3605.0776530,N,14004.8282240,E,4,09,1.40,27.159,M,39.391,M,4.9,0000*59
$GNGGA,115312.00,3605.0776452,N,14004.8283067,E,4,09,1.40,27.164,M,39.391,M,5.0,0000*56
$GNGGA,115312.10,3605.0776386,N,14004.8283845,E,4,09,1.40,27.171,M,39.391,M,5.1,0000*54
$GNGGA,115312.20,3605.0776325,N,14004.8284543,E,4,09,1.40,27.171,M,39.391,M,5.2,0000*51
$GNGGA,115312.30,3605.0776313,N,14004.8285265,E,4,09,1.40,27.182,M,39.391,M,5.3,0000*5A
$GNGGA,115312.40,3605.0776256,N,14004.8286075,E,4,09,1.40,27.172,M,39.391,M,5.4,0000*55
$GNGGA,115312.50,3605.0776312,N,14004.8286928,E,4,09,1.40,27.175,M,39.391,M,5.5,0000*52
$GNGGA,115312.60,3605.0776224,N,14004.8287704,E,4,09,1.40,27.179,M,39.391,M,5.6,0000*5B
$GNGGA,115312.70,3605.0776142,N,14004.8288444,E,4,09,1.40,27.181,M,39.391,M,5.7,0000*57
$GNGGA,115312.80,3605.0776131,N,14004.8289206,E,4,09,1.40,27.183,M,39.391,M,5.8,0000*50
$GNGGA,115312.90,3605.0776102,N,14004.8289958,E,4,09,1.40,27.185,M,39.391,M,5.9,0000*56
$GNGGA,115313.00,3605.0776023,N,14004.8290771,E,4,09,1.40,27.174,M,39.391,M,6.0,0000*55
$GNGGA,115313.10,3605.0775913,N,14004.8291557,E,4,09,1.40,27.174,M,39.391,M,6.1,0000*5B
$GNGGA,115313.20,3605.0775870,N,14004.8292313,E,4,09,1.40,27.180,M,39.391,M,6.2,0000*51
$GNGGA,115313.40,3605.0775861,N,14004.8293636,E,4,09,1.40,27.187,M,39.391,M,6.4,0000*55
$GNGGA,115313.50,3605.0775939,N,14004.8294368,E,4,09,1.40,27.193,M,39.391,M,6.5,0000*55
$GNGGA,115313.70,3605.0776001,N,14004.8295590,E,4,09,1.40,27.192,M,39.391,M,6.7,0000*55
$GNGGA,115313.90,3605.0776004,N,14004.8296754,E,4,09,1.40,27.193,M,39.391,M,6.9,0000*58
$GNGGA,115314.10,3605.0776113,N,14004.8297899,E,4,09,1.40,27.197,M,39.391,M,7.1,0000*52
$GNGGA,115314.30,3605.0776418,N,14004.8298815,E,4,09,1.40,27.201,M,39.391,M,2.3,0000*5E
$GNGGA,115314.50,3605.0776883,N,14004.8299416,E,4,09,1.40,27.201,M,39.391,M,2.5,0000*5E
$GNGGA,115314.70,3605.0777669,N,14004.8299823,E,4,09,1.40,27.182,M,39.391,M,2.7,0000*57
$GNGGA,115314.90,3605.0778724,N,14004.8299994,E,4,09,1.40,27.164,M,39.391,M,2.9,0000*55
$GNGGA,115315.00,3605.0779306,N,14004.8300004,E,4,09,1.40,27.154,M,39.391,M,3.0,0000*52
$GNGGA,115315.10,3605.0779861,N,14004.8300020,E,4,09,1.40,27.150,M,39.391,M,3.1,0000*5A
$GNGGA,115315.20,3605.0780462,N,14004.8300074,E,4,09,1.40,27.153,M,39.391,M,3.2,0000*51
$GNGGA,115315.30,3605.0781119,N,14004.8300095,E,4,09,1.40,27.142,M,39.391,M,3.3,0000*56
$GNGGA,115315.40,3605.0781730,N,14004.8300127,E,4,09,1.40,27.135,M,39.391,M,3.4,0000*53
$GNGGA,115315.50,3605.0782351,N,14004.8300182,E,4,09,1.40,27.136,M,39.391,M,3.5,0000*5F
$GNGGA,115315.60,3605.0782964,N,14004.8300351,E,4,09,1.40,27.130,M,39.391,M,3.6,0000*59
$GNGGA,115315.70,3605.0783548,N,14004.8300412,E,4,09,1.40,27.126,M,39.391,M,3.7,0000*5D
$GNGGA,115315.80,3605.0784175,N,14004.8300419,E,4,09,1.40,27.110,M,39.391,M,3.8,0000*5E
$GNGGA,115315.90,3605.0784814,N,14004.8300436,E,4,09,1.40,27.104,M,39.391,M,3.9,0000*58
$GNGGA,115316.00,3605.0785454,N,14004.8300416,E,4,09,1.40,27.096,M,39.391,M,4.0,0000*5D
$GNGGA,115316.10,3605.0786106,N,14004.8300390,E,4,09,1.40,27.087,M,39.391,M,4.1,0000*55
$GNGGA,115316.20,3605.0786724,N,14004.8300453,E,4,09,1.40,27.076,M,39.391,M,4.2,0000*55
$GNGGA,115316.30,3605.0787301,N,14004.8300549,E,4,09,1.40,27.084,M,39.391,M,4.3,0000*50
$GNGGA,115316.40,3605.0787883,N,14004.8300640,E,4,09,1.40,27.088,M,39.391,M,4.4,0000*57
$GNGGA,115316.50,3605.0788466,N,14004.8300731,E,4,09,1.40,27.083,M,39.391,M,4.5,0000*53
$GNGGA,115316.60,3605.0789041,N,14004.8300879,E,4,09,1.40,27.081,M,39.391,M,4.6,0000*52
$GNGGA,115316.70,3605.0789624,N,14004.8300984,E,4,09,1.40,27.085,M,39.391,M,4.7,0000*50
$GNGGA,115316.90,3605.0790691,N,14004.8301189,E,4,09,1.40,27.095,M,39.391,M,4.9,0000*53
$GNGGA,115317.00,3605.0791223,N,14004.8301319,E,4,09,1.40,27.103,M,39.391,M,5.0,0000*5A
$GNGGA,115317.20,3605.0792298,N,14004.8301603,E,4,09,1.40,27.098,M,39.391,M,5.2,0000*54
$GNGGA,115317.40,3605.0793304,N,14004.8302019,E,4,09,1.40,27.082,M,39.391,M,5.4,0000*54
$GNGGA,115317.60,3605.0794168,N,14004.8302648,E,4,09,1.40,27.049,M,39.391,M,5.6,0000*5E
$GNGGA,115317.80,3605.0794709,N,14004.8303347,E,4,09,1.40,27.010,M,39.391,M,5.8,0000*58
$GNGGA,115318.00,3605.0795047,N,14004.8304006,E,4,09,1.40,26.983,M,39.391,M,6.0,0000*5B
$GNGGA,115318.20,3605.0795227,N,14004.8304753,E,4,09,1.40,26.973,M,39.391,M,1.2,0000*50
$GNGGA,115318.40,3605.0795419,N,14004.8305609,E,4,09,1.40,26.953,M,39.391,M,1.4,0000*56
$GNGGA,115318.60,3605.0795450,N,14004.8306442,E,4,09,1.40,26.959,M,39.391,M,1.6,0000*5F
$GNGGA,115318.80,3605.0795317,N,14004.8307195,E,4,09,1.40,26.943,M,39.391,M,1.8,0000*5E
$GNGGA,115319.10,3605.0795135,N,14004.8307992,E,4,09,1.40,26.914,M,39.391,M,2.1,0000*53
$GNGGA,115320.70,3605.0795463,N,14004.8308579,E,4,09,1.40,26.908,M,39.391,M,3.7,0000*55
$GNGGA,115321.20,3605.0795985,N,14004.8308751,E,4,09,1.40,26.924,M,39.391,M,4.2,0000*50
$GNGGA,115321.80,3605.0796020,N,14004.8309512,E,4,09,1.40,26.890,M,39.391,M,4.8,0000*5F
$GNGGA,115322.10,3605.0795813,N,14004.8310217,E,4,09,1.40,26.890,M,39.391,M,5.1,0000*5C
$GNGGA,115322.30,3605.0795534,N,14004.8310793,E,4,09,1.40,26.904,M,39.391,M,5.3,0000*51
$GNGGA,115322.60,3605.0795188,N,14004.8311428,E,4,09,1.40,26.918,M,39.391,M,5.6,0000*5D
$GNGGA,115324.10,3605.0795176,N,14004.8312104,E,4,09,1.40,26.929,M,39.391,M,2.1,0000*57
$GNGGA,115326.90,3605.0795764,N,14004.8312244,E,4,09,1.40,26.923,M,39.391,M,4.9,0000*5B
$GNGGA,115327.80,3605.0796135,N,14004.8312857,E,4,09,1.40,26.906,M,39.391,M,5.8,0000*55
$GNGGA,115328.10,3605.0796037,N,14004.8313766,E,4,09,1.40,26.896,M,39.391,M,6.1,0000*5E
$GNGGA,115328.30,3605.0795841,N,14004.8314796,E,4,09,1.40,26.868,M,39.391,M,1.3,0000*5A
$GNGGA,115328.50,3605.0795710,N,14004.8315794,E,4,09,1.40,26.886,M,39.391,M,1.5,0000*52
$GNGGA,115328.70,3605.0795553,N,14004.8316936,E,4,09,1.40,26.883,M,39.391,M,1.7,0000*57
$GNGGA,115328.90,3605.0795396,N,14004.8318338,E,4,09,1.40,26.869,M,39.391,M,1.9,0000*56
$GNGGA,115329.10,3605.0795186,N,14004.8319769,E,4,09,1.40,26.883,M,39.391,M,2.1,0000*52
$GNGGA,115329.30,3605.0794984,N,14004.8321162,E,4,09,1.40,26.912,M,39.391,M,2.3,0000*56
$GNGGA,115329.40,3605.0794904,N,14004.8321848,E,4,09,1.40,26.932,M,39.391,M,2.4,0000*5D
$GNGGA,115329.50,3605.0794799,N,14004.8322627,E,4,09,1.40,26.950,M,39.391,M,2.5,0000*57
$GNGGA,115329.60,3605.0794698,N,14004.8323387,E,4,09,1.40,26.981,M,39.391,M,2.6,0000*55
$GNGGA,115329.80,3605.0794555,N,14004.8324812,E,4,09,1.40,27.015,M,39.391,M,2.8,0000*52
$GNGGA,115329.90,3605.0794559,N,14004.8325560,E,4,09,1.40,27.032,M,39.391,M,2.9,0000*52
$GNGGA,115330.00,3605.0794533,N,14004.8326334,E,4,09,1.40,27.041,M,39.391,M,3.0,0000*57
$GNGGA,115330.10,3605.0794469,N,14004.8327272,E,4,09,1.40,27.057,M,39.391,M,3.1,0000*5C
$GNGGA,115330.20,3605.0794438,N,14004.8328079,E,4,09,1.40,27.053,M,39.391,M,3.2,0000*5A
$GNGGA,115330.30,3605.0794301,N,14004.8328933,E,4,09,1.40,27.055,M,39.391,M,3.3,0000*56
$GNGGA,115330.40,3605.0794293,N,14004.8329717,E,4,09,1.40,27.042,M,39.391,M,3.4,0000*53
$GNGGA,115330.50,3605.0794214,N,14004.8330540,E,4,09,1.40,27.051,M,39.391,M,3.5,0000*56
$GNGGA,115330.60,3605.0794089,N,14004.8331494,E,4,09,1.40,27.050,M,39.391,M,3.6,0000*58
$GNGGA,115330.80,3605.0794153,N,14004.8332879,E,4,09,1.40,27.063,M,39.391,M,3.8,0000*52
$GNGGA,115330.90,3605.0794179,N,14004.8333770,E,4,09,1.40,27.049,M,39.391,M,3.9,0000*55
$GNGGA,115331.00,3605.0794273,N,14004.8334741,E,4,09,1.40,27.023,M,39.391,M,4.0,0000*53
$GNGGA,115331.10,3605.0794269,N,14004.8335525,E,4,09,1.40,27.041,M,39.391,M,4.1,0000*5D
$GNGGA,115331.20,3605.0794252,N,14004.8336310,E,4,09,1.40,27.048,M,39.391,M,4.2,0000*5F
$GNGGA,115331.30,3605.0794227,N,14004.8337205,E,4,09,1.40,27.031,M,39.391,M,4.3,0000*57
$GNGGA,115331.40,3605.0794141,N,14004.8338008,E,4,09,1.40,27.022,M,39.391,M,4.4,0000*56
$GNGGA,115331.50,3605.0794012,N,14004.8338885,E,4,09,1.40,27.033,M,39.391,M,4.5,0000*5C
$GNGGA,115331.60,3605.0793930,N,14004.8339807,E,4,09,1.40,27.022,M,39.391,M,4.6,0000*59
$GNGGA,115331.70,3605.0793899,N,14004.8340499,E,4,09,1.40,27.034,M,39.391,M,4.7,0000*59
$GNGGA,115331.80,3605.0793824,N,14004.8341291,E,4,09,1.40,27.046,M,39.391,M,4.8,0000*55
$GNGGA,115331.90,3605.0793809,N,14004.8342258,E,4,09,1.40,27.026,M,39.391,M,4.9,0000*5A
$GNGGA,115332.00,3605.0793746,N,14004.8343017,E,4,09,1.40,27.022,M,39.391,M,5.0,0000*50
$GNGGA,115332.10,3605.0793706,N,14004.8343962,E,4,09,1.40,27.033,M,39.391,M,5.1,0000*5F
$GNGGA,115332.20,3605.0793621,N,14004.8344693,E,4,09,1.40,27.047,M,39.391,M,5.2,0000*5E
$GNGGA,115332.30,3605.0793507,N,14004.8345535,E,4,09,1.40,27.039,M,39.391,M,5.3,0000*5E
$GNGGA,115332.40,3605.0793420,N,14004.8346322,E,4,09,1.40,27.045,M,39.391,M,5.4,0000*52
$GNGGA,115332.50,3605.0793436,N,14004.8347183,E,4,09,1.40,27.037,M,39.391,M,5.5,0000*58
$GNGGA,115332.60,3605.0793280,N,14004.8348010,E,4,09,1.40,27.050,M,39.391,M,5.6,0000*56
$GNGGA,115332.70,3605.0793233,N,14004.8348764,E,4,09,1.40,27.047,M,39.391,M,5.7,0000*5C
$GNGGA,115332.80,3605.0793179,N,14004.8349589,E,4,09,1.40,27.057,M,39.391,M,5.8,0000*50
$GNGGA,115332.90,3605.0793141,N,14004.8350487,E,4,09,1.40,27.043,M,39.391,M,5.9,0000*59
$GNGGA,115333.00,3605.0793048,N,14004.8351326,E,4,09,1.40,27.039,M,39.391,M,6.0,0000*53
$GNGGA,115333.10,3605.0792963,N,14004.8352215,E,4,09,1.40,27.050,M,39.391,M,6.1,0000*5F
$GNGGA,115333.20,3605.0792903,N,14004.8353012,E,4,09,1.40,27.052,M,39.391,M,1.2,0000*58
$GNGGA,115333.30,3605.0792843,N,14004.8353809,E,4,09,1.40,27.039,M,39.391,M,1.3,0000*52
$GNGGA,115333.40,3605.0792749,N,14004.8354668,E,4,08,2.02,27.029,M,39.391,M,1.4,0000*5C
$GNGGA,115333.50,3605.0792683,N,14004.8355534,E,4,08,2.02,27.017,M,39.391,M,1.5,0000*5D
$GNGGA,115333.60,3605.0792604,N,14004.8356347,E,4,08,2.02,27.012,M,39.391,M,1.6,0000*56
$GNGGA,115333.70,3605.0792552,N,14004.8357134,E,4,08,2.02,27.005,M,39.391,M,1.7,0000*57
$GNGGA,115333.80,3605.0792546,N,14004.8358034,E,4,08,2.02,26.979,M,39.391,M,1.8,0000*5F
$GNGGA,115333.90,3605.0792466,N,14004.8358956,E,4,08,2.02,26.960,M,39.391,M,1.9,0000*59
$GNGGA,115334.00,3605.0792394,N,14004.8359886,E,4,08,2.02,26.950,M,39.391,M,2.0,0000*59
$GNGGA,115334.10,3605.0792302,N,14004.8360775,E,4,08,2.02,26.949,M,39.391,M,2.1,0000*57
$GNGGA,115334.20,3605.0792215,N,14004.8361623,E,4,08,2.02,26.937,M,39.391,M,2.2,0000*5A
$GNGGA,115334.30,3605.0792132,N,14004.8362466,E,4,08,2.02,26.936,M,39.391,M,2.3,0000*5D
$GNGGA,115334.40,3605.0792041,N,14004.8363311,E,4,08,2.02,26.925,M,39.391,M,2.4,0000*5C
$GNGGA,115334.50,3605.0792019,N,14004.8364136,E,4,08,2.02,26.928,M,39.391,M,2.5,0000*5C
$GNGGA,115334.60,3605.0791930,N,14004.8364946,E,4,08,2.02,26.927,M,39.391,M,2.6,0000*5D
$GNGGA,115334.70,3605.0791877,N,14004.8365784,E,4,08,2.02,26.933,M,39.391,M,2.7,0000*5B
$GNGGA,115334.80,3605.0791809,N,14004.8366697,E,4,08,2.02,26.907,M,39.391,M,2.8,0000*55
$GNGGA,115334.90,3605.0791776,N,14004.8367588,E,4,08,2.02,26.905,M,39.391,M,2.9,0000*5C
$GNGGA,115335.00,3605.0791697,N,14004.8368493,E,4,08,2.02,26.907,M,39.391,M,3.0,0000*54
$GNGGA,115335.10,3605.0791604,N,14004.8369333,E,4,08,2.02,26.910,M,39.391,M,3.1,0000*54
$GNGGA,115335.20,3605.0791545,N,14004.8370187,E,4,08,2.02,26.910,M,39.391,M,3.2,0000*57
$GNGGA,115335.30,3605.0791458,N,14004.8371042,E,4,08,2.02,26.897,M,39.391,M,3.3,0000*5D
$GNGGA,115335.40,3605.0791360,N,14004.8371852,E,4,08,2.02,26.897,M,39.391,M,3.4,0000*58
$GNGGA,115335.50,3605.0791286,N,14004.8372698,E,4,08,2.02,26.907,M,39.391,M,3.5,0000*52
$GNGGA,115335.60,3605.0791242,N,14004.8373468,E,4,08,2.02,26.903,M,39.391,M,3.6,0000*52
$GNGGA,115335.70,3605.0791178,N,14004.8374276,E,4,08,2.02,26.897,M,39.391,M,3.7,0000*5A
$GNGGA,115335.80,3605.0791136,N,14004.8375139,E,4,08,2.02,26.894,M,39.391,M,3.8,0000*5A
$GNGGA,115335.90,3605.0791095,N,14004.8376031,E,4,08,2.02,26.893,M,39.391,M,3.9,0000*5F
$GNGGA,115336.00,3605.0790984,N,14004.8376859,E,4,08,2.02,26.907,M,39.391,M,4.0,0000*59
$GNGGA,115336.10,3605.0790831,N,14004.8377689,E,4,08,2.02,26.911,M,39.391,M,4.1,0000*53
$GNGGA,115336.20,3605.0790749,N,14004.8378530,E,4,08,2.02,26.905,M,39.390,M,4.2,0000*59
$GNGGA,115336.30,3605.0790622,N,14004.8379316,E,4,08,2.02,26.921,M,39.390,M,4.3,0000*50
$GNGGA,115336.40,3605.0790529,N,14004.8380136,E,4,08,2.02,26.929,M,39.390,M,4.4,0000*56
$GNGGA,115336.50,3605.0790465,N,14004.8380950,E,4,08,2.02,26.944,M,39.390,M,4.5,0000*5C
$GNGGA,115336.60,3605.0790414,N,14004.8381760,E,4,08,2.02,26.950,M,39.390,M,4.6,0000*53
$GNGGA,115336.70,3605.0790368,N,14004.8382564,E,4,08,2.02,26.956,M,39.390,M,4.7,0000*5C
$GNGGA,115336.80,3605.0790320,N,14004.8383356,E,4,08,2.02,26.960,M,39.390,M,4.8,0000*53
$GNGGA,115336.90,3605.0790239,N,14004.8384281,E,4,08,2.02,26.965,M,39.390,M,4.9,0000*53
$GNGGA,115337.00,3605.0790152,N,14004.8385163,E,4,08,2.02,26.976,M,39.390,M,5.0,0000*51
$GNGGA,115337.10,3605.0790088,N,14004.8385872,E,4,08,2.02,26.975,M,39.390,M,5.1,0000*5D
$GNGGA,115337.20,3605.0790042,N,14004.8386695,E,4,08,2.02,26.985,M,39.390,M,5.2,0000*50
$GNGGA,115337.30,3605.0789913,N,14004.8387528,E,4,08,2.02,26.980,M,39.390,M,5.3,0000*54
$GNGGA,115337.40,3605.0789888,N,14004.8388321,E,4,08,2.02,26.996,M,39.390,M,5.4,0000*50
$GNGGA,115337.50,3605.0789841,N,14004.8389049,E,4,08,2.02,26.997,M,39.390,M,5.5,0000*58
$GNGGA,115337.60,3605.0789842,N,14004.8389883,E,4,08,2.02,26.996,M,39.390,M,5.6,0000*54
$GNGGA,115337.70,3605.0789789,N,14004.8390758,E,4,08,2.02,26.986,M,39.390,M,5.7,0000*5C
$GNGGA,115337.80,3605.0789716,N,14004.8391632,E,4,08,2.02,26.975,M,39.390,M,5.8,0000*5A
$GNGGA,115337.90,3605.0789632,N,14004.8392454,E,4,08,2.02,26.981,M,39.390,M,5.9,0000*57
$GNGGA,115338.00,3605.0789563,N,14004.8393261,E,4,08,2.02,26.985,M,39.390,M,6.0,0000*59
$GNGGA,115338.10,3605.0789511,N,14004.8394035,E,4,08,2.02,26.973,M,39.390,M,6.1,0000*51
$GNGGA,115338.20,3605.0789371,N,14004.8394819,E,4,08,2.02,26.962,M,39.390,M,1.2,0000*50
$GNGGA,115338.30,3605.0789255,N,14004.8395570,E,4,08,2.02,26.968,M,39.390,M,1.3,0000*5E
$GNGGA,115338.40,3605.0789146,N,14004.8396305,E,4,08,2.02,26.970,M,39.390,M,1.4,0000*51
$GNGGA,115338.50,3605.0789047,N,14004.8397065,E,4,08,2.02,26.964,M,39.390,M,1.5,0000*50
$GNGGA,115338.60,3605.0788989,N,14004.8397837,E,4,08,2.02,26.949,M,39.390,M,1.6,0000*5A
$GNGGA,115338.70,3605.0788891,N,14004.8398654,E,4,08,2.02,26.930,M,39.390,M,1.7,0000*58
$GNGGA,115338.80,3605.0788789,N,14004.8399491,E,4,08,2.02,26.921,M,39.390,M,1.8,0000*54
$GNGGA,115338.90,3605.0788702,N,14004.8400278,E,4,08,2.02,26.927,M,39.390,M,1.9,0000*57
$GNGGA,115339.00,3605.0788574,N,14004.8401058,E,4,08,2.02,26.932,M,39.390,M,2.0,0000*53
$GNGGA,115339.10,3605.0788483,N,14004.8401842,E,4,08,2.02,26.935,M,39.390,M,2.1,0000*5E
$GNGGA,115339.20,3605.0788322,N,14004.8402604,E,4,08,2.02,26.925,M,39.390,M,2.2,0000*5C
$GNGGA,115339.30,3605.0788263,N,14004.8403372,E,4,08,2.02,26.931,M,39.390,M,2.3,0000*58
$GNGGA,115339.40,3605.0788228,N,14004.8404103,E,4,08,2.02,26.939,M,39.390,M,2.4,0000*5C
$GNGGA,115339.50,3605.0788141,N,14004.8404812,E,4,08,2.02,26.946,M,39.390,M,2.5,0000*51
$GNGGA,115339.60,3605.0788112,N,14004.8405625,E,4,08,2.02,26.929,M,39.390,M,2.6,0000*55
$GNGGA,115339.70,3605.0788101,N,14004.8406369,E,4,08,2.02,26.922,M,39.390,M,2.7,0000*52
$GNGGA,115339.80,3605.0788075,N,14004.8407154,E,4,08,2.02,26.938,M,39.390,M,2.8,0000*56
$GNGGA,115339.90,3605.0787996,N,14004.8407914,E,4,08,2.02,26.943,M,39.390,M,2.9,0000*5D
$GNGGA,115340.00,3605.0787943,N,14004.8408610,E,4,08,2.02,26.947,M,39.390,M,3.0,0000*5A
$GNGGA,115340.10,3605.0787885,N,14004.8409298,E,4,08,2.02,26.944,M,39.390,M,3.1,0000*57
$GNGGA,115340.20,3605.0787798,N,14004.8409992,E,4,08,2.02,26.935,M,39.390,M,3.2,0000*53
$GNGGA,115340.30,3605.0787743,N,14004.8410727,E,4,08,2.02,26.942,M,39.390,M,3.3,0000*5D
$GNGGA,115340.50,3605.0787656,N,14004.8412002,E,4,08,2.02,26.950,M,39.390,M,3.5,0000*59
$GNGGA,115340.60,3605.0787679,N,14004.8412729,E,4,08,2.02,26.943,M,39.390,M,3.6,0000*58
$GNGGA,115340.70,3605.0787668,N,14004.8413457,E,4,08,2.02,26.941,M,39.390,M,3.7,0000*51
$GNGGA,115340.80,3605.0787677,N,14004.8414212,E,4,08,2.02,26.946,M,39.390,M,3.8,0000*58
$GNGGA,115340.90,3605.0787673,N,14004.8414970,E,4,08,2.02,26.953,M,39.390,M,3.9,0000*57
$GNGGA,115341.00,3605.0787642,N,14004.8415644,E,4,08,2.02,26.952,M,39.390,M,4.0,0000*5B
$GNGGA,115341.10,3605.0787593,N,14004.8416322,E,4,08,2.02,26.952,M,39.390,M,4.1,0000*52
$GNGGA,115341.20,3605.0787498,N,14004.8417036,E,4,08,2.02,26.953,M,39.390,M,4.2,0000*5E
$GNGGA,115341.30,3605.0787413,N,14004.8417765,E,4,08,2.02,26.954,M,39.390,M,4.3,0000*5B
$GNGGA,115341.50,3605.0787326,N,14004.8419056,E,4,08,2.02,26.972,M,39.390,M,4.5,0000*57
$GNGGA,115341.60,3605.0787346,N,14004.8419789,E,4,08,2.02,26.978,M,39.390,M,4.6,0000*5E
$GNGGA,115341.70,3605.0787369,N,14004.8420593,E,4,08,2.02,26.965,M,39.390,M,4.7,0000*5C
$GNGGA,115341.80,3605.0787355,N,14004.8421313,E,4,08,2.02,26.960,M,39.390,M,4.8,0000*59
$GNGGA,115341.90,3605.0787399,N,14004.8422093,E,4,08,2.02,26.973,M,39.390,M,4.9,0000*53
$GNGGA,115342.10,3605.0787376,N,14004.8423490,E,4,08,2.02,26.976,M,39.390,M,5.1,0000*53
$GNGGA,115342.20,3605.0787355,N,14004.8424219,E,4,08,2.02,26.971,M,39.390,M,5.2,0000*55
$GNGGA,115342.30,3605.0787344,N,14004.8424982,E,4,08,2.02,26.972,M,39.390,M,5.3,0000*5F
$GNGGA,115342.40,3605.0787326,N,14004.8425739,E,4,08,2.02,26.974,M,39.390,M,5.4,0000*52
$GNGGA,115342.50,3605.0787381,N,14004.8426405,E,4,08,2.02,26.987,M,39.390,M,5.5,0000*5C
$GNGGA,115342.60,3605.0787399,N,14004.8427123,E,4,08,2.02,26.987,M,39.390,M,5.6,0000*55
$GNGGA,115342.70,3605.0787444,N,14004.8427922,E,4,08,2.02,26.979,M,39.390,M,5.7,0000*5A
$GNGGA,115342.80,3605.0787489,N,14004.8428655,E,4,08,2.02,26.966,M,39.390,M,5.8,0000*55
