$GNGGA,114848.10,3605.0642223,N,14004.9255582,E,4,09,1.55,26.942,M,39.387,M,6.1,0000*5C
$GNGGA,114851.80,3605.0641604,N,14004.9255586,E,4,09,1.55,26.913,M,39.387,M,4.8,0000*54
$GNGGA,114852.10,3605.0640787,N,14004.9255958,E,4,09,1.55,26.886,M,39.387,M,5.1,0000*5F
$GNGGA,114852.30,3605.0640006,N,14004.9256009,E,4,09,1.55,26.870,M,39.387,M,5.3,0000*56
$GNGGA,114852.50,3605.0639009,N,14004.9255933,E,4,09,1.55,26.888,M,39.387,M,5.5,0000*53
$GNGGA,114852.70,3605.0637873,N,14004.9255845,E,4,09,1.55,26.873,M,39.387,M,5.7,0000*5C
$GNGGA,114852.90,3605.0636817,N,14004.9255487,E,4,09,1.55,26.860,M,39.387,M,5.9,0000*5F
$GNGGA,114853.10,3605.0635776,N,14004.9255285,E,4,09,1.55,26.857,M,39.387,M,6.1,0000*56
$GNGGA,114853.20,3605.0635153,N,14004.9255156,E,4,09,1.55,26.845,M,39.387,M,1.2,0000*5E
$GNGGA,114853.30,3605.0634562,N,14004.9255123,E,4,09,1.55,26.842,M,39.387,M,1.3,0000*5C
$GNGGA,114853.40,3605.0633838,N,14004.9255026,E,4,09,1.55,26.833,M,39.387,M,1.4,0000*5B
$GNGGA,114853.50,3605.0633257,N,14004.9254924,E,4,09,1.55,26.863,M,39.387,M,1.5,0000*57
$GNGGA,114853.60,3605.0632710,N,14004.9254717,E,4,09,1.55,26.865,M,39.387,M,1.6,0000*58
$GNGGA,114853.70,3605.0632060,N,14004.9254692,E,4,09,1.55,26.860,M,39.387,M,1.7,0000*51
$GNGGA,114853.80,3605.0631370,N,14004.9254500,E,4,09,1.55,26.860,M,39.387,M,1.8,0000*58
$GNGGA,114853.90,3605.0630735,N,14004.9254380,E,4,09,1.55,26.853,M,39.387,M,1.9,0000*52
$GNGGA,114854.00,3605.0630130,N,14004.9254331,E,4,09,1.55,26.861,M,39.387,M,2.0,0000*5E
$GNGGA,114854.20,3605.0628917,N,14004.9254259,E,4,09,1.55,26.853,M,39.387,M,2.2,0000*54
$GNGGA,114854.30,3605.0628217,N,14004.9254270,E,4,09,1.55,26.840,M,39.387,M,2.3,0000*56
$GNGGA,114854.40,3605.0627607,N,14004.9254280,E,4,09,1.55,26.832,M,39.387,M,2.4,0000*56
$GNGGA,114854.50,3605.0626944,N,14004.9254229,E,4,09,1.55,26.829,M,39.387,M,2.5,0000*56
$GNGGA,114854.60,3605.0626350,N,14004.9254196,E,4,09,1.55,26.839,M,39.387,M,2.6,0000*5F
$GNGGA,114854.70,3605.0625675,N,14004.9254237,E,4,09,1.55,26.831,M,39.387,M,2.7,0000*5E
$GNGGA,114854.80,3605.0625033,N,14004.9254288,E,4,09,1.55,26.807,M,39.387,M,2.8,0000*5B
$GNGGA,114854.90,3605.0624412,N,14004.9254349,E,4,09,1.55,26.805,M,39.387,M,2.9,0000*53
$GNGGA,114855.00,3605.0623840,N,14004.9254353,E,4,09,1.55,26.799,M,39.387,M,3.0,0000*5E
$GNGGA,114855.20,3605.0622783,N,14004.9254627,E,4,09,1.55,26.795,M,39.387,M,3.2,0000*55
$GNGGA,114855.30,3605.0622217,N,14004.9254698,E,4,09,1.55,26.770,M,39.387,M,3.3,0000*52
$GNGGA,114855.40,3605.0621634,N,14004.9254813,E,4,09,1.55,26.755,M,39.387,M,3.4,0000*5E
$GNGGA,114855.60,3605.0620761,N,14004.9254376,E,4,09,1.55,26.734,M,39.387,M,3.6,0000*51
$GNGGA,114855.80,3605.0620041,N,14004.9253537,E,4,09,1.55,26.727,M,39.387,M,3.8,0000*52
$GNGGA,114856.00,3605.0619145,N,14004.9252963,E,4,09,1.55,26.735,M,39.387,M,4.0,0000*56
$GNGGA,114856.20,3605.0618153,N,14004.9252414,E,4,09,1.55,26.743,M,39.387,M,4.2,0000*5C
$GNGGA,114856.40,3605.0617104,N,14004.9252150,E,4,09,1.55,26.755,M,39.387,M,4.4,0000*53
$GNGGA,114856.50,3605.0616450,N,14004.9251950,E,4,09,1.55,26.743,M,39.387,M,4.5,0000*5A
$GNGGA,114856.60,3605.0615884,N,14004.9251734,E,4,09,1.55,26.741,M,39.387,M,4.6,0000*52
$GNGGA,114856.70,3605.0615316,N,14004.9251587,E,4,09,1.55,26.745,M,39.387,M,4.7,0000*5C
$GNGGA,114856.80,3605.0614728,N,14004.9251444,E,4,09,1.55,26.765,M,39.387,M,4.8,0000*58
$GNGGA,114856.90,3605.0614136,N,14004.9251258,E,4,09,1.55,26.758,M,39.387,M,4.9,0000*54
$GNGGA,114857.00,3605.0613479,N,14004.9251100,E,4,09,1.55,26.743,M,39.387,M,5.0,0000*59
$GNGGA,114857.10,3605.0612795,N,14004.9250954,E,4,09,1.55,26.754,M,39.387,M,5.1,0000*57
$GNGGA,114857.20,3605.0612167,N,14004.9250735,E,4,09,1.55,26.756,M,39.387,M,5.2,0000*57
$GNGGA,114857.40,3605.0611035,N,14004.9250867,E,4,09,1.55,26.761,M,39.387,M,5.4,0000*5E
$GNGGA,114857.50,3605.0610381,N,14004.9251161,E,4,09,1.55,26.746,M,39.387,M,5.5,0000*58
$GNGGA,114857.60,3605.0609667,N,14004.9251720,E,4,09,1.55,26.716,M,39.387,M,5.6,0000*5B
$GNGGA,114857.70,3605.0609064,N,14004.9252255,E,4,09,1.55,26.708,M,39.387,M,5.7,0000*55
$GNGGA,114857.80,3605.0608574,N,14004.9252778,E,4,09,1.55,26.709,M,39.387,M,5.8,0000*5B
$GNGGA,114857.90,3605.0608132,N,14004.9253167,E,4,09,1.55,26.701,M,39.387,M,5.9,0000*5C
$GNGGA,114858.10,3605.0607212,N,14004.9253814,E,4,09,1.55,26.676,M,39.387,M,6.1,0000*52
$GNGGA,114858.20,3605.0606673,N,14004.9253894,E,4,09,1.55,26.662,M,39.387,M,1.2,0000*5A
$GNGGA,114858.40,3605.0605523,N,14004.9253931,E,4,09,1.55,26.670,M,39.387,M,1.4,0000*52
$GNGGA,114858.50,3605.0604871,N,14004.9253918,E,4,09,1.55,26.673,M,39.387,M,1.5,0000*51
$GNGGA,114858.60,3605.0604101,N,14004.9253967,E,4,09,1.55,26.654,M,39.387,M,1.6,0000*52
$GNGGA,114858.70,3605.0603396,N,14004.9253997,E,4,09,1.55,26.639,M,39.387,M,1.7,0000*5D
$GNGGA,114858.80,3605.0602630,N,14004.9254029,E,4,09,1.55,26.634,M,39.387,M,1.8,0000*53
$GNGGA,114858.90,3605.0601918,N,14004.9253963,E,4,09,1.55,26.651,M,39.387,M,1.9,0000*56
$GNGGA,114859.00,3605.0601254,N,14004.9253778,E,4,09,1.55,26.662,M,39.387,M,2.0,0000*53
$GNGGA,114859.10,3605.0600497,N,14004.9253677,E,4,09,1.55,26.649,M,39.387,M,2.1,0000*5C
$GNGGA,114859.20,3605.0599843,N,14004.9253600,E,4,09,1.55,26.657,M,39.387,M,2.2,0000*55
$GNGGA,114859.30,3605.0599171,N,14004.9253470,E,4,09,1.55,26.676,M,39.387,M,2.3,0000*5B
$GNGGA,114859.40,3605.0598534,N,14004.9253352,E,4,09,1.55,26.677,M,39.387,M,2.4,0000*59
$GNGGA,114859.50,3605.0597943,N,14004.9253306,E,4,09,1.55,26.685,M,39.387,M,2.5,0000*56
$GNGGA,114859.60,3605.0597318,N,14004.9253259,E,4,09,1.55,26.684,M,39.387,M,2.6,0000*58
$GNGGA,114859.70,3605.0596706,N,14004.9253167,E,4,09,1.55,26.663,M,39.387,M,2.7,0000*55
$GNGGA,114859.80,3605.0596067,N,14004.9253124,E,4,09,1.55,26.666,M,39.387,M,2.8,0000*57
$GNGGA,114859.90,3605.0595477,N,14004.9253087,E,4,09,1.55,26.672,M,39.387,M,2.9,0000*5C
$GNGGA,114900.00,3605.0594851,N,14004.9253015,E,4,09,1.55,26.674,M,39.387,M,3.0,0000*54
$GNGGA,114900.10,3605.0594257,N,14004.9252886,E,4,09,1.55,26.682,M,39.387,M,3.1,0000*52
$GNGGA,114900.20,3605.0593636,N,14004.9252744,E,4,09,1.55,26.677,M,39.387,M,3.2,0000*5D
$GNGGA,114900.30,3605.0592983,N,14004.9252587,E,4,09,1.55,26.677,M,39.387,M,3.3,0000*50
$GNGGA,114900.40,3605.0592361,N,14004.9252486,E,4,09,1.55,26.676,M,39.387,M,3.4,0000*57
$GNGGA,114900.60,3605.0591192,N,14004.9252379,E,4,09,1.55,26.680,M,39.387,M,3.6,0000*54
$GNGGA,114900.70,3605.0590506,N,14004.9252285,E,4,09,1.55,26.670,M,39.387,M,3.7,0000*51
$GNGGA,114900.80,3605.0589848,N,14004.9252216,E,4,09,1.55,26.673,M,39.387,M,3.8,0000*57
$GNGGA,114900.90,3605.0589110,N,14004.9252134,E,4,09,1.55,26.677,M,39.387,M,3.9,0000*54
$GNGGA,114901.00,3605.0588484,N,14004.9252061,E,4,09,1.55,26.680,M,39.387,M,4.0,0000*52
$GNGGA,114901.10,3605.0587865,N,14004.9251905,E,4,09,1.55,26.694,M,39.387,M,4.1,0000*53
$GNGGA,114901.20,3605.0587159,N,14004.9251745,E,4,09,1.55,26.685,M,39.387,M,4.2,0000*5F
$GNGGA,114901.30,3605.0586417,N,14004.9251602,E,4,09,1.55,26.672,M,39.387,M,4.3,0000*5B
$GNGGA,114901.40,3605.0585807,N,14004.9251411,E,4,09,1.55,26.683,M,39.387,M,4.4,0000*5B
$GNGGA,114901.50,3605.0585199,N,14004.9251337,E,4,09,1.55,26.699,M,39.387,M,4.5,0000*5D
$GNGGA,114901.60,3605.0584583,N,14004.9251277,E,4,09,1.55,26.701,M,39.387,M,4.6,0000*56
$GNGGA,114901.70,3605.0583841,N,14004.9251225,E,4,09,1.55,26.688,M,39.387,M,4.7,0000*55
$GNGGA,114901.80,3605.0583122,N,14004.9251148,E,4,09,1.55,26.671,M,39.387,M,4.8,0000*57
$GNGGA,114901.90,3605.0582417,N,14004.9251069,E,4,09,1.55,26.674,M,39.387,M,4.9,0000*52
$GNGGA,114902.00,3605.0581717,N,14004.9251029,E,4,09,1.55,26.685,M,39.387,M,5.0,0000*5A
$GNGGA,114902.10,3605.0581078,N,14004.9250884,E,4,09,1.55,26.702,M,39.387,M,5.1,0000*54
$GNGGA,114902.20,3605.0580334,N,14004.9250803,E,4,09,1.55,26.685,M,39.387,M,5.2,0000*5F
$GNGGA,114902.30,3605.0579675,N,14004.9250719,E,4,09,1.55,26.681,M,39.387,M,5.3,0000*59
$GNGGA,114902.40,3605.0578974,N,14004.9250691,E,4,09,1.55,26.688,M,39.387,M,5.4,0000*5E
$GNGGA,114902.50,3605.0578315,N,14004.9250765,E,4,09,1.55,26.693,M,39.387,M,5.5,0000*53
$GNGGA,114902.60,3605.0577670,N,14004.9250836,E,4,09,1.55,26.694,M,39.387,M,5.6,0000*54
$GNGGA,114902.70,3605.0576977,N,14004.9250804,E,4,09,1.55,26.680,M,39.387,M,5.7,0000*59
$GNGGA,114902.80,3605.0576211,N,14004.9250801,E,4,09,1.55,26.659,M,39.387,M,5.8,0000*53
$GNGGA,114902.90,3605.0575524,N,14004.9250748,E,4,09,1.55,26.659,M,39.387,M,5.9,0000*53
$GNGGA,114903.00,3605.0574746,N,14004.9250715,E,4,09,1.55,26.669,M,39.387,M,6.0,0000*5D
$GNGGA,114903.10,3605.0574088,N,14004.9250561,E,4,09,1.55,26.664,M,39.387,M,6.1,0000*54
$GNGGA,114903.20,3605.0573393,N,14004.9250439,E,4,09,1.55,26.670,M,39.387,M,1.2,0000*54
$GNGGA,114903.30,3605.0572670,N,14004.9250346,E,4,09,1.55,26.655,M,39.387,M,1.3,0000*55
$GNGGA,114903.40,3605.0572038,N,14004.9250148,E,4,09,1.55,26.662,M,39.387,M,1.4,0000*57
$GNGGA,114903.50,3605.0571387,N,14004.9250103,E,4,09,1.55,26.672,M,39.387,M,1.5,0000*5D
$GNGGA,114903.60,3605.0570701,N,14004.9250103,E,4,09,1.55,26.671,M,39.387,M,1.6,0000*55
$GNGGA,114903.70,3605.0570024,N,14004.9250064,E,4,09,1.55,26.656,M,39.387,M,1.7,0000*50
$GNGGA,114903.80,3605.0569255,N,14004.9250093,E,4,09,1.55,26.635,M,39.387,M,1.8,0000*51
$GNGGA,114903.90,3605.0568522,N,14004.9249999,E,4,09,1.55,26.623,M,39.387,M,1.9,0000*5B
$GNGGA,114904.00,3605.0567811,N,14004.9249920,E,4,09,1.55,26.630,M,39.387,M,2.0,0000*5D
$GNGGA,114904.10,3605.0567121,N,14004.9249787,E,4,09,1.55,26.643,M,39.387,M,2.1,0000*50
$GNGGA,114904.20,3605.0566384,N,14004.9249608,E,4,09,1.55,26.633,M,39.387,M,2.2,0000*5D
$GNGGA,114904.30,3605.0565650,N,14004.9249491,E,4,09,1.55,26.625,M,39.387,M,2.3,0000*57
$GNGGA,114904.40,3605.0564936,N,14004.9249390,E,4,09,1.55,26.636,M,39.387,M,2.4,0000*5D
$GNGGA,114904.50,3605.0564240,N,14004.9249384,E,4,09,1.55,26.640,M,39.387,M,2.5,0000*53
$GNGGA,114904.60,3605.0563599,N,14004.9249454,E,4,09,1.55,26.645,M,39.387,M,2.6,0000*58
$GNGGA,114904.70,3605.0562916,N,14004.9249476,E,4,09,1.55,26.642,M,39.387,M,2.7,0000*55
$GNGGA,114904.80,3605.0562207,N,14004.9249502,E,4,09,1.55,26.635,M,39.387,M,2.8,0000*5C
$GNGGA,114904.90,3605.0561471,N,14004.9249511,E,4,09,1.55,26.627,M,39.387,M,2.9,0000*59
$GNGGA,114905.00,3605.0560825,N,14004.9249552,E,4,09,1.55,26.625,M,39.387,M,3.0,0000*50
$GNGGA,114905.10,3605.0560224,N,14004.9249491,E,4,09,1.55,26.637,M,39.387,M,3.1,0000*56
$GNGGA,114905.20,3605.0559622,N,14004.9249471,E,4,09,1.55,26.626,M,39.387,M,3.2,0000*50
$GNGGA,114905.30,3605.0558993,N,14004.9249389,E,4,09,1.55,26.617,M,39.387,M,3.3,0000*56
$GNGGA,114905.50,3605.0557983,N,14004.9249372,E,4,09,1.55,26.610,M,39.387,M,3.5,0000*5B
$GNGGA,114905.70,3605.0557125,N,14004.9249281,E,4,09,1.55,26.620,M,39.387,M,3.7,0000*51
$GNGGA,114905.90,3605.0556218,N,14004.9249382,E,4,09,1.55,26.602,M,39.387,M,3.9,0000*5F
$GNGGA,114906.10,3605.0555605,N,14004.9249320,E,4,09,1.55,26.586,M,39.387,M,4.1,0000*57
$GNGGA,114906.40,3605.0555161,N,14004.9248603,E,4,09,1.55,26.581,M,39.387,M,4.4,0000*50
$GNGGA,114906.60,3605.0555091,N,14004.9247833,E,4,09,1.55,26.578,M,39.387,M,4.6,0000*5A
$GNGGA,114906.80,3605.0555242,N,14004.9246773,E,4,09,1.55,26.595,M,39.387,M,4.8,0000*5F
$GNGGA,114907.00,3605.0555437,N,14004.9245720,E,4,09,1.55,26.589,M,39.388,M,5.0,0000*5C
$GNGGA,114907.20,3605.0555640,N,14004.9244877,E,4,09,1.55,26.588,M,39.388,M,5.2,0000*53
$GNGGA,114907.80,3605.0555186,N,14004.9244296,E,4,09,1.55,26.566,M,39.388,M,5.8,0000*5B
$GNGGA,114908.00,3605.0554524,N,14004.9244281,E,4,09,1.55,26.560,M,39.388,M,6.0,0000*5A
$GNGGA,114908.20,3605.0553483,N,14004.9244093,E,4,09,1.55,26.539,M,39.388,M,1.2,0000*5B
$GNGGA,114908.40,3605.0552445,N,14004.9243951,E,4,09,1.55,26.548,M,39.388,M,1.4,0000*56
$GNGGA,114908.60,3605.0551356,N,14004.9243775,E,4,09,1.55,26.540,M,39.388,M,1.6,0000*50
$GNGGA,114908.70,3605.0550685,N,14004.9243630,E,4,09,1.55,26.546,M,39.388,M,1.7,0000*5C
$GNGGA,114908.80,3605.0550101,N,14004.9243574,E,4,09,1.55,26.537,M,39.388,M,1.8,0000*52
$GNGGA,114908.90,3605.0549524,N,14004.9243544,E,4,09,1.55,26.539,M,39.388,M,1.9,0000*54
$GNGGA,114909.00,3605.0548993,N,14004.9243410,E,4,09,1.55,26.538,M,39.388,M,2.0,0000*56
$GNGGA,114909.10,3605.0548400,N,14004.9243389,E,4,09,1.55,26.559,M,39.388,M,2.1,0000*51
$GNGGA,114909.20,3605.0547699,N,14004.9243334,E,4,09,1.55,26.545,M,39.388,M,2.2,0000*57
$GNGGA,114909.30,3605.0547105,N,14004.9243225,E,4,09,1.55,26.529,M,39.388,M,2.3,0000*5E
$GNGGA,114909.40,3605.0546397,N,14004.9243160,E,4,09,1.55,26.532,M,39.388,M,2.4,0000*5E
$GNGGA,114909.60,3605.0545440,N,14004.9242912,E,4,09,1.55,26.537,M,39.388,M,2.6,0000*59
$GNGGA,114909.70,3605.0544859,N,14004.9242942,E,4,09,1.55,26.528,M,39.388,M,2.7,0000*57
$GNGGA,114909.90,3605.0543856,N,14004.9243052,E,4,09,1.55,26.498,M,39.388,M,2.9,0000*5C
$GNGGA,114910.10,3605.0543216,N,14004.9243475,E,4,09,1.55,26.511,M,39.388,M,3.1,0000*5A
$GNGGA,114910.30,3605.0542887,N,14004.9244430,E,4,09,1.55,26.505,M,39.388,M,3.3,0000*5A
$GNGGA,114910.50,3605.0542499,N,14004.9245327,E,4,09,1.55,26.523,M,39.388,M,3.5,0000*5D
$GNGGA,114910.70,3605.0542212,N,14004.9246350,E,4,09,1.55,26.491,M,39.388,M,3.7,0000*53
$GNGGA,114910.90,3605.0541559,N,14004.9246980,E,4,09,1.55,26.496,M,39.388,M,3.9,0000*58
$GNGGA,114911.10,3605.0540606,N,14004.9247104,E,4,09,1.55,26.485,M,39.388,M,4.1,0000*51
$GNGGA,114911.20,3605.0540031,N,14004.9247153,E,4,09,1.55,26.487,M,39.388,M,4.2,0000*53
$GNGGA,114911.30,3605.0539395,N,14004.9247009,E,4,09,1.55,26.508,M,39.388,M,4.3,0000*58
$GNGGA,114911.50,3605.0538336,N,14004.9246926,E,4,09,1.55,26.528,M,39.388,M,4.5,0000*57
$GNGGA,114911.60,3605.0537725,N,14004.9247000,E,4,09,1.55,26.526,M,39.388,M,4.6,0000*5C
$GNGGA,114911.70,3605.0537042,N,14004.9246991,E,4,09,1.55,26.509,M,39.388,M,4.7,0000*57
$GNGGA,114911.80,3605.0536394,N,14004.9247026,E,4,09,1.55,26.513,M,39.388,M,4.8,0000*51
$GNGGA,114911.90,3605.0535691,N,14004.9247219,E,4,09,1.55,26.502,M,39.388,M,4.9,0000*5C
$GNGGA,114912.00,3605.0534933,N,14004.9247111,E,4,09,1.55,26.514,M,39.388,M,5.0,0000*54
$GNGGA,114912.10,3605.0534236,N,14004.9247034,E,4,09,1.55,26.529,M,39.388,M,5.1,0000*52
$GNGGA,114912.20,3605.0533548,N,14004.9247007,E,4,09,1.55,26.527,M,39.388,M,5.2,0000*55
$GNGGA,114912.30,3605.0532782,N,14004.9246959,E,4,09,1.55,26.519,M,39.388,M,5.3,0000*5E
$GNGGA,114912.40,3605.0532146,N,14004.9246871,E,4,09,1.55,26.525,M,39.388,M,5.4,0000*54
$GNGGA,114912.50,3605.0531480,N,14004.9246851,E,4,09,1.55,26.529,M,39.388,M,5.5,0000*56
$GNGGA,114912.60,3605.0530796,N,14004.9246808,E,4,09,1.55,26.537,M,39.388,M,5.6,0000*50
$GNGGA,114912.70,3605.0530111,N,14004.9246733,E,4,09,1.55,26.537,M,39.388,M,5.7,0000*5E
$GNGGA,114912.80,3605.0529395,N,14004.9246632,E,4,09,1.55,26.512,M,39.388,M,5.8,0000*5F
$GNGGA,114912.90,3605.0528644,N,14004.9246581,E,4,09,1.55,26.510,M,39.388,M,5.9,0000*5E
$GNGGA,114913.00,3605.0527933,N,14004.9246423,E,4,09,1.55,26.516,M,39.388,M,6.0,0000*53
$GNGGA,114913.10,3605.0527296,N,14004.9246280,E,4,09,1.55,26.524,M,39.388,M,6.1,0000*59
$GNGGA,114913.20,3605.0526589,N,14004.9246142,E,4,09,1.55,26.526,M,39.388,M,6.2,0000*5E
$GNGGA,114913.30,3605.0525884,N,14004.9245987,E,4,09,1.55,26.514,M,39.388,M,6.3,0000*5E
$GNGGA,114913.40,3605.0525224,N,14004.9245757,E,4,09,1.55,26.520,M,39.388,M,6.4,0000*5A
$GNGGA,114913.50,3605.0524531,N,14004.9245666,E,4,09,1.55,26.535,M,39.388,M,6.5,0000*5F
$GNGGA,114913.60,3605.0523861,N,14004.9245564,E,4,09,1.55,26.525,M,39.388,M,6.6,0000*50
$GNGGA,114913.70,3605.0523226,N,14004.9245506,E,4,09,1.55,26.523,M,39.388,M,6.7,0000*5B
$GNGGA,114913.80,3605.0522469,N,14004.9245443,E,4,09,1.55,26.520,M,39.388,M,6.8,0000*54
$GNGGA,114913.90,3605.0521732,N,14004.9245398,E,4,09,1.55,26.502,M,39.388,M,6.9,0000*5B
$GNGGA,114914.00,3605.0521004,N,14004.9245311,E,4,09,1.55,26.511,M,39.388,M,7.0,0000*5C
$GNGGA,114914.10,3605.0520230,N,14004.9245175,E,4,09,1.55,26.514,M,39.388,M,7.1,0000*5D
$GNGGA,114914.20,3605.0519558,N,14004.9245009,E,4,09,1.55,26.518,M,39.388,M,2.2,0000*5D
$GNGGA,114914.30,3605.0518815,N,14004.9244864,E,4,09,1.55,26.506,M,39.388,M,2.3,0000*55
$GNGGA,114914.40,3605.0518132,N,14004.9244706,E,4,09,1.55,26.500,M,39.388,M,2.4,0000*54
$GNGGA,114914.50,3605.0517477,N,14004.9244679,E,4,09,1.55,26.506,M,39.388,M,2.5,0000*50
$GNGGA,114914.60,3605.0516852,N,14004.9244561,E,4,09,1.55,26.517,M,39.388,M,2.6,0000*50
$GNGGA,114914.70,3605.0516225,N,14004.9244591,E,4,09,1.55,26.515,M,39.388,M,2.7,0000*57
$GNGGA,114914.80,3605.0515425,N,14004.9244554,E,4,09,1.55,26.500,M,39.388,M,2.8,0000*5F
$GNGGA,114914.90,3605.0514763,N,14004.9244525,E,4,09,1.55,26.485,M,39.388,M,2.9,0000*55
$GNGGA,114915.00,3605.0513989,N,14004.9244455,E,4,09,1.55,26.498,M,39.388,M,3.0,0000*52
$GNGGA,114915.10,3605.0513337,N,14004.9244415,E,4,09,1.55,26.503,M,39.388,M,3.1,0000*5A
$GNGGA,114915.20,3605.0512637,N,14004.9244292,E,4,09,1.55,26.496,M,39.388,M,3.2,0000*5A
$GNGGA,114915.30,3605.0511933,N,14004.9244173,E,4,09,1.55,26.495,M,39.388,M,3.3,0000*5D
$GNGGA,114915.40,3605.0511268,N,14004.9244070,E,4,09,1.55,26.497,M,39.388,M,3.4,0000*58
$GNGGA,114915.50,3605.0510587,N,14004.9243974,E,4,09,1.55,26.502,M,39.388,M,3.5,0000*58
$GNGGA,114915.60,3605.0509953,N,14004.9243926,E,4,09,1.55,26.494,M,39.388,M,3.6,0000*5C
$GNGGA,114915.70,3605.0509313,N,14004.9243944,E,4,09,1.55,26.495,M,39.388,M,3.7,0000*57
$GNGGA,114915.80,3605.0508589,N,14004.9243956,E,4,09,1.55,26.482,M,39.388,M,3.8,0000*56
$GNGGA,114915.90,3605.0507850,N,14004.9243884,E,4,09,1.55,26.470,M,39.388,M,3.9,0000*53
$GNGGA,114916.00,3605.0507121,N,14004.9243825,E,4,09,1.55,26.474,M,39.388,M,4.0,0000*57
$GNGGA,114916.10,3605.0506473,N,14004.9243781,E,4,09,1.55,26.480,M,39.388,M,4.1,0000*5E
$GNGGA,114916.20,3605.0505791,N,14004.9243630,E,4,09,1.55,26.477,M,39.388,M,4.2,0000*51
$GNGGA,114916.30,3605.0505109,N,14004.9243591,E,4,09,1.55,26.460,M,39.388,M,4.3,0000*58
$GNGGA,114916.40,3605.0504491,N,14004.9243501,E,4,09,1.55,26.463,M,39.388,M,4.4,0000*57
$GNGGA,114916.50,3605.0503847,N,14004.9243424,E,4,09,1.55,26.467,M,39.388,M,4.5,0000*55
$GNGGA,114916.60,3605.0503235,N,14004.9243389,E,4,09,1.55,26.471,M,39.388,M,4.6,0000*5D
$GNGGA,114916.70,3605.0502559,N,14004.9243380,E,4,09,1.55,26.465,M,39.388,M,4.7,0000*5D
$GNGGA,114916.80,3605.0501898,N,14004.9243392,E,4,09,1.55,26.451,M,39.388,M,4.8,0000*5A
$GNGGA,114916.90,3605.0501160,N,14004.9243401,E,4,09,1.55,26.436,M,39.388,M,4.9,0000*58
$GNGGA,114917.00,3605.0500485,N,14004.9243405,E,4,09,1.55,26.442,M,39.388,M,5.0,0000*50
$GNGGA,114917.10,3605.0499787,N,14004.9243366,E,4,09,1.55,26.449,M,39.388,M,5.1,0000*59
$GNGGA,114917.20,3605.0499116,N,14004.9243334,E,4,09,1.55,26.455,M,39.388,M,5.2,0000*5D
$GNGGA,114917.30,3605.0498411,N,14004.9243229,E,4,09,1.55,26.450,M,39.388,M,5.3,0000*56
$GNGGA,114917.40,3605.0497792,N,14004.9243115,E,4,09,1.55,26.459,M,39.388,M,5.4,0000*54
$GNGGA,114917.50,3605.0497189,N,14004.9243055,E,4,09,1.55,26.456,M,39.388,M,5.5,0000*52
$GNGGA,114917.60,3605.0496554,N,14004.9243022,E,4,09,1.55,26.475,M,39.388,M,5.6,0000*56
$GNGGA,114917.70,3605.0495940,N,14004.9243061,E,4,09,1.55,26.478,M,39.388,M,5.7,0000*56
$GNGGA,114917.80,3605.0495255,N,14004.9243091,E,4,09,1.55,26.469,M,39.388,M,5.8,0000*56
$GNGGA,114917.90,3605.0494594,N,14004.9243001,E,4,09,1.55,26.468,M,39.388,M,5.9,0000*55
$GNGGA,114918.00,3605.0493896,N,14004.9243035,E,4,09,1.55,26.474,M,39.388,M,6.0,0000*5B
$GNGGA,114918.10,3605.0493299,N,14004.9243048,E,4,09,1.55,26.463,M,39.388,M,6.1,0000*52
$GNGGA,114918.30,3605.0492364,N,14004.9242816,E,4,09,1.55,26.471,M,39.388,M,1.3,0000*56
$GNGGA,114918.50,3605.0491665,N,14004.9242265,E,4,09,1.55,26.444,M,39.388,M,1.5,0000*59
$GNGGA,114918.70,3605.0491168,N,14004.9241314,E,4,09,1.55,26.440,M,39.388,M,1.7,0000*53
$GNGGA,114918.90,3605.0490780,N,14004.9240467,E,4,09,1.55,26.426,M,39.388,M,1.9,0000*50
$GNGGA,114919.10,3605.0490540,N,14004.9239797,E,4,09,1.55,26.406,M,39.388,M,2.1,0000*5C
$GNGGA,114919.50,3605.0489957,N,14004.9239334,E,4,09,1.55,26.404,M,39.388,M,2.5,0000*51
$GNGGA,114919.80,3605.0489592,N,14004.9238808,E,4,09,1.55,26.449,M,39.388,M,2.8,0000*58
$GNGGA,114920.20,3605.0489347,N,14004.9238201,E,4,09,1.55,26.507,M,39.388,M,3.2,0000*55
$GNGGA,114923.90,3605.0488753,N,14004.9238199,E,4,09,1.55,26.436,M,39.388,M,1.9,0000*55
$GNGGA,114924.10,3605.0488195,N,14004.9238151,E,4,09,1.55,26.413,M,39.388,M,2.1,0000*5E
$GNGGA,114924.30,3605.0487354,N,14004.9238081,E,4,09,1.55,26.384,M,39.388,M,2.3,0000*5B
$GNGGA,114924.50,3605.0486345,N,14004.9237929,E,4,09,1.55,26.374,M,39.388,M,2.5,0000*51
$GNGGA,114924.70,3605.0485309,N,14004.9237776,E,4,09,1.55,26.355,M,39.388,M,2.7,0000*5D
$GNGGA,114924.80,3605.0484785,N,14004.9237611,E,4,09,1.55,26.339,M,39.388,M,2.8,0000*56
$GNGGA,114924.90,3605.0484146,N,14004.9237457,E,4,09,1.55,26.328,M,39.388,M,2.9,0000*5F
$GNGGA,114925.00,3605.0483560,N,14004.9237323,E,4,09,1.55,26.330,M,39.388,M,3.0,0000*55
$GNGGA,114925.20,3605.0482493,N,14004.9237197,E,4,09,1.55,26.335,M,39.388,M,3.2,0000*51
$GNGGA,114925.30,3605.0481825,N,14004.9237135,E,4,09,1.55,26.334,M,39.388,M,3.3,0000*5A
$GNGGA,114925.40,3605.0481248,N,14004.9237200,E,4,09,1.55,26.325,M,39.388,M,3.4,0000*5E
$GNGGA,114925.50,3605.0480631,N,14004.9237291,E,4,09,1.55,26.326,M,39.388,M,3.5,0000*5E
$GNGGA,114925.60,3605.0480093,N,14004.9237358,E,4,09,1.55,26.335,M,39.388,M,3.6,0000*56
$GNGGA,114925.70,3605.0479595,N,14004.9237634,E,4,09,1.55,26.339,M,39.388,M,3.7,0000*50
$GNGGA,114925.90,3605.0478758,N,14004.9238397,E,4,09,1.55,26.320,M,39.388,M,3.9,0000*59
$GNGGA,114926.10,3605.0478275,N,14004.9239162,E,4,09,1.55,26.318,M,39.388,M,4.1,0000*55
$GNGGA,114926.30,3605.0477997,N,14004.9239908,E,4,09,1.55,26.288,M,39.388,M,4.3,0000*51
$GNGGA,114926.50,3605.0477810,N,14004.9240846,E,4,09,1.55,26.263,M,39.388,M,4.5,0000*5F
$GNGGA,114926.70,3605.0477621,N,14004.9241965,E,4,09,1.55,26.268,M,39.388,M,4.7,0000*59
$GNGGA,114926.80,3605.0477451,N,14004.9242666,E,4,09,1.55,26.279,M,39.388,M,4.8,0000*53
$GNGGA,114926.90,3605.0477334,N,14004.9243469,E,4,09,1.55,26.279,M,39.388,M,4.9,0000*5B
$GNGGA,114927.00,3605.0477196,N,14004.9244404,E,4,09,1.55,26.262,M,39.388,M,5.0,0000*57
$GNGGA,114927.10,3605.0477108,N,14004.9245196,E,4,09,1.55,26.262,M,39.388,M,5.1,0000*5F
$GNGGA,114927.30,3605.0477010,N,14004.9246368,E,4,09,1.55,26.245,M,39.388,M,5.3,0000*52
$GNGGA,114927.40,3605.0476652,N,14004.9247025,E,4,09,1.55,26.245,M,39.388,M,5.4,0000*58
$GNGGA,114927.60,3605.0475722,N,14004.9247588,E,4,09,1.55,26.243,M,39.388,M,5.6,0000*59
$GNGGA,114927.70,3605.0475159,N,14004.9247815,E,4,09,1.55,26.266,M,39.388,M,5.7,0000*5D
$GNGGA,114927.80,3605.0474615,N,14004.9248043,E,4,09,1.55,26.269,M,39.388,M,5.8,0000*58
$GNGGA,114927.90,3605.0473950,N,14004.9248099,E,4,09,1.55,26.270,M,39.388,M,5.9,0000*5E
$GNGGA,114928.00,3605.0473360,N,14004.9248146,E,4,09,1.55,26.258,M,39.388,M,6.0,0000*52
$GNGGA,114928.10,3605.0472743,N,14004.9248123,E,4,09,1.55,26.242,M,39.388,M,6.1,0000*5E
$GNGGA,114928.30,3605.0471695,N,14004.9247920,E,4,09,1.55,26.261,M,39.388,M,1.3,0000*55
$GNGGA,114928.40,3605.0471053,N,14004.9248007,E,4,09,1.55,26.260,M,39.388,M,1.4,0000*5B
$GNGGA,114928.50,3605.0470495,N,14004.9248030,E,4,09,1.55,26.236,M,39.388,M,1.5,0000*53
$GNGGA,114928.60,3605.0469778,N,14004.9247945,E,4,09,1.55,26.239,M,39.388,M,1.6,0000*50
$GNGGA,114928.70,3605.0469062,N,14004.9247936,E,4,09,1.55,26.253,M,39.388,M,1.7,0000*54
$GNGGA,114928.80,3605.0468458,N,14004.9247870,E,4,09,1.55,26.249,M,39.388,M,1.8,0000*50
$GNGGA,114928.90,3605.0467819,N,14004.9247742,E,4,09,1.55,26.270,M,39.388,M,1.9,0000*52
$GNGGA,114929.00,3605.0467174,N,14004.9247681,E,4,09,1.55,26.268,M,39.388,M,2.0,0000*55
$GNGGA,114929.10,3605.0466594,N,14004.9247558,E,4,09,1.55,26.271,M,39.388,M,2.1,0000*51
$GNGGA,114929.20,3605.0465929,N,14004.9247512,E,4,09,1.55,26.276,M,39.388,M,2.2,0000*51
$GNGGA,114929.30,3605.0465371,N,14004.9247465,E,4,09,1.55,26.279,M,39.388,M,2.3,0000*58
$GNGGA,114929.40,3605.0464826,N,14004.9247516,E,4,09,1.55,26.296,M,39.388,M,2.4,0000*54
$GNGGA,114929.50,3605.0464152,N,14004.9247489,E,4,09,1.55,26.293,M,39.388,M,2.5,0000*5C
$GNGGA,114929.60,3605.0463510,N,14004.9247528,E,4,09,1.55,26.248,M,39.388,M,2.6,0000*55
$GNGGA,114929.70,3605.0462840,N,14004.9247527,E,4,09,1.55,26.239,M,39.388,M,2.7,0000*55
$GNGGA,114929.80,3605.0462198,N,14004.9247505,E,4,09,1.55,26.237,M,39.388,M,2.8,0000*57
$GNGGA,114929.90,3605.0461603,N,14004.9247399,E,4,09,1.55,26.242,M,39.388,M,2.9,0000*50
$GNGGA,114930.10,3605.0460631,N,14004.9247368,E,4,09,1.55,26.225,M,39.388,M,3.1,0000*56
$GNGGA,114930.20,3605.0460038,N,14004.9247286,E,4,09,1.55,26.227,M,39.388,M,3.2,0000*5A
$GNGGA,114930.40,3605.0459119,N,14004.9247165,E,4,09,1.55,26.218,M,39.388,M,3.4,0000*50
$GNGGA,114930.50,3605.0458494,N,14004.9247275,E,4,09,1.55,26.227,M,39.388,M,3.5,0000*5F
$GNGGA,114930.70,3605.0457456,N,14004.9247252,E,4,09,1.55,26.219,M,39.388,M,3.7,0000*56
$GNGGA,114930.80,3605.0456910,N,14004.9247324,E,4,09,1.55,26.236,M,39.388,M,3.8,0000*55
$GNGGA,114931.00,3605.0455854,N,14004.9247149,E,4,09,1.55,26.274,M,39.388,M,4.0,0000*5E
$GNGGA,114931.20,3605.0454928,N,14004.9246855,E,4,09,1.55,26.288,M,39.388,M,4.2,0000*53
$GNGGA,114931.30,3605.0454291,N,14004.9246704,E,4,09,1.55,26.277,M,39.388,M,4.3,0000*51
$GNGGA,114931.40,3605.0453730,N,14004.9246404,E,4,09,1.55,26.276,M,39.388,M,4.4,0000*5A
$GNGGA,114931.60,3605.0452940,N,14004.9245965,E,4,09,1.55,26.289,M,39.388,M,4.6,0000*5B
$GNGGA,114931.70,3605.0452475,N,14004.9245620,E,4,09,1.55,26.297,M,39.388,M,4.7,0000*51
$GNGGA,114931.80,3605.0451843,N,14004.9245343,E,4,09,1.55,26.294,M,39.388,M,4.8,0000*58
$GNGGA,114932.00,3605.0450752,N,14004.9244523,E,4,09,1.55,26.278,M,39.388,M,5.0,0000*57
$GNGGA,114932.10,3605.0450276,N,14004.9244157,E,4,09,1.55,26.269,M,39.388,M,5.1,0000*53
$GNGGA,114932.30,3605.0449344,N,14004.9243220,E,4,09,1.55,26.272,M,39.388,M,5.3,0000*55
$GNGGA,114932.40,3605.0448805,N,14004.9242786,E,4,09,1.55,26.265,M,39.388,M,5.4,0000*54
$GNGGA,114932.50,3605.0448293,N,14004.9242260,E,4,09,1.55,26.255,M,39.388,M,5.5,0000*5F
$GNGGA,114932.60,3605.0447714,N,14004.9241692,E,4,09,1.55,26.253,M,39.388,M,5.6,0000*56
$GNGGA,114932.80,3605.0446748,N,14004.9240870,E,4,09,1.55,26.271,M,39.388,M,5.8,0000*5D
$GNGGA,114932.90,3605.0446133,N,14004.9240261,E,4,09,1.55,26.264,M,39.388,M,5.9,0000*59
$GNGGA,114933.00,3605.0445639,N,14004.9239764,E,4,09,1.55,26.259,M,39.388,M,6.0,0000*55
$GNGGA,114933.10,3605.0445031,N,14004.9239075,E,4,09,1.55,26.274,M,39.388,M,6.1,0000*53
$GNGGA,114933.20,3605.0444623,N,14004.9238422,E,4,09,1.55,26.282,M,39.388,M,1.2,0000*5E
$GNGGA,114933.30,3605.0444281,N,14004.9237792,E,4,09,1.55,26.295,M,39.388,M,1.3,0000*53
$GNGGA,114933.40,3605.0443771,N,14004.9236994,E,4,09,1.55,26.294,M,39.388,M,1.4,0000*56
$GNGGA,114933.50,3605.0443441,N,14004.9236301,E,4,09,1.55,26.285,M,39.388,M,1.5,0000*50
$GNGGA,114933.60,3605.0443080,N,14004.9235538,E,4,09,1.55,26.288,M,39.388,M,1.6,0000*5B
$GNGGA,114933.70,3605.0442771,N,14004.9234930,E,4,09,1.55,26.292,M,39.388,M,1.7,0000*5D
$GNGGA,114933.80,3605.0442438,N,14004.9234282,E,4,09,1.55,26.285,M,39.388,M,1.8,0000*57
$GNGGA,114933.90,3605.0442064,N,14004.9233588,E,4,09,1.55,26.269,M,39.388,M,1.9,0000*52
$GNGGA,114934.00,3605.0441736,N,14004.9232807,E,4,09,1.55,26.239,M,39.388,M,2.0,0000*5B
$GNGGA,114934.10,3605.0441359,N,14004.9232020,E,4,09,1.55,26.214,M,39.388,M,2.1,0000*54
$GNGGA,114934.20,3605.0441114,N,14004.9231114,E,4,09,1.55,26.209,M,39.388,M,2.2,0000*56
$GNGGA,114934.30,3605.0440951,N,14004.9230346,E,4,09,1.55,26.211,M,39.388,M,2.3,0000*53
$GNGGA,114934.40,3605.0440757,N,14004.9229531,E,4,09,1.55,26.202,M,39.388,M,2.4,0000*57
$GNGGA,114934.50,3605.0440555,N,14004.9228632,E,4,09,1.55,26.180,M,39.388,M,2.5,0000*5F
$GNGGA,114934.60,3605.0440396,N,14004.9227726,E,4,09,1.55,26.163,M,39.388,M,2.6,0000*50
$GNGGA,114934.70,3605.0440310,N,14004.9226955,E,4,09,1.55,26.166,M,39.388,M,2.7,0000*50
$GNGGA,114934.80,3605.0440165,N,14004.9226152,E,4,09,1.55,26.179,M,39.388,M,2.8,0000*51
$GNGGA,114934.90,3605.0439926,N,14004.9225194,E,4,09,1.55,26.173,M,39.388,M,2.9,0000*53
$GNGGA,114935.00,3605.0439908,N,14004.9224294,E,4,09,1.55,26.167,M,39.388,M,3.0,0000*58
$GNGGA,114935.10,3605.0439772,N,14004.9223322,E,4,09,1.55,26.155,M,39.388,M,3.1,0000*51
$GNGGA,114935.20,3605.0439751,N,14004.9222459,E,4,09,1.55,26.150,M,39.388,M,3.2,0000*5F
$GNGGA,114935.30,3605.0439782,N,14004.9221728,E,4,09,1.55,26.184,M,39.388,M,3.3,0000*5E
$GNGGA,114935.40,3605.0439695,N,14004.9220820,E,4,09,1.55,26.188,M,39.388,M,3.4,0000*53
$GNGGA,114935.50,3605.0439688,N,14004.9219817,E,4,09,1.55,26.177,M,39.388,M,3.5,0000*51
$GNGGA,114935.60,3605.0439771,N,14004.9218928,E,4,09,1.55,26.168,M,39.388,M,3.6,0000*54
$GNGGA,114935.70,3605.0439782,N,14004.9218151,E,4,09,1.55,26.181,M,39.388,M,3.7,0000*59
$GNGGA,114935.80,3605.0439761,N,14004.9217347,E,4,09,1.55,26.187,M,39.388,M,3.8,0000*58
$GNGGA,114935.90,3605.0439744,N,14004.9216485,E,4,09,1.55,26.185,M,39.388,M,3.9,0000*55
$GNGGA,114936.00,3605.0439670,N,14004.9215614,E,4,09,1.55,26.171,M,39.388,M,4.0,0000*55
$GNGGA,114936.10,3605.0439715,N,14004.9214778,E,4,09,1.55,26.160,M,39.388,M,4.1,0000*5D
$GNGGA,114936.20,3605.0439712,N,14004.9213874,E,4,09,1.55,26.156,M,39.388,M,4.2,0000*5B
$GNGGA,114936.30,3605.0439795,N,14004.9213018,E,4,09,1.55,26.174,M,39.388,M,4.3,0000*56
$GNGGA,114936.40,3605.0439802,N,14004.9212112,E,4,09,1.55,26.174,M,39.388,M,4.4,0000*5D
$GNGGA,114936.50,3605.0439859,N,14004.9211108,E,4,09,1.55,26.165,M,39.388,M,4.5,0000*5B
$GNGGA,114936.60,3605.0439961,N,14004.9210243,E,4,09,1.55,26.161,M,39.388,M,4.6,0000*58
$GNGGA,114936.70,3605.0440042,N,14004.9209380,E,4,09,1.55,26.177,M,39.388,M,4.7,0000*5F
$GNGGA,114936.80,3605.0440063,N,14004.9208666,E,4,09,1.55,26.180,M,39.388,M,4.8,0000*58
$GNGGA,114936.90,3605.0440011,N,14004.9207769,E,4,09,1.55,26.178,M,39.388,M,4.9,0000*5B
$GNGGA,114937.00,3605.0440036,N,14004.9206819,E,4,09,1.55,26.170,M,39.388,M,5.0,0000*5F
$GNGGA,114937.10,3605.0440050,N,14004.9205933,E,4,09,1.55,26.162,M,39.388,M,5.1,0000*56
$GNGGA,114937.20,3605.0440075,N,14004.9205049,E,4,09,1.55,26.167,M,39.388,M,5.2,0000*50
$GNGGA,114937.30,3605.0440166,N,14004.9204224,E,4,09,1.55,26.174,M,39.388,M,5.3,0000*59
$GNGGA,114937.40,3605.0440177,N,14004.9203318,E,4,09,1.55,26.171,M,39.388,M,5.4,0000*55
$GNGGA,114937.50,3605.0440272,N,14004.9202319,E,4,09,1.55,26.164,M,39.388,M,5.5,0000*57
$GNGGA,114937.60,3605.0440403,N,14004.9201443,E,4,09,1.55,26.171,M,39.388,M,5.6,0000*58
$GNGGA,114937.70,3605.0440467,N,14004.9200560,E,4,09,1.55,26.179,M,39.388,M,5.7,0000*53
$GNGGA,114937.80,3605.0440484,N,14004.9199689,E,4,09,1.55,26.185,M,39.388,M,5.8,0000*5A
$GNGGA,114937.90,3605.0440498,N,14004.9198771,E,4,09,1.55,26.184,M,39.388,M,5.9,0000*51
$GNGGA,114938.00,3605.0440541,N,14004.9197792,E,4,09,1.55,26.176,M,39.388,M,6.0,0000*57
$GNGGA,114938.10,3605.0440673,N,14004.9196851,E,4,09,1.55,26.166,M,39.388,M,6.1,0000*55
$GNGGA,114938.20,3605.0440745,N,14004.9195953,E,4,09,1.55,26.172,M,39.388,M,1.2,0000*53
$GNGGA,114938.30,3605.0440836,N,14004.9195123,E,4,09,1.55,26.175,M,39.388,M,1.3,0000*50
$GNGGA,114938.40,3605.0440945,N,14004.9194192,E,4,09,1.55,26.179,M,39.388,M,1.4,0000*52
$GNGGA,114938.50,3605.0441035,N,14004.9193175,E,4,09,1.55,26.162,M,39.388,M,1.5,0000*59
$GNGGA,114938.60,3605.0441139,N,14004.9192314,E,4,09,1.55,26.162,M,39.388,M,1.6,0000*50
$GNGGA,114938.70,3605.0441225,N,14004.9191422,E,4,09,1.55,26.190,M,39.388,M,1.7,0000*52
$GNGGA,114938.80,3605.0441219,N,14004.9190563,E,4,09,1.55,26.187,M,39.388,M,1.8,0000*5E
$GNGGA,114938.90,3605.0441256,N,14004.9189626,E,4,09,1.55,26.192,M,39.388,M,1.9,0000*5B
$GNGGA,114939.00,3605.0441297,N,14004.9188647,E,4,09,1.55,26.187,M,39.388,M,2.0,0000*56
$GNGGA,114939.10,3605.0441331,N,14004.9187691,E,4,09,1.55,26.181,M,39.388,M,2.1,0000*59
$GNGGA,114939.20,3605.0441470,N,14004.9186804,E,4,09,1.55,26.185,M,39.388,M,2.2,0000*5C
$GNGGA,114939.30,3605.0441545,N,14004.9185878,E,4,09,1.55,26.197,M,39.388,M,2.3,0000*50
$GNGGA,114939.40,3605.0441556,N,14004.9184933,E,4,09,1.55,26.194,M,39.388,M,2.4,0000*5E
$GNGGA,114939.50,3605.0441675,N,14004.9183919,E,4,09,1.55,26.187,M,39.388,M,2.5,0000*51
$GNGGA,114939.60,3605.0441743,N,14004.9182975,E,4,09,1.55,26.186,M,39.388,M,2.6,0000*5F
$GNGGA,114939.70,3605.0441832,N,14004.9182163,E,4,09,1.55,26.203,M,39.388,M,2.7,0000*57
$GNGGA,114939.80,3605.0441838,N,14004.9181346,E,4,09,1.55,26.211,M,39.388,M,2.8,0000*58
$GNGGA,114939.90,3605.0441828,N,14004.9180355,E,4,09,1.55,26.201,M,39.388,M,2.9,0000*5B
$GNGGA,114940.00,3605.0441844,N,14004.9179388,E,4,09,1.55,26.192,M,39.388,M,3.0,0000*51
$GNGGA,114940.10,3605.0441927,N,14004.9178481,E,4,09,1.55,26.188,M,39.388,M,3.1,0000*51
$GNGGA,114940.20,3605.0442010,N,14004.9177579,E,4,09,1.55,26.185,M,39.388,M,3.2,0000*5B
$GNGGA,114940.30,3605.0442069,N,14004.9176711,E,4,09,1.55,26.192,M,39.388,M,3.3,0000*5E
$GNGGA,114940.40,3605.0442113,N,14004.9175726,E,4,09,1.55,26.184,M,39.388,M,3.4,0000*52
$GNGGA,114940.50,3605.0442201,N,14004.9174769,E,4,09,1.55,26.175,M,39.388,M,3.5,0000*56
$GNGGA,114940.60,3605.0442260,N,14004.9173833,E,4,09,1.55,26.168,M,39.388,M,3.6,0000*5A
$GNGGA,114940.70,3605.0442335,N,14004.9173015,E,4,09,1.55,26.179,M,39.388,M,3.7,0000*57
$GNGGA,114940.80,3605.0442303,N,14004.9172128,E,4,09,1.55,26.187,M,39.388,M,3.8,0000*5D
$GNGGA,114940.90,3605.0442334,N,14004.9171231,E,4,09,1.55,26.179,M,39.388,M,3.9,0000*50
$GNGGA,114941.00,3605.0442347,N,14004.9170247,E,4,09,1.55,26.166,M,39.388,M,4.0,0000*5C
$GNGGA,114941.10,3605.0442436,N,14004.9169321,E,4,09,1.55,26.159,M,39.388,M,4.1,0000*58
$GNGGA,114941.20,3605.0442594,N,14004.9168514,E,4,09,1.55,26.173,M,39.388,M,4.2,0000*58
$GNGGA,114941.30,3605.0442625,N,14004.9167653,E,4,09,1.55,26.188,M,39.388,M,4.3,0000*5A
$GNGGA,114941.40,3605.0442642,N,14004.9166735,E,4,09,1.55,26.183,M,39.388,M,4.4,0000*50
$GNGGA,114941.50,3605.0442812,N,14004.9165924,E,4,09,1.55,26.183,M,39.388,M,4.5,0000*56
$GNGGA,114941.60,3605.0442873,N,14004.9165061,E,4,09,1.55,26.190,M,39.388,M,4.6,0000*5B
$GNGGA,114941.70,3605.0442983,N,14004.9164298,E,4,09,1.55,26.196,M,39.388,M,4.7,0000*56
$GNGGA,114941.80,3605.0443019,N,14004.9163468,E,4,09,1.55,26.210,M,39.388,M,4.8,0000*5E
$GNGGA,114941.90,3605.0443072,N,14004.9162618,E,4,09,1.55,26.208,M,39.388,M,4.9,0000*5E
$GNGGA,114942.00,3605.0443145,N,14004.9161729,E,4,09,1.55,26.201,M,39.388,M,5.0,0000*50
$GNGGA,114942.10,3605.0443223,N,14004.9160840,E,4,09,1.55,26.191,M,39.388,M,5.1,0000*58
$GNGGA,114942.20,3605.0443363,N,14004.9159982,E,4,09,1.55,26.192,M,39.388,M,5.2,0000*5B
$GNGGA,114942.30,3605.0443441,N,14004.9159058,E,4,09,1.55,26.202,M,39.388,M,5.3,0000*58
$GNGGA,114942.40,3605.0443524,N,14004.9158167,E,4,09,1.55,26.196,M,39.388,M,5.4,0000*58
$GNGGA,114942.50,3605.0443608,N,14004.9157225,E,4,09,1.55,26.191,M,39.388,M,5.5,0000*58
$GNGGA,114942.60,3605.0443722,N,14004.9156321,E,4,09,1.55,26.186,M,39.388,M,5.6,0000*53
$GNGGA,114942.70,3605.0443873,N,14004.9155506,E,4,09,1.55,26.191,M,39.388,M,5.7,0000*5E
$GNGGA,114942.80,3605.0443909,N,14004.9154685,E,4,09,1.55,26.197,M,39.388,M,5.8,0000*5D
$GNGGA,114942.90,3605.0443868,N,14004.9153796,E,4,09,1.55,26.192,M,39.388,M,5.9,0000*5A
$GNGGA,114943.00,3605.0443895,N,14004.9152831,E,4,09,1.55,26.180,M,39.388,M,6.0,0000*5A
$GNGGA,114943.10,3605.0443865,N,14004.9151859,E,4,09,1.55,26.176,M,39.388,M,6.1,0000*51
$GNGGA,114943.20,3605.0443897,N,14004.9150895,E,4,09,1.55,26.178,M,39.388,M,6.2,0000*53
$GNGGA,114943.30,3605.0443895,N,14004.9150164,E,4,09,1.55,26.180,M,39.388,M,6.3,0000*51
$GNGGA,114943.40,3605.0443958,N,14004.9149260,E,4,09,1.55,26.183,M,39.388,M,6.4,0000*5D
$GNGGA,114943.50,3605.0444013,N,14004.9148405,E,4,09,1.55,26.175,M,39.388,M,6.5,0000*51
$GNGGA,114943.60,3605.0444063,N,14004.9147558,E,4,09,1.55,26.180,M,39.388,M,6.6,0000*5A
$GNGGA,114943.70,3605.0444142,N,14004.9146849,E,4,09,1.55,26.186,M,39.388,M,6.7,0000*52
$GNGGA,114943.90,3605.0444405,N,14004.9145563,E,4,09,1.55,26.196,M,39.388,M,6.9,0000*53
$GNGGA,114944.00,3605.0444642,N,14004.9144956,E,4,09,1.55,26.177,M,39.388,M,7.0,0000*50
$GNGGA,114944.10,3605.0445106,N,14004.9144326,E,4,09,1.55,26.147,M,39.388,M,7.1,0000*58
$GNGGA,114944.20,3605.0445592,N,14004.9143743,E,2,09,1.55,26.161,M,39.388,M,2.2,0000*56
$GNGGA,114944.30,3605.0446316,N,14004.9143508,E,2,09,1.55,26.140,M,39.388,M,2.3,0000*51
$GNGGA,114944.40,3605.0446989,N,14004.9143192,E,2,09,1.55,26.149,M,39.388,M,2.4,0000*53
$GNGGA,114944.50,3605.0447728,N,14004.9143024,E,2,09,1.55,26.112,M,39.388,M,2.5,0000*55
$GNGGA,114944.60,3605.0448371,N,14004.9142676,E,2,09,1.55,26.105,M,39.388,M,2.6,0000*54
$GNGGA,114944.70,3605.0449094,N,14004.9142259,E,5,09,1.55,26.104,M,39.388,M,2.7,0000*52
$GNGGA,114944.80,3605.0449817,N,14004.9142035,E,5,09,1.55,26.069,M,39.388,M,2.8,0000*53
$GNGGA,114944.90,3605.0450451,N,14004.9142025,E,5,09,1.55,26.077,M,39.388,M,2.9,0000*5B
$GNGGA,114945.00,3605.0450993,N,14004.9142075,E,5,09,1.55,26.058,M,39.388,M,3.0,0000*50
$GNGGA,114945.10,3605.0451589,N,14004.9142099,E,5,09,1.55,26.056,M,39.388,M,3.1,0000*5A
$GNGGA,114945.20,3605.0452168,N,14004.9142316,E,5,09,1.55,26.054,M,39.388,M,3.2,0000*54
$GNGGA,114945.30,3605.0452697,N,14004.9142609,E,5,09,1.55,26.048,M,39.388,M,3.3,0000*55
$GNGGA,114945.40,3605.0453238,N,14004.9142865,E,5,09,1.55,26.042,M,39.388,M,3.4,0000*5B
$GNGGA,114945.60,3605.0453618,N,14004.9143843,E,5,09,1.55,26.049,M,39.388,M,3.6,0000*53
$GNGGA,114945.70,3605.0453677,N,14004.9144618,E,5,09,1.55,26.050,M,39.388,M,3.7,0000*55
$GNGGA,114945.90,3605.0453599,N,14004.9145841,E,5,09,1.55,26.078,M,39.388,M,3.9,0000*5F
$GNGGA,114946.10,3605.0453787,N,14004.9147134,E,5,09,1.55,26.058,M,39.388,M,4.1,0000*5D
$GNGGA,114946.30,3605.0453691,N,14004.9148233,E,5,09,1.55,26.113,M,39.388,M,4.3,0000*5E
$GNGGA,114946.50,3605.0453500,N,14004.9149481,E,5,09,1.55,26.171,M,39.388,M,4.5,0000*5F
$GNGGA,114946.70,3605.0453562,N,14004.9150939,E,5,09,1.55,26.202,M,39.388,M,4.7,0000*5A
$GNGGA,114946.80,3605.0453569,N,14004.9151619,E,5,09,1.55,26.224,M,39.388,M,4.8,0000*59
$GNGGA,114946.90,3605.0453601,N,14004.9152400,E,5,09,1.55,26.219,M,39.388,M,4.9,0000*53
$GNGGA,114947.00,3605.0453509,N,14004.9153126,E,5,09,1.55,26.199,M,39.388,M,5.0,0000*53
$GNGGA,114947.10,3605.0453461,N,14004.9153965,E,5,09,1.55,26.174,M,39.388,M,5.1,0000*50
$GNGGA,114947.20,3605.0453294,N,14004.9154772,E,5,09,1.55,26.179,M,39.388,M,5.2,0000*5E
$GNGGA,114947.30,3605.0453290,N,14004.9155563,E,5,09,1.55,26.175,M,39.388,M,5.3,0000*55
$GNGGA,114947.40,3605.0453299,N,14004.9156238,E,5,09,1.55,26.173,M,39.388,M,5.4,0000*50
$GNGGA,114947.50,3605.0453263,N,14004.9156999,E,5,09,1.55,26.178,M,39.388,M,5.5,0000*5E
$GNGGA,114947.60,3605.0453178,N,14004.9157820,E,5,09,1.55,26.168,M,39.388,M,5.6,0000*54
$GNGGA,114947.70,3605.0453131,N,14004.9158638,E,5,09,1.55,26.159,M,39.388,M,5.7,0000*53
$GNGGA,114947.80,3605.0453089,N,14004.9159403,E,5,09,1.55,26.169,M,39.388,M,5.8,0000*59
$GNGGA,114947.90,3605.0453006,N,14004.9160112,E,5,09,1.55,26.174,M,39.388,M,5.9,0000*5D
$GNGGA,114948.00,3605.0452960,N,14004.9160856,E,5,09,1.55,26.173,M,39.388,M,6.0,0000*57
$GNGGA,114948.10,3605.0452885,N,14004.9161617,E,5,09,1.55,26.171,M,39.388,M,6.1,0000*55
$GNGGA,114948.20,3605.0452791,N,14004.9162467,E,5,09,1.55,26.173,M,39.388,M,1.2,0000*5C
$GNGGA,114948.30,3605.0452645,N,14004.9163253,E,5,09,1.55,26.186,M,39.388,M,1.3,0000*5E
$GNGGA,114948.40,3605.0452612,N,14004.9163975,E,5,09,1.55,26.194,M,39.388,M,1.4,0000*50
$GNGGA,114948.50,3605.0452585,N,14004.9164717,E,5,09,1.55,26.199,M,39.388,M,1.5,0000*5D
$GNGGA,114948.60,3605.0452573,N,14004.9165522,E,5,09,1.55,26.193,M,39.388,M,1.6,0000*5B
$GNGGA,114948.70,3605.0452358,N,14004.9166334,E,4,09,1.55,26.180,M,39.388,M,1.7,0000*55
$GNGGA,114948.80,3605.0452424,N,14004.9167204,E,4,09,1.55,26.190,M,39.388,M,1.8,0000*5B
$GNGGA,114948.90,3605.0452390,N,14004.9168042,E,4,09,1.55,26.204,M,39.388,M,1.9,0000*52
$GNGGA,114949.00,3605.0452333,N,14004.9168798,E,4,09,1.55,26.208,M,39.388,M,2.0,0000*55
$GNGGA,114949.10,3605.0452285,N,14004.9169597,E,4,09,1.55,26.207,M,39.388,M,2.1,0000*5A
$GNGGA,114949.20,3605.0452217,N,14004.9170491,E,4,09,1.55,26.201,M,39.388,M,2.2,0000*58
$GNGGA,114949.30,3605.0452027,N,14004.9171355,E,4,09,1.55,26.196,M,39.388,M,2.3,0000*5A
$GNGGA,114949.40,3605.0451889,N,14004.9172119,E,4,09,1.55,26.207,M,39.388,M,2.4,0000*57
$GNGGA,114949.50,3605.0451825,N,14004.9172816,E,4,09,1.55,26.220,M,39.388,M,2.5,0000*52
$GNGGA,114949.60,3605.0451769,N,14004.9173606,E,4,09,1.55,26.222,M,39.388,M,2.6,0000*59
$GNGGA,114949.70,3605.0451729,N,14004.9174515,E,4,09,1.55,26.209,M,39.388,M,2.7,0000*52
$GNGGA,114949.80,3605.0451663,N,14004.9175326,E,4,09,1.55,26.195,M,39.388,M,2.8,0000*5C
$GNGGA,114949.90,3605.0451618,N,14004.9176212,E,4,09,1.55,26.201,M,39.388,M,2.9,0000*5B
$GNGGA,114950.00,3605.0451550,N,14004.9177074,E,4,09,1.55,26.212,M,39.388,M,3.0,0000*5C
$GNGGA,114950.10,3605.0451419,N,14004.9177757,E,4,09,1.55,26.211,M,39.388,M,3.1,0000*55
$GNGGA,114950.20,3605.0451384,N,14004.9178662,E,4,09,1.55,26.209,M,39.388,M,3.2,0000*57
$GNGGA,114950.30,3605.0451293,N,14004.9179531,E,4,09,1.55,26.200,M,39.388,M,3.3,0000*5D
$GNGGA,114950.40,3605.0451179,N,14004.9180346,E,4,09,1.55,26.209,M,39.388,M,3.4,0000*53
$GNGGA,114950.50,3605.0451175,N,14004.9181112,E,4,09,1.55,26.221,M,39.388,M,3.5,0000*57
$GNGGA,114950.60,3605.0451221,N,14004.9181864,E,4,09,1.55,26.228,M,39.388,M,3.6,0000*54
$GNGGA,114950.70,3605.0451150,N,14004.9182693,E,4,09,1.55,26.214,M,39.388,M,3.7,0000*5B
$GNGGA,114950.80,3605.0451161,N,14004.9183614,E,4,09,1.55,26.208,M,39.388,M,3.8,0000*5A
$GNGGA,114950.90,3605.0451122,N,14004.9184458,E,4,09,1.55,26.209,M,39.388,M,3.9,0000*51
$GNGGA,114951.00,3605.0451068,N,14004.9185333,E,4,09,1.55,26.215,M,39.388,M,4.0,0000*5E
$GNGGA,114951.10,3605.0450959,N,14004.9186158,E,4,09,1.55,26.223,M,39.388,M,4.1,0000*5D
$GNGGA,114951.20,3605.0450902,N,14004.9187064,E,4,09,1.55,26.213,M,39.388,M,4.2,0000*5F
$GNGGA,114951.30,3605.0450814,N,14004.9188001,E,4,09,1.55,26.203,M,39.388,M,4.3,0000*54
$GNGGA,114951.40,3605.0450703,N,14004.9188949,E,4,09,1.55,26.203,M,39.388,M,4.4,0000*58
$GNGGA,114951.50,3605.0450607,N,14004.9189812,E,4,09,1.55,26.212,M,39.388,M,4.5,0000*53
$GNGGA,114951.60,3605.0450623,N,14004.9190637,E,4,09,1.55,26.217,M,39.388,M,4.6,0000*51
$GNGGA,114951.70,3605.0450593,N,14004.9191559,E,4,09,1.55,26.215,M,39.388,M,4.7,0000*51
$GNGGA,114951.80,3605.0450598,N,14004.9192496,E,4,09,1.55,26.202,M,39.388,M,4.8,0000*5D
$GNGGA,114951.90,3605.0450547,N,14004.9193413,E,4,09,1.55,26.187,M,39.388,M,4.9,0000*5D
$GNGGA,114952.00,3605.0450524,N,14004.9194391,E,4,09,1.55,26.198,M,39.388,M,5.0,0000*5E
$GNGGA,114952.10,3605.0450452,N,14004.9195288,E,4,09,1.55,26.206,M,39.388,M,5.1,0000*52
$GNGGA,114952.20,3605.0450339,N,14004.9196224,E,4,09,1.55,26.203,M,39.388,M,5.2,0000*58
$GNGGA,114952.30,3605.0450180,N,14004.9197177,E,4,09,1.55,26.192,M,39.388,M,5.3,0000*57
$GNGGA,114952.40,3605.0450120,N,14004.9198080,E,4,09,1.55,26.195,M,39.388,M,5.4,0000*5C
$GNGGA,114952.50,3605.0450065,N,14004.9198893,E,4,09,1.55,26.205,M,39.388,M,5.5,0000*5C
$GNGGA,114952.60,3605.0450035,N,14004.9199719,E,4,09,1.55,26.221,M,39.388,M,5.6,0000*53
$GNGGA,114952.70,3605.0450019,N,14004.9200579,E,4,09,1.55,26.212,M,39.388,M,5.7,0000*5A
$GNGGA,114952.80,3605.0449969,N,14004.9201510,E,4,09,1.55,26.191,M,39.388,M,5.8,0000*5A
$GNGGA,114952.90,3605.0449946,N,14004.9202416,E,4,09,1.55,26.186,M,39.388,M,5.9,0000*55
$GNGGA,114953.00,3605.0449919,N,14004.9203378,E,4,09,1.55,26.190,M,39.388,M,6.0,0000*54
$GNGGA,114953.10,3605.0449804,N,14004.9204187,E,4,09,1.55,26.205,M,39.388,M,6.1,0000*53
$GNGGA,114953.20,3605.0449710,N,14004.9205014,E,4,09,1.55,26.203,M,39.388,M,1.2,0000*52
$GNGGA,114953.30,3605.0449665,N,14004.9205903,E,4,09,1.55,26.200,M,39.388,M,1.3,0000*5D
$GNGGA,114953.40,3605.0449578,N,14004.9206702,E,4,09,1.55,26.193,M,39.388,M,1.4,0000*57
$GNGGA,114953.50,3605.0449537,N,14004.9207488,E,4,09,1.55,26.198,M,39.388,M,1.5,0000*57
$GNGGA,114953.60,3605.0449580,N,14004.9208205,E,4,09,1.55,26.222,M,39.388,M,1.6,0000*55
$GNGGA,114953.70,3605.0449552,N,14004.9208911,E,4,09,1.55,26.215,M,39.388,M,1.7,0000*50
$GNGGA,114953.80,3605.0449540,N,14004.9209723,E,4,09,1.55,26.199,M,39.388,M,1.8,0000*5A
$GNGGA,114953.90,3605.0449526,N,14004.9210494,E,4,09,1.55,26.201,M,39.388,M,1.9,0000*5F
$GNGGA,114954.00,3605.0449489,N,14004.9211288,E,4,09,1.55,26.206,M,39.388,M,2.0,0000*52
$GNGGA,114954.20,3605.0449414,N,14004.9212468,E,4,09,1.55,26.235,M,39.388,M,2.2,0000*5D
$GNGGA,114954.40,3605.0449340,N,14004.9213635,E,4,09,1.55,26.230,M,39.388,M,2.4,0000*55
$GNGGA,114954.60,3605.0449219,N,14004.9214749,E,4,09,1.55,26.233,M,39.388,M,2.6,0000*56
$GNGGA,114954.80,3605.0449252,N,14004.9215603,E,4,09,1.55,26.248,M,39.388,M,2.8,0000*5B
$GNGGA,114955.00,3605.0449260,N,14004.9216417,E,4,09,1.55,26.239,M,39.388,M,3.0,0000*58
$GNGGA,114955.20,3605.0449325,N,14004.9217237,E,4,09,1.55,26.243,M,39.388,M,3.2,0000*50
$GNGGA,114955.60,3605.0449381,N,14004.9218004,E,4,09,1.55,26.255,M,39.388,M,3.6,0000*54
$GNGGA,114956.10,3605.0448944,N,14004.9218501,E,4,09,1.55,26.258,M,39.388,M,4.1,0000*5F
$GNGGA,114956.30,3605.0448421,N,14004.9218756,E,4,09,1.55,26.252,M,39.388,M,4.3,0000*5B
$GNGGA,114956.50,3605.0447725,N,14004.9218675,E,4,09,1.55,26.242,M,39.388,M,4.5,0000*52
$GNGGA,114956.70,3605.0447107,N,14004.9218574,E,4,09,1.55,26.212,M,39.388,M,4.7,0000*53
$GNGGA,114957.00,3605.0446566,N,14004.9218139,E,4,09,1.55,26.176,M,39.388,M,5.0,0000*5D
$GNGGA,114957.30,3605.0446071,N,14004.9217831,E,4,09,1.55,26.167,M,39.388,M,5.3,0000*50
$GNGGA,114957.60,3605.0445254,N,14004.9217318,E,4,09,1.55,26.152,M,39.388,M,5.6,0000*50
$GNGGA,114957.80,3605.0444471,N,14004.9216885,E,4,09,1.55,26.160,M,39.388,M,5.8,0000*5F
$GNGGA,114958.00,3605.0443820,N,14004.9216592,E,4,09,1.55,26.168,M,39.388,M,6.0,0000*5F
$GNGGA,114958.20,3605.0443201,N,14004.9216341,E,4,09,1.55,26.191,M,39.388,M,1.2,0000*5F
$GNGGA,114958.40,3605.0442633,N,14004.9216174,E,4,09,1.55,26.195,M,39.388,M,1.4,0000*5B
$GNGGA,114958.70,3605.0442036,N,14004.9215861,E,4,09,1.55,26.204,M,39.388,M,1.7,0000*5D
$GNGGA,114959.00,3605.0441780,N,14004.9215272,E,4,09,1.55,26.198,M,39.388,M,2.0,0000*58
$GNGGA,114959.40,3605.0441672,N,14004.9214559,E,4,09,1.55,26.199,M,39.388,M,2.4,0000*5A
$GNGGA,114959.80,3605.0441759,N,14004.9213829,E,4,09,1.55,26.171,M,39.388,M,2.8,0000*59
$GNGGA,115000.50,3605.0441455,N,14004.9213107,E,4,09,1.55,26.128,M,39.388,M,3.5,0000*5A
$GNGGA,115000.70,3605.0441529,N,14004.9212420,E,4,09,1.55,26.139,M,39.388,M,3.7,0000*51
$GNGGA,115000.90,3605.0441656,N,14004.9211354,E,4,09,1.55,26.161,M,39.388,M,3.9,0000*50
$GNGGA,115001.10,3605.0441700,N,14004.9210330,E,4,09,1.55,26.179,M,39.388,M,4.1,0000*5E
$GNGGA,115001.30,3605.0441666,N,14004.9209292,E,4,09,1.55,26.185,M,39.388,M,4.3,0000*5D
$GNGGA,115001.50,3605.0441596,N,14004.9208131,E,4,09,1.55,26.184,M,39.388,M,4.5,0000*5B
$GNGGA,115001.70,3605.0441546,N,14004.9206959,E,4,09,1.55,26.196,M,39.388,M,4.7,0000*5D
$GNGGA,115001.90,3605.0441579,N,14004.9205831,E,4,09,1.55,26.200,M,39.388,M,4.9,0000*51
$GNGGA,115002.00,3605.0441581,N,14004.9205162,E,4,09,1.55,26.198,M,39.388,M,5.0,0000*59
$GNGGA,115002.10,3605.0441599,N,14004.9204434,E,4,09,1.55,26.195,M,39.388,M,5.1,0000*5A
$GNGGA,115002.30,3605.0441647,N,14004.9203192,E,4,09,1.55,26.208,M,39.388,M,5.3,0000*53
$GNGGA,115002.50,3605.0441396,N,14004.9202293,E,4,09,1.55,26.215,M,39.388,M,5.5,0000*55
$GNGGA,115002.70,3605.0441048,N,14004.9201503,E,4,09,1.55,26.207,M,39.388,M,5.7,0000*5B
$GNGGA,115003.00,3605.0440342,N,14004.9201170,E,4,09,1.55,26.217,M,39.388,M,6.0,0000*50
$GNGGA,115003.40,3605.0439693,N,14004.9201569,E,4,09,1.55,26.190,M,39.388,M,1.4,0000*50
$GNGGA,115003.60,3605.0439028,N,14004.9201631,E,4,09,1.55,26.153,M,39.388,M,1.6,0000*57
$GNGGA,115003.80,3605.0437985,N,14004.9201776,E,4,09,1.55,26.128,M,39.388,M,1.8,0000*59
$GNGGA,115003.90,3605.0437412,N,14004.9201719,E,4,09,1.55,26.128,M,39.388,M,1.9,0000*53
$GNGGA,115004.10,3605.0436356,N,14004.9201664,E,4,09,1.55,26.129,M,39.388,M,2.1,0000*5B
$GNGGA,115004.20,3605.0435720,N,14004.9201547,E,4,09,1.55,26.125,M,39.388,M,2.2,0000*53
$GNGGA,115004.30,3605.0435111,N,14004.9201385,E,4,09,1.55,26.123,M,39.388,M,2.3,0000*59
$GNGGA,115004.40,3605.0434529,N,14004.9201313,E,4,09,1.55,26.134,M,39.388,M,2.4,0000*5E
$GNGGA,115004.50,3605.0433960,N,14004.9201269,E,4,09,1.55,26.139,M,39.388,M,2.5,0000*59
$GNGGA,115004.60,3605.0433321,N,14004.9201232,E,4,09,1.55,26.137,M,39.388,M,2.6,0000*56
$GNGGA,115004.70,3605.0432613,N,14004.9201146,E,4,09,1.55,26.134,M,39.388,M,2.7,0000*50
$GNGGA,115004.80,3605.0431879,N,14004.9201101,E,4,09,1.55,26.138,M,39.388,M,2.8,0000*5E
$GNGGA,115004.90,3605.0431271,N,14004.9201023,E,4,09,1.55,26.144,M,39.388,M,2.9,0000*56
$GNGGA,115005.00,3605.0430663,N,14004.9200869,E,4,09,1.55,26.163,M,39.388,M,3.0,0000*52
$GNGGA,115005.10,3605.0430081,N,14004.9200812,E,4,09,1.55,26.170,M,39.388,M,3.1,0000*56
$GNGGA,115005.20,3605.0429415,N,14004.9200643,E,4,09,1.55,26.166,M,39.388,M,3.2,0000*5A
$GNGGA,115005.30,3605.0428781,N,14004.9200533,E,4,09,1.55,26.169,M,39.388,M,3.3,0000*5E
$GNGGA,115005.40,3605.0428164,N,14004.9200426,E,4,09,1.55,26.183,M,39.388,M,3.4,0000*52
$GNGGA,115005.50,3605.0427580,N,14004.9200377,E,4,09,1.55,26.210,M,39.388,M,3.5,0000*59
$GNGGA,115005.60,3605.0426930,N,14004.9200437,E,4,09,1.55,26.215,M,39.388,M,3.6,0000*59
$GNGGA,115005.70,3605.0426211,N,14004.9200386,E,4,09,1.55,26.213,M,39.388,M,3.7,0000*5A
$GNGGA,115005.80,3605.0425581,N,14004.9200328,E,4,09,1.55,26.207,M,39.388,M,3.8,0000*56
$GNGGA,115005.90,3605.0424905,N,14004.9200250,E,4,09,1.55,26.217,M,39.388,M,3.9,0000*58
$GNGGA,115006.00,3605.0424194,N,14004.9200192,E,4,09,1.55,26.228,M,39.388,M,4.0,0000*5D
$GNGGA,115006.10,3605.0423595,N,14004.9200142,E,4,09,1.55,26.232,M,39.388,M,4.1,0000*59
$GNGGA,115006.20,3605.0422865,N,14004.9200081,E,4,09,1.55,26.230,M,39.388,M,4.2,0000*56
$GNGGA,115006.30,3605.0422153,N,14004.9199927,E,4,09,1.55,26.212,M,39.388,M,4.3,0000*5C
$GNGGA,115006.40,3605.0421404,N,14004.9199817,E,4,09,1.55,26.207,M,39.388,M,4.4,0000*5E
$GNGGA,115006.50,3605.0420851,N,14004.9199700,E,4,09,1.55,26.232,M,39.388,M,4.5,0000*5C
$GNGGA,115006.60,3605.0420238,N,14004.9199711,E,4,09,1.55,26.237,M,39.388,M,4.6,0000*5C
$GNGGA,115006.70,3605.0419468,N,14004.9199647,E,4,09,1.55,26.228,M,39.388,M,4.7,0000*59
$GNGGA,115006.80,3605.0418789,N,14004.9199536,E,4,09,1.55,26.219,M,39.388,M,4.8,0000*53
$GNGGA,115006.90,3605.0418081,N,14004.9199474,E,4,09,1.55,26.220,M,39.388,M,4.9,0000*51
$GNGGA,115007.00,3605.0417372,N,14004.9199359,E,4,09,1.55,26.237,M,39.388,M,5.0,0000*5F
$GNGGA,115007.10,3605.0416734,N,14004.9199287,E,4,09,1.55,26.244,M,39.388,M,5.1,0000*5E
$GNGGA,115007.20,3605.0416063,N,14004.9199092,E,4,09,1.55,26.246,M,39.388,M,5.2,0000*5F
$GNGGA,115007.30,3605.0415367,N,14004.9198865,E,4,09,1.55,26.236,M,39.388,M,5.3,0000*5D
$GNGGA,115007.40,3605.0414660,N,14004.9198726,E,4,09,1.55,26.239,M,39.388,M,5.4,0000*59
$GNGGA,115007.50,3605.0414043,N,14004.9198599,E,4,09,1.55,26.242,M,39.388,M,5.5,0000*54
$GNGGA,115007.60,3605.0413399,N,14004.9198555,E,4,09,1.55,26.245,M,39.388,M,5.6,0000*50
$GNGGA,115007.70,3605.0412714,N,14004.9198463,E,4,09,1.55,26.234,M,39.388,M,5.7,0000*52
$GNGGA,115007.80,3605.0411988,N,14004.9198298,E,4,09,1.55,26.216,M,39.388,M,5.8,0000*58
$GNGGA,115007.90,3605.0411327,N,14004.9198235,E,4,09,1.55,26.208,M,39.388,M,5.9,0000*5F
$GNGGA,115008.00,3605.0410641,N,14004.9198120,E,4,09,1.55,26.213,M,39.388,M,6.0,0000*5A
$GNGGA,115008.10,3605.0410041,N,14004.9197986,E,4,09,1.55,26.226,M,39.388,M,6.1,0000*51
$GNGGA,115008.20,3605.0409381,N,14004.9197831,E,4,09,1.55,26.221,M,39.388,M,1.2,0000*5B
$GNGGA,115008.30,3605.0408672,N,14004.9197610,E,4,09,1.55,26.205,M,39.388,M,1.3,0000*58
$GNGGA,115008.40,3605.0408008,N,14004.9197478,E,4,09,1.55,26.196,M,39.388,M,1.4,0000*56
$GNGGA,115008.50,3605.0407361,N,14004.9197348,E,4,09,1.55,26.201,M,39.388,M,1.5,0000*5C
$GNGGA,115008.60,3605.0406764,N,14004.9197296,E,4,09,1.55,26.207,M,39.388,M,1.6,0000*58
$GNGGA,115008.70,3605.0406068,N,14004.9197316,E,4,09,1.55,26.192,M,39.388,M,1.7,0000*55
$GNGGA,115008.80,3605.0405303,N,14004.9197224,E,4,09,1.55,26.178,M,39.388,M,1.8,0000*5C
$GNGGA,115008.90,3605.0404629,N,14004.9197162,E,4,09,1.55,26.159,M,39.388,M,1.9,0000*52
$GNGGA,115009.00,3605.0403895,N,14004.9197119,E,4,09,1.55,26.168,M,39.388,M,2.0,0000*50
$GNGGA,115009.10,3605.0403240,N,14004.9197067,E,4,09,1.55,26.175,M,39.388,M,2.1,0000*56
$GNGGA,115009.20,3605.0402615,N,14004.9197039,E,4,09,1.55,26.177,M,39.388,M,2.2,0000*5A
$GNGGA,115009.30,3605.0401875,N,14004.9196940,E,4,09,1.55,26.166,M,39.388,M,2.3,0000*57
$GNGGA,115009.40,3605.0401143,N,14004.9196887,E,4,09,1.55,26.159,M,39.388,M,2.4,0000*5D
$GNGGA,115009.50,3605.0400467,N,14004.9196877,E,4,09,1.55,26.164,M,39.388,M,2.5,0000*5E
$GNGGA,115009.70,3605.0399300,N,14004.9196895,E,4,09,1.55,26.181,M,39.388,M,2.7,0000*58
$GNGGA,115009.80,3605.0398626,N,14004.9196814,E,4,09,1.55,26.169,M,39.388,M,2.8,0000*57
$GNGGA,115009.90,3605.0397962,N,14004.9196810,E,4,09,1.55,26.156,M,39.388,M,2.9,0000*5F
$GNGGA,115010.00,3605.0397297,N,14004.9196837,E,4,09,1.55,26.145,M,39.388,M,3.0,0000*50
$GNGGA,115010.10,3605.0396707,N,14004.9196794,E,4,09,1.55,26.154,M,39.388,M,3.1,0000*5B
$GNGGA,115010.30,3605.0395643,N,14004.9196742,E,4,09,1.55,26.157,M,39.388,M,3.3,0000*51
$GNGGA,115010.40,3605.0395064,N,14004.9196766,E,4,09,1.55,26.153,M,39.388,M,3.4,0000*50
$GNGGA,115010.50,3605.0394511,N,14004.9196765,E,4,09,1.55,26.155,M,39.388,M,3.5,0000*53
$GNGGA,115010.70,3605.0393571,N,14004.9196971,E,4,09,1.55,26.169,M,39.388,M,3.7,0000*56
$GNGGA,115010.90,3605.0392858,N,14004.9197484,E,4,09,1.55,26.164,M,39.388,M,3.9,0000*5A
$GNGGA,115011.10,3605.0392382,N,14004.9198116,E,4,09,1.55,26.161,M,39.388,M,4.1,0000*54
$GNGGA,115011.40,3605.0392013,N,14004.9198880,E,4,09,1.55,26.139,M,39.388,M,4.4,0000*54
$GNGGA,115011.90,3605.0391862,N,14004.9199660,E,4,09,1.55,26.108,M,39.388,M,4.9,0000*5A
$GNGGA,115012.30,3605.0391703,N,14004.9200528,E,4,09,1.55,26.138,M,39.388,M,5.3,0000*5F
$GNGGA,115012.50,3605.0391786,N,14004.9201415,E,4,09,1.55,26.138,M,39.388,M,5.5,0000*5C
$GNGGA,115012.70,3605.0391760,N,14004.9202538,E,4,09,1.55,26.139,M,39.388,M,5.7,0000*58
$GNGGA,115012.80,3605.0391639,N,14004.9203195,E,4,09,1.55,26.129,M,39.388,M,5.8,0000*56
$GNGGA,115012.90,3605.0391583,N,14004.9203865,E,4,09,1.55,26.139,M,39.388,M,5.9,0000*53
$GNGGA,115013.10,3605.0391129,N,14004.9205167,E,4,09,1.55,26.117,M,39.388,M,6.1,0000*54
$GNGGA,115013.20,3605.0390941,N,14004.9205813,E,4,09,1.55,26.123,M,39.388,M,6.2,0000*5E
$GNGGA,115013.30,3605.0390751,N,14004.9206437,E,4,09,1.55,26.128,M,39.388,M,6.3,0000*53
$GNGGA,115013.50,3605.0390599,N,14004.9207697,E,4,09,1.55,26.132,M,39.388,M,6.5,0000*57
$GNGGA,115013.60,3605.0390513,N,14004.9208418,E,4,09,1.55,26.123,M,39.388,M,6.6,0000*5F
$GNGGA,115013.70,3605.0390450,N,14004.9209192,E,4,09,1.55,26.116,M,39.388,M,6.7,0000*59
$GNGGA,115013.80,3605.0390344,N,14004.9210061,E,4,09,1.55,26.119,M,39.388,M,6.8,0000*51
$GNGGA,115013.90,3605.0390158,N,14004.9210807,E,4,09,1.55,26.121,M,39.388,M,6.9,0000*5D
$GNGGA,115014.00,3605.0389923,N,14004.9211541,E,4,09,1.55,26.117,M,39.388,M,7.0,0000*5C
$GNGGA,115014.10,3605.0389736,N,14004.9212392,E,4,09,1.55,26.114,M,39.388,M,7.1,0000*5E
$GNGGA,115014.20,3605.0389519,N,14004.9213184,E,4,09,1.55,26.108,M,39.388,M,2.2,0000*5D
$GNGGA,115014.30,3605.0389351,N,14004.9213971,E,4,09,1.55,26.109,M,39.388,M,2.3,0000*54
$GNGGA,115014.40,3605.0389180,N,14004.9214668,E,4,09,1.55,26.113,M,39.388,M,2.4,0000*51
$GNGGA,115014.60,3605.0388856,N,14004.9216043,E,4,09,1.55,26.122,M,39.388,M,2.6,0000*5D
$GNGGA,115014.70,3605.0388638,N,14004.9216841,E,4,09,1.55,26.112,M,39.388,M,2.7,0000*52
$GNGGA,115014.80,3605.0388403,N,14004.9217661,E,4,09,1.55,26.107,M,39.388,M,2.8,0000*51
$GNGGA,115014.90,3605.0388152,N,14004.9218435,E,4,09,1.55,26.097,M,39.388,M,2.9,0000*54
$GNGGA,115015.00,3605.0388003,N,14004.9219289,E,4,09,1.55,26.117,M,39.388,M,3.0,0000*58
$GNGGA,115015.10,3605.0387630,N,14004.9219975,E,4,09,1.55,26.111,M,39.388,M,3.1,0000*5F
$GNGGA,115015.20,3605.0387340,N,14004.9220723,E,4,09,1.55,26.110,M,39.388,M,3.2,0000*5B
$GNGGA,115015.30,3605.0387058,N,14004.9221462,E,4,09,1.55,26.120,M,39.388,M,3.3,0000*55
$GNGGA,115015.40,3605.0386692,N,14004.9222108,E,4,09,1.55,26.108,M,39.388,M,3.4,0000*54
$GNGGA,115015.50,3605.0386469,N,14004.9222901,E,4,09,1.55,26.127,M,39.388,M,3.5,0000*5E
$GNGGA,115015.60,3605.0386155,N,14004.9223488,E,4,09,1.55,26.121,M,39.388,M,3.6,0000*5F
$GNGGA,115015.70,3605.0385937,N,14004.9224295,E,4,09,1.55,26.127,M,39.388,M,3.7,0000*5B
$GNGGA,115015.80,3605.0385550,N,14004.9225082,E,4,09,1.55,26.110,M,39.388,M,3.8,0000*57
$GNGGA,115015.90,3605.0385263,N,14004.9225898,E,4,09,1.55,26.106,M,39.388,M,3.9,0000*54
$GNGGA,115016.00,3605.0384878,N,14004.9226658,E,4,09,1.55,26.117,M,39.388,M,4.0,0000*50
$GNGGA,115016.10,3605.0384406,N,14004.9227283,E,4,09,1.55,26.122,M,39.388,M,4.1,0000*50
$GNGGA,115016.20,3605.0383982,N,14004.9227951,E,4,09,1.55,26.120,M,39.388,M,4.2,0000*50
$GNGGA,115016.30,3605.0383576,N,14004.9228657,E,4,09,1.55,26.130,M,39.388,M,4.3,0000*50
$GNGGA,115016.40,3605.0383059,N,14004.9229253,E,4,09,1.55,26.120,M,39.388,M,4.4,0000*58
$GNGGA,115016.50,3605.0382583,N,14004.9229906,E,4,09,1.55,26.137,M,39.388,M,4.5,0000*56
$GNGGA,115016.60,3605.0382161,N,14004.9230422,E,4,09,1.55,26.156,M,39.388,M,4.6,0000*5A
$GNGGA,115016.70,3605.0381681,N,14004.9230979,E,4,09,1.55,26.167,M,39.388,M,4.7,0000*51
$GNGGA,115016.80,3605.0381169,N,14004.9231614,E,4,09,1.55,26.137,M,39.388,M,4.8,0000*50
$GNGGA,115016.90,3605.0380625,N,14004.9232272,E,4,09,1.55,26.122,M,39.388,M,4.9,0000*5D
$GNGGA,115017.00,3605.0380053,N,14004.9232872,E,4,09,1.55,26.117,M,39.388,M,5.0,0000*56
$GNGGA,115017.10,3605.0379547,N,14004.9233453,E,4,09,1.55,26.132,M,39.388,M,5.1,0000*59
$GNGGA,115017.20,3605.0378825,N,14004.9233812,E,4,09,1.55,26.123,M,39.388,M,5.2,0000*58
$GNGGA,115017.30,3605.0378229,N,14004.9234311,E,4,09,1.55,26.121,M,39.388,M,5.3,0000*53
$GNGGA,115017.40,3605.0377512,N,14004.9234638,E,4,09,1.55,26.123,M,39.388,M,5.4,0000*5F
$GNGGA,115017.50,3605.0376822,N,14004.9234917,E,4,09,1.55,26.118,M,39.388,M,5.5,0000*5A
$GNGGA,115017.60,3605.0376210,N,14004.9235318,E,4,09,1.55,26.137,M,39.388,M,5.6,0000*58
$GNGGA,115017.70,3605.0375598,N,14004.9235545,E,4,09,1.55,26.157,M,39.388,M,5.7,0000*54
$GNGGA,115017.80,3605.0374880,N,14004.9235730,E,4,09,1.55,26.153,M,39.388,M,5.8,0000*55
$GNGGA,115017.90,3605.0374167,N,14004.9235965,E,4,09,1.55,26.154,M,39.388,M,5.9,0000*5C
$GNGGA,115018.00,3605.0373404,N,14004.9236176,E,4,09,1.55,26.147,M,39.388,M,6.0,0000*5C
$GNGGA,115018.10,3605.0372698,N,14004.9236306,E,4,09,1.55,26.156,M,39.388,M,6.1,0000*5F
$GNGGA,115018.20,3605.0372020,N,14004.9236335,E,4,09,1.55,26.173,M,39.388,M,1.2,0000*5A
$GNGGA,115018.30,3605.0371295,N,14004.9236227,E,4,09,1.55,26.164,M,39.388,M,1.3,0000*51
$GNGGA,115018.40,3605.0370618,N,14004.9236172,E,4,09,1.55,26.165,M,39.388,M,1.4,0000*53
$GNGGA,115018.50,3605.0369999,N,14004.9236151,E,4,09,1.55,26.178,M,39.388,M,1.5,0000*50
$GNGGA,115018.60,3605.0369395,N,14004.9236128,E,4,09,1.55,26.198,M,39.388,M,1.6,0000*56
$GNGGA,115018.70,3605.0368822,N,14004.9236064,E,4,09,1.55,26.229,M,39.388,M,1.7,0000*50
$GNGGA,115018.80,3605.0368211,N,14004.9235954,E,4,09,1.55,26.236,M,39.388,M,1.8,0000*5D
$GNGGA,115018.90,3605.0367504,N,14004.9235843,E,4,09,1.55,26.240,M,39.388,M,1.9,0000*57
$GNGGA,115019.00,3605.0366851,N,14004.9235843,E,4,09,1.55,26.241,M,39.388,M,2.0,0000*58
$GNGGA,115019.10,3605.0366150,N,14004.9235803,E,4,09,1.55,26.239,M,39.388,M,2.1,0000*5B
$GNGGA,115019.20,3605.0365508,N,14004.9235754,E,4,09,1.55,26.262,M,39.388,M,2.2,0000*52
$GNGGA,115019.30,3605.0364880,N,14004.9235763,E,4,09,1.55,26.269,M,39.388,M,2.3,0000*51
