$GNGGA,103243.20,3604.9968601,N,14004.9093998,E,4,12,1.22,26.689,M,39.388,M,6.2,0000*52
$GNGGA,103245.40,3604.9968776,N,14004.9093332,E,4,12,1.22,26.627,M,39.388,M,3.4,0000*5E
$GNGGA,103245.70,3604.9968893,N,14004.9092526,E,4,12,1.22,26.616,M,39.388,M,3.7,0000*5A
$GNGGA,103246.00,3604.9968962,N,14004.9091619,E,4,12,1.22,26.642,M,39.388,M,4.0,0000*5C
$GNGGA,103246.30,3604.9969103,N,14004.9090840,E,4,12,1.22,26.651,M,39.388,M,4.3,0000*53
$GNGGA,103246.60,3604.9969416,N,14004.9089990,E,4,12,1.22,26.654,M,39.388,M,4.6,0000*53
$GNGGA,103247.00,3604.9969461,N,14004.9089290,E,4,12,1.22,26.620,M,39.388,M,5.0,0000*5B
$GNGGA,103247.30,3604.9968937,N,14004.9089002,E,4,12,1.22,26.617,M,39.388,M,5.3,0000*59
$GNGGA,103247.50,3604.9968226,N,14004.9088965,E,4,12,1.22,26.617,M,39.388,M,5.5,0000*5B
$GNGGA,103247.70,3604.9967366,N,14004.9088912,E,4,12,1.22,26.612,M,39.388,M,5.7,0000*54
$GNGGA,103247.90,3604.9966619,N,14004.9088844,E,4,12,1.22,26.594,M,39.388,M,5.9,0000*57
$GNGGA,103248.10,3604.9965965,N,14004.9088521,E,4,12,1.22,26.609,M,39.388,M,6.1,0000*55
$GNGGA,103248.30,3604.9965335,N,14004.9088151,E,4,12,1.22,26.582,M,39.388,M,1.3,0000*5E
$GNGGA,103248.50,3604.9964742,N,14004.9087686,E,4,12,1.22,26.608,M,39.388,M,1.5,0000*58
$GNGGA,103248.80,3604.9964117,N,14004.9087408,E,4,12,1.22,26.624,M,39.388,M,1.8,0000*54
$GNGGA,103249.10,3604.9963569,N,14004.9086927,E,4,12,1.22,26.636,M,39.388,M,2.1,0000*5E
$GNGGA,103249.40,3604.9963239,N,14004.9086066,E,4,12,1.22,26.649,M,39.388,M,2.4,0000*58
$GNGGA,103249.60,3604.9963087,N,14004.9085052,E,4,12,1.22,26.633,M,39.388,M,2.6,0000*56
$GNGGA,103249.80,3604.9962989,N,14004.9084005,E,4,12,1.22,26.625,M,39.388,M,2.8,0000*54
$GNGGA,103250.00,3604.9962916,N,14004.9082834,E,4,12,1.22,26.647,M,39.388,M,3.0,0000*53
$GNGGA,103250.20,3604.9962875,N,14004.9081710,E,4,12,1.22,26.642,M,39.389,M,3.2,0000*59
$GNGGA,103250.40,3604.9962773,N,14004.9080623,E,4,12,1.22,26.652,M,39.389,M,3.4,0000*51
$GNGGA,103250.60,3604.9962734,N,14004.9079648,E,4,12,1.22,26.644,M,39.389,M,3.6,0000*5E
$GNGGA,103250.80,3604.9962773,N,14004.9078547,E,4,12,1.22,26.629,M,39.389,M,3.8,0000*5B
$GNGGA,103251.00,3604.9962872,N,14004.9077512,E,4,12,1.22,26.615,M,39.389,M,4.0,0000*53
$GNGGA,103251.20,3604.9962950,N,14004.9076647,E,4,12,1.22,26.643,M,39.389,M,4.2,0000*53
$GNGGA,103251.40,3604.9962973,N,14004.9075846,E,4,12,1.22,26.667,M,39.389,M,4.4,0000*58
$GNGGA,103251.70,3604.9963052,N,14004.9074974,E,4,12,1.22,26.685,M,39.389,M,4.7,0000*5E
$GNGGA,103252.00,3604.9963369,N,14004.9074064,E,4,12,1.36,26.687,M,39.389,M,5.0,0000*58
$GNGGA,103252.20,3604.9963870,N,14004.9073707,E,4,12,1.22,26.676,M,39.389,M,5.2,0000*55
$GNGGA,103252.40,3604.9964354,N,14004.9073348,E,4,12,1.22,26.668,M,39.389,M,5.4,0000*5F
$GNGGA,103252.60,3604.9964901,N,14004.9073038,E,4,12,1.22,26.663,M,39.389,M,5.6,0000*5A
$GNGGA,103252.80,3604.9965600,N,14004.9072827,E,4,12,1.22,26.644,M,39.389,M,5.8,0000*57
$GNGGA,103253.00,3604.9966351,N,14004.9072741,E,4,12,1.22,26.639,M,39.389,M,6.0,0000*52
$GNGGA,103253.20,3604.9967213,N,14004.9072764,E,4,12,1.22,26.617,M,39.389,M,1.2,0000*58
$GNGGA,103253.40,3604.9968148,N,14004.9072897,E,4,12,1.22,26.614,M,39.389,M,1.4,0000*5A
$GNGGA,103253.60,3604.9968895,N,14004.9072730,E,2,12,1.22,26.629,M,39.389,M,1.6,0000*59
$GNGGA,103253.70,3604.9969427,N,14004.9072480,E,2,12,1.22,26.606,M,39.389,M,1.7,0000*58
$GNGGA,103253.80,3604.9970343,N,14004.9072686,E,2,12,1.22,26.535,M,39.389,M,1.8,0000*52
$GNGGA,103254.00,3604.9971063,N,14004.9072305,E,2,12,1.22,26.459,M,39.389,M,2.0,0000*53
$GNGGA,103254.30,3604.9971748,N,14004.9071763,E,2,12,1.22,26.402,M,39.389,M,2.3,0000*54
$GNGGA,103254.50,3604.9972089,N,14004.9071181,E,2,12,1.22,26.429,M,39.389,M,2.5,0000*5E
$GNGGA,103254.80,3604.9972252,N,14004.9070527,E,2,12,1.22,26.417,M,39.389,M,2.8,0000*5E
$GNGGA,103255.60,3604.9971889,N,14004.9070010,E,5,12,1.22,26.398,M,39.389,M,3.6,0000*57
$GNGGA,103301.70,3604.9971056,N,14004.9070346,E,4,12,1.21,26.657,M,39.389,M,4.7,0000*5E
$GNGGA,103304.30,3604.9971425,N,14004.9069661,E,4,12,1.21,26.655,M,39.389,M,2.3,0000*57
$GNGGA,103304.60,3604.9971517,N,14004.9068636,E,4,12,1.21,26.644,M,39.389,M,2.6,0000*54
$GNGGA,103304.80,3604.9971568,N,14004.9067687,E,4,12,1.21,26.649,M,39.389,M,2.8,0000*54
$GNGGA,103305.00,3604.9971475,N,14004.9066586,E,2,12,1.25,26.677,M,39.389,M,3.0,0000*55
$GNGGA,103305.20,3604.9971695,N,14004.9065575,E,2,10,1.32,26.652,M,39.389,M,3.2,0000*55
$GNGGA,103305.40,3604.9971654,N,14004.9064371,E,2,12,1.32,26.649,M,39.389,M,3.4,0000*53
$GNGGA,103305.60,3604.9971672,N,14004.9063016,E,2,09,1.89,26.598,M,39.389,M,3.6,0000*57
$GNGGA,103305.80,3604.9971714,N,14004.9061692,E,2,12,3.81,26.610,M,39.389,M,3.8,0000*5D
$GNGGA,103305.90,3604.9971815,N,14004.9061002,E,2,12,1.21,26.548,M,39.389,M,3.9,0000*5A
$GNGGA,103306.10,3604.9971892,N,14004.9059682,E,2,12,1.21,26.592,M,39.389,M,4.1,0000*53
$GNGGA,103306.30,3604.9972054,N,14004.9058221,E,2,12,1.21,26.572,M,39.389,M,4.3,0000*50
$GNGGA,103306.50,3604.9972245,N,14004.9056809,E,2,12,1.21,26.573,M,39.389,M,4.5,0000*5D
$GNGGA,103306.60,3604.9972272,N,14004.9056126,E,2,12,1.21,26.587,M,39.389,M,4.6,0000*56
$GNGGA,103306.80,3604.9972440,N,14004.9054835,E,2,12,1.21,26.530,M,39.389,M,4.8,0000*54
$GNGGA,103306.90,3604.9972534,N,14004.9054094,E,2,12,1.21,26.544,M,39.389,M,4.9,0000*56
$GNGGA,103307.00,3604.9972575,N,14004.9053373,E,2,12,1.21,26.515,M,39.389,M,5.0,0000*5A
$GNGGA,103307.20,3604.9972701,N,14004.9051982,E,2,12,1.21,26.497,M,39.389,M,5.2,0000*56
$GNGGA,103307.30,3604.9972738,N,14004.9051254,E,2,12,1.21,26.485,M,39.389,M,5.3,0000*5F
$GNGGA,103307.40,3604.9972878,N,14004.9050426,E,2,12,1.33,26.473,M,39.389,M,5.4,0000*5C
$GNGGA,103307.50,3604.9972816,N,14004.9049505,E,2,12,1.53,26.382,M,39.389,M,5.5,0000*53
$GNGGA,103307.70,3604.9973084,N,14004.9048151,E,2,12,1.42,26.409,M,39.389,M,5.7,0000*51
$GNGGA,103307.90,3604.9972889,N,14004.9046930,E,2,12,1.21,26.320,M,39.389,M,5.9,0000*5D
$GNGGA,103308.10,3604.9972904,N,14004.9045627,E,2,12,1.21,26.326,M,39.389,M,6.1,0000*59
$GNGGA,103308.20,3604.9972963,N,14004.9044943,E,2,12,1.21,26.402,M,39.389,M,6.2,0000*55
$GNGGA,103308.40,3604.9973061,N,14004.9043612,E,2,12,1.21,26.361,M,39.389,M,6.4,0000*51
$GNGGA,103308.50,3604.9973139,N,14004.9042896,E,2,12,1.21,26.333,M,39.389,M,6.5,0000*59
$GNGGA,103308.60,3604.9973195,N,14004.9042219,E,2,12,1.21,26.327,M,39.389,M,6.6,0000*57
$GNGGA,103308.80,3604.9973284,N,14004.9040978,E,2,12,1.21,26.351,M,39.389,M,6.8,0000*5B
$GNGGA,103309.00,3604.9973337,N,14004.9039694,E,2,12,1.21,26.329,M,39.389,M,7.0,0000*5E
$GNGGA,103309.20,3604.9973371,N,14004.9038484,E,2,12,1.21,26.317,M,39.389,M,7.2,0000*53
$GNGGA,103309.40,3604.9973477,N,14004.9037418,E,2,12,1.21,26.318,M,39.389,M,7.4,0000*57
$GNGGA,103309.60,3604.9973589,N,14004.9036262,E,5,12,1.21,26.294,M,39.389,M,7.6,0000*5F
$GNGGA,103309.80,3604.9973775,N,14004.9035166,E,5,12,1.21,26.296,M,39.389,M,7.8,0000*58
$GNGGA,103310.00,3604.9973892,N,14004.9034258,E,5,12,1.21,26.292,M,39.389,M,8.0,0000*52
$GNGGA,103310.20,3604.9973979,N,14004.9033336,E,5,12,1.21,26.281,M,39.389,M,8.2,0000*5A
$GNGGA,103310.40,3604.9974060,N,14004.9032468,E,5,12,1.21,26.277,M,39.389,M,8.4,0000*58
$GNGGA,103310.60,3604.9974169,N,14004.9031691,E,5,12,1.21,26.296,M,39.389,M,8.6,0000*58
$GNGGA,103310.80,3604.9974249,N,14004.9030997,E,2,12,1.26,26.277,M,39.389,M,8.8,0000*5E
$GNGGA,103311.10,3604.9974445,N,14004.9030216,E,2,12,1.21,26.283,M,39.389,M,9.1,0000*5A
$GNGGA,103311.60,3604.9974613,N,14004.9029536,E,2,12,1.21,26.272,M,39.389,M,9.6,0000*58
$GNGGA,103318.20,3604.9974418,N,14004.9028905,E,5,12,1.21,26.227,M,39.389,M,1.2,0000*5A
$GNGGA,103321.40,3604.9973780,N,14004.9029216,E,4,12,1.21,26.378,M,39.389,M,4.4,0000*52
$GNGGA,103321.60,3604.9973197,N,14004.9029287,E,4,12,1.21,26.372,M,39.389,M,4.6,0000*50
$GNGGA,103321.80,3604.9972463,N,14004.9029131,E,5,12,1.21,26.389,M,39.389,M,4.8,0000*54
$GNGGA,103322.00,3604.9971773,N,14004.9029546,E,5,12,1.21,26.329,M,39.389,M,5.0,0000*59
$GNGGA,103322.20,3604.9971068,N,14004.9029322,E,5,12,1.21,26.317,M,39.389,M,5.2,0000*5D
$GNGGA,103322.40,3604.9970433,N,14004.9029188,E,2,12,1.33,26.308,M,39.389,M,5.4,0000*5E
$GNGGA,103322.50,3604.9969894,N,14004.9028739,E,2,12,1.25,26.300,M,39.389,M,5.5,0000*55
$GNGGA,103322.80,3604.9969171,N,14004.9028507,E,2,12,1.21,26.268,M,39.389,M,5.8,0000*53
$GNGGA,103323.00,3604.9968583,N,14004.9028667,E,2,12,1.21,26.272,M,39.389,M,6.0,0000*57
$GNGGA,103323.30,3604.9967895,N,14004.9028821,E,2,12,1.21,26.311,M,39.389,M,6.3,0000*5A
$GNGGA,103325.00,3604.9967340,N,14004.9028763,E,5,12,1.21,26.327,M,39.389,M,8.0,0000*5A
$GNGGA,103329.10,3604.9967870,N,14004.9028971,E,4,12,1.21,26.431,M,39.389,M,2.1,0000*58
$GNGGA,103329.80,3604.9967879,N,14004.9028247,E,4,12,1.21,26.443,M,39.389,M,2.8,0000*5A
$GNGGA,103330.10,3604.9967939,N,14004.9027217,E,4,12,1.21,26.440,M,39.389,M,3.1,0000*5F
$GNGGA,103330.30,3604.9967963,N,14004.9026404,E,4,12,1.21,26.448,M,39.389,M,3.3,0000*5D
$GNGGA,103330.50,3604.9967968,N,14004.9025520,E,4,12,1.21,26.454,M,39.389,M,3.5,0000*5F
$GNGGA,103330.70,3604.9967885,N,14004.9024637,E,4,12,1.21,26.470,M,39.389,M,3.7,0000*5F
$GNGGA,103330.90,3604.9967845,N,14004.9023747,E,4,12,1.21,26.477,M,39.389,M,3.9,0000*55
$GNGGA,103331.10,3604.9967772,N,14004.9022885,E,2,12,1.21,26.390,M,39.389,M,4.1,0000*50
$GNGGA,103331.30,3604.9967732,N,14004.9021940,E,2,12,1.21,26.372,M,39.389,M,4.3,0000*53
$GNGGA,103331.50,3604.9967705,N,14004.9020933,E,2,12,1.21,26.347,M,39.389,M,4.5,0000*54
$GNGGA,103331.70,3604.9967693,N,14004.9019933,E,2,12,1.21,26.355,M,39.389,M,4.7,0000*53
$GNGGA,103331.90,3604.9967737,N,14004.9019036,E,2,12,1.21,26.369,M,39.389,M,4.9,0000*5F
$GNGGA,103332.20,3604.9967699,N,14004.9017696,E,2,12,1.21,26.371,M,39.389,M,5.2,0000*53
$GNGGA,103332.40,3604.9967702,N,14004.9016819,E,2,12,1.21,26.378,M,39.389,M,5.4,0000*51
$GNGGA,103332.60,3604.9967785,N,14004.9016033,E,5,12,1.21,26.348,M,39.389,M,5.6,0000*5A
$GNGGA,103332.80,3604.9967964,N,14004.9015175,E,5,12,1.21,26.350,M,39.389,M,5.8,0000*52
$GNGGA,103333.00,3604.9968150,N,14004.9014358,E,5,12,1.21,26.351,M,39.389,M,6.0,0000*5D
$GNGGA,103333.20,3604.9968300,N,14004.9013663,E,5,12,1.21,26.350,M,39.389,M,1.2,0000*56
$GNGGA,103333.40,3604.9968306,N,14004.9012920,E,5,12,1.21,26.346,M,39.389,M,1.4,0000*5E
$GNGGA,103333.70,3604.9968444,N,14004.9012057,E,5,12,1.21,26.345,M,39.389,M,1.7,0000*55
$GNGGA,103334.00,3604.9968697,N,14004.9011288,E,5,12,1.21,26.341,M,39.389,M,2.0,0000*5A
$GNGGA,103334.30,3604.9969139,N,14004.9010735,E,5,12,1.21,26.351,M,39.389,M,2.3,0000*5B
$GNGGA,103334.80,3604.9969418,N,14004.9010140,E,2,12,1.71,26.356,M,39.389,M,2.8,0000*5C
$GNGGA,103335.00,3604.9969004,N,14004.9009633,E,2,12,1.21,26.347,M,39.389,M,3.0,0000*5B
$GNGGA,103336.20,3604.9969348,N,14004.9009048,E,2,12,1.21,26.368,M,39.389,M,4.2,0000*53
$GNGGA,103336.80,,,,,0,00,99.99,,,,,,*74
$GNGGA,103337.00,3604.9969334,N,14004.9009904,E,1,04,7.07,26.377,M,39.389,M,,*7A
$GNGGA,103337.10,,,,,0,00,99.99,,,,,,*7C
$GNGGA,103337.30,3604.9968884,N,14004.9009322,E,2,12,1.29,26.425,M,39.389,M,5.3,0000*50
$GNGGA,103337.40,3604.9968726,N,14004.9008571,E,2,12,1.35,26.700,M,39.389,M,5.4,0000*5F
$GNGGA,103337.50,3604.9969926,N,14004.9009256,E,2,12,1.35,26.875,M,39.389,M,5.5,0000*5E
$GNGGA,103337.60,3604.9970538,N,14004.9009731,E,2,12,1.26,26.857,M,39.389,M,5.6,0000*53
$GNGGA,103337.70,3604.9971634,N,14004.9008751,E,2,12,1.21,26.734,M,39.389,M,5.7,0000*57
$GNGGA,103337.80,3604.9973336,N,14004.9008439,E,2,12,1.21,26.840,M,39.389,M,5.8,0000*53
$GNGGA,103338.00,3604.9972599,N,14004.9008625,E,2,12,1.21,26.623,M,39.389,M,6.0,0000*59
$GNGGA,103338.10,3604.9972107,N,14004.9008260,E,2,12,1.21,26.591,M,39.389,M,6.1,0000*55
$GNGGA,103338.50,3604.9973023,N,14004.9007557,E,2,12,1.21,26.561,M,39.389,M,6.5,0000*50
$GNGGA,103338.60,3604.9970138,N,14004.9008508,E,5,12,1.21,26.509,M,39.389,M,6.6,0000*54
$GNGGA,103339.10,3604.9969657,N,14004.9008845,E,5,12,1.21,26.559,M,39.389,M,7.1,0000*53
$GNGGA,103340.30,3604.9969234,N,14004.9009279,E,2,12,1.21,26.535,M,39.389,M,8.3,0000*5A
$GNGGA,103342.10,3604.9968823,N,14004.9009774,E,5,12,1.21,26.829,M,39.389,M,10.1,0000*63
$GNGGA,103342.80,3604.9968436,N,14004.9009217,E,5,12,1.21,27.016,M,39.389,M,10.8,0000*6E
$GNGGA,103345.40,3604.9968251,N,14004.9009981,E,5,12,1.21,26.835,M,39.389,M,3.4,0000*50
$GNGGA,103345.90,3604.9968270,N,14004.9010692,E,5,12,1.21,26.762,M,39.389,M,3.9,0000*5B
$GNGGA,103346.60,3604.9968135,N,14004.9011343,E,5,12,1.21,26.778,M,39.389,M,4.6,0000*5E
$GNGGA,103348.30,3604.9968251,N,14004.9010541,E,5,12,1.21,26.848,M,39.389,M,6.3,0000*5A
$GNGGA,103349.40,3604.9968281,N,14004.9009865,E,4,12,1.21,26.565,M,39.389,M,7.4,0000*57
$GNGGA,103352.30,3604.9968814,N,14004.9009547,E,4,12,1.21,26.571,M,39.389,M,10.3,0000*65
$GNGGA,103352.80,3604.9969391,N,14004.9009245,E,4,12,1.21,26.575,M,39.389,M,10.8,0000*63
$GNGGA,103353.10,3604.9969972,N,14004.9009157,E,4,12,1.21,26.560,M,39.389,M,11.1,0000*60
$GNGGA,103353.40,3604.9970670,N,14004.9009071,E,4,12,1.21,26.567,M,39.389,M,11.4,0000*67
$GNGGA,103353.70,3604.9971439,N,14004.9009012,E,4,12,1.21,26.558,M,39.389,M,11.7,0000*60
$GNGGA,103353.90,3604.9971983,N,14004.9008847,E,4,12,1.21,26.556,M,39.389,M,11.9,0000*6B
$GNGGA,103354.10,3604.9972514,N,14004.9008692,E,4,12,1.21,26.565,M,39.389,M,12.1,0000*68
$GNGGA,103354.40,3604.9973302,N,14004.9008601,E,4,12,1.21,26.560,M,39.389,M,12.4,0000*67
$GNGGA,103354.60,3604.9973904,N,14004.9008624,E,4,12,1.21,26.537,M,39.389,M,12.6,0000*6E
$GNGGA,103354.80,3604.9974447,N,14004.9008583,E,4,12,1.21,26.559,M,39.389,M,12.8,0000*65
$GNGGA,103355.10,3604.9975141,N,14004.9008518,E,4,12,1.21,26.562,M,39.389,M,13.1,0000*6D
$GNGGA,103355.50,3604.9975749,N,14004.9008330,E,4,12,1.21,26.563,M,39.389,M,13.5,0000*6E
$GNGGA,103355.80,3604.9976088,N,14004.9007742,E,4,12,1.21,26.574,M,39.389,M,13.8,0000*6F
$GNGGA,103356.10,3604.9976254,N,14004.9006780,E,4,12,1.21,26.562,M,39.389,M,14.1,0000*60
$GNGGA,103356.30,3604.9976238,N,14004.9005973,E,4,12,1.21,26.538,M,39.389,M,14.3,0000*64
$GNGGA,103356.50,3604.9976210,N,14004.9005052,E,4,12,1.21,26.515,M,39.389,M,14.5,0000*6B
$GNGGA,103356.70,3604.9976111,N,14004.9004182,E,4,12,1.21,26.509,M,39.389,M,14.7,0000*69
$GNGGA,103356.90,3604.9976088,N,14004.9003229,E,4,12,1.21,26.509,M,39.389,M,14.9,0000*6D
$GNGGA,103357.10,3604.9976081,N,14004.9002169,E,4,12,1.21,26.488,M,39.389,M,15.1,0000*6A
$GNGGA,103357.30,3604.9976162,N,14004.9001059,E,4,12,1.21,26.511,M,39.389,M,15.3,0000*66
$GNGGA,103357.50,3604.9976193,N,14004.8999908,E,4,12,1.21,26.509,M,39.389,M,15.5,0000*65
$GNGGA,103357.70,3604.9976239,N,14004.8998672,E,4,12,1.21,26.498,M,39.389,M,15.7,0000*6C
$GNGGA,103357.90,3604.9976334,N,14004.8997454,E,4,12,1.21,26.512,M,39.389,M,15.9,0000*6A
$GNGGA,103358.10,3604.9976400,N,14004.8996164,E,4,12,1.21,26.490,M,39.389,M,16.1,0000*6A
$GNGGA,103358.30,3604.9976502,N,14004.8994878,E,4,12,1.21,26.475,M,39.389,M,16.3,0000*64
$GNGGA,103358.50,3604.9976604,N,14004.8993571,E,4,12,1.21,26.497,M,39.389,M,16.5,0000*6E
$GNGGA,103358.70,3604.9976592,N,14004.8992286,E,4,12,1.21,26.481,M,39.389,M,16.7,0000*6B
$GNGGA,103358.80,3604.9976662,N,14004.8991601,E,4,12,1.21,26.474,M,39.389,M,16.8,0000*65
$GNGGA,103358.90,3604.9976687,N,14004.8990924,E,4,12,1.21,26.464,M,39.389,M,16.9,0000*66
$GNGGA,103359.10,3604.9976805,N,14004.8989642,E,4,12,1.21,26.458,M,39.389,M,17.1,0000*6A
$GNGGA,103359.20,3604.9976878,N,14004.8988940,E,4,12,1.21,26.447,M,39.389,M,17.2,0000*62
$GNGGA,103359.30,3604.9976941,N,14004.8988203,E,4,12,1.21,26.431,M,39.389,M,17.3,0000*64
$GNGGA,103359.50,3604.9977076,N,14004.8987004,E,4,12,1.21,26.431,M,39.389,M,17.5,0000*62
$GNGGA,103359.60,3604.9977107,N,14004.8986297,E,4,12,1.21,26.450,M,39.389,M,17.6,0000*6B
$GNGGA,103359.80,3604.9977216,N,14004.8984986,E,4,12,1.21,26.456,M,39.389,M,17.8,0000*67
$GNGGA,103400.00,3604.9977251,N,14004.8983714,E,4,12,1.21,26.476,M,39.389,M,18.0,0000*60
$GNGGA,103400.20,3604.9977331,N,14004.8982386,E,4,12,1.21,26.481,M,39.389,M,18.2,0000*61
$GNGGA,103400.40,3604.9977377,N,14004.8981063,E,4,12,1.21,26.481,M,39.389,M,18.4,0000*68
$GNGGA,103400.60,3604.9977328,N,14004.8979819,E,4,12,1.21,26.482,M,39.389,M,18.6,0000*63
$GNGGA,103400.80,3604.9977270,N,14004.8978537,E,4,12,1.21,26.482,M,39.389,M,18.8,0000*6F
$GNGGA,103401.00,3604.9977218,N,14004.8977352,E,4,12,1.21,26.455,M,39.389,M,19.0,0000*61
$GNGGA,103401.20,3604.9977213,N,14004.8976129,E,4,12,1.21,26.446,M,39.389,M,19.2,0000*67
$GNGGA,103401.30,3604.9977248,N,14004.8975455,E,4,12,1.21,26.431,M,39.389,M,19.3,0000*64
$GNGGA,103401.40,3604.9977272,N,14004.8974735,E,4,12,1.21,26.414,M,39.389,M,19.4,0000*6E
$GNGGA,103401.60,3604.9977329,N,14004.8973568,E,4,12,1.21,26.402,M,39.389,M,19.6,0000*6B
$GNGGA,103401.80,3604.9977339,N,14004.8972420,E,4,12,1.21,26.393,M,39.389,M,19.8,0000*69
$GNGGA,103402.00,3604.9977394,N,14004.8971329,E,4,12,1.21,26.369,M,39.389,M,20.0,0000*6F
$GNGGA,103402.20,3604.9977565,N,14004.8970274,E,4,12,1.21,26.382,M,39.389,M,20.2,0000*6A
$GNGGA,103402.40,3604.9977757,N,14004.8969304,E,4,12,1.21,26.380,M,39.389,M,20.4,0000*65
$GNGGA,103402.60,3604.9977900,N,14004.8968363,E,4,12,1.21,26.386,M,39.389,M,20.6,0000*6F
$GNGGA,103402.80,3604.9977896,N,14004.8967656,E,4,12,1.21,26.377,M,39.389,M,20.8,0000*63
$GNGGA,103403.10,3604.9977942,N,14004.8966879,E,4,12,1.21,26.370,M,39.389,M,21.1,0000*6E
$GNGGA,103403.60,3604.9977848,N,14004.8966155,E,4,12,1.21,26.349,M,39.389,M,21.6,0000*68
$GNGGA,103404.00,3604.9977282,N,14004.8966066,E,4,12,1.21,26.339,M,39.389,M,22.0,0000*66
$GNGGA,103404.30,3604.9976609,N,14004.8966073,E,4,12,1.21,26.343,M,39.389,M,22.3,0000*69
$GNGGA,103404.60,3604.9975902,N,14004.8966126,E,4,12,1.21,26.326,M,39.389,M,22.6,0000*6C
$GNGGA,103404.80,3604.9975322,N,14004.8966155,E,4,12,1.21,26.320,M,39.389,M,22.8,0000*66
$GNGGA,103405.00,3604.9974754,N,14004.8966129,E,4,12,1.21,26.293,M,39.389,M,23.0,0000*60
$GNGGA,103405.20,3604.9974124,N,14004.8966031,E,4,12,1.21,26.277,M,39.389,M,23.2,0000*63
$GNGGA,103405.40,3604.9973572,N,14004.8965943,E,4,12,1.21,26.278,M,39.389,M,23.4,0000*63
$GNGGA,103405.70,3604.9972955,N,14004.8965895,E,4,12,1.21,26.262,M,39.389,M,23.7,0000*6A
$GNGGA,103406.20,3604.9972408,N,14004.8965896,E,4,12,1.21,26.249,M,39.389,M,24.2,0000*61
$GNGGA,103408.60,3604.9971819,N,14004.8965609,E,4,12,1.21,26.242,M,39.389,M,26.6,0000*61
$GNGGA,103409.00,3604.9971610,N,14004.8964703,E,4,12,1.21,26.241,M,39.389,M,27.0,0000*6F
$GNGGA,103409.20,3604.9971618,N,14004.8963987,E,4,12,1.21,26.244,M,39.389,M,27.2,0000*67
$GNGGA,103409.40,3604.9971570,N,14004.8963179,E,4,12,1.21,26.263,M,39.389,M,27.4,0000*66
$GNGGA,103409.60,3604.9971486,N,14004.8962341,E,4,12,1.21,26.257,M,39.389,M,27.6,0000*61
$GNGGA,103409.80,3604.9971459,N,14004.8961317,E,4,12,1.21,26.271,M,39.389,M,27.8,0000*67
$GNGGA,103410.00,3604.9971408,N,14004.8960304,E,4,12,1.21,26.272,M,39.389,M,28.0,0000*64
$GNGGA,103410.20,3604.9971466,N,14004.8959338,E,4,12,1.21,26.282,M,39.389,M,28.2,0000*66
$GNGGA,103410.40,3604.9971524,N,14004.8958333,E,4,12,1.21,26.272,M,39.389,M,28.4,0000*64
$GNGGA,103410.60,3604.9971623,N,14004.8957311,E,4,12,1.21,26.274,M,39.389,M,28.6,0000*69
$GNGGA,103410.80,3604.9971610,N,14004.8956307,E,4,12,1.21,26.271,M,39.389,M,28.8,0000*6A
$GNGGA,103411.00,3604.9971563,N,14004.8955194,E,4,12,1.21,26.266,M,39.389,M,29.0,0000*60
$GNGGA,103411.20,3604.9971537,N,14004.8954115,E,4,12,1.21,26.275,M,39.389,M,29.2,0000*6B
$GNGGA,103411.40,3604.9971545,N,14004.8953054,E,4,12,1.21,26.275,M,39.389,M,29.4,0000*6D
$GNGGA,103411.60,3604.9971618,N,14004.8951932,E,4,12,1.21,26.265,M,39.389,M,29.6,0000*6C
$GNGGA,103411.80,3604.9971651,N,14004.8950939,E,4,12,1.21,26.256,M,39.389,M,29.8,0000*6B
$GNGGA,103412.00,3604.9971702,N,14004.8950055,E,4,12,1.21,26.256,M,39.389,M,30.0,0000*64
$GNGGA,103412.20,3604.9971719,N,14004.8949289,E,4,12,1.21,26.239,M,39.389,M,30.2,0000*6C
$GNGGA,103412.40,3604.9971814,N,14004.8948538,E,4,12,1.21,26.249,M,39.389,M,30.4,0000*65
$GNGGA,103412.60,3604.9972015,N,14004.8947842,E,4,12,1.21,26.228,M,39.389,M,30.6,0000*67
$GNGGA,103412.80,3604.9972219,N,14004.8947163,E,4,12,1.21,26.248,M,39.389,M,30.8,0000*65
$GNGGA,103413.10,3604.9972606,N,14004.8946355,E,4,12,1.21,26.251,M,39.389,M,31.1,0000*61
$GNGGA,103413.40,3604.9973221,N,14004.8945997,E,4,12,1.21,26.255,M,39.389,M,31.4,0000*62
$GNGGA,103413.70,3604.9974084,N,14004.8945825,E,4,12,1.21,26.252,M,39.389,M,31.7,0000*67
$GNGGA,103413.90,3604.9974696,N,14004.8945781,E,4,12,1.21,26.247,M,39.389,M,31.9,0000*67
$GNGGA,103414.10,3604.9975334,N,14004.8945807,E,4,12,1.21,26.249,M,39.389,M,32.1,0000*60
$GNGGA,103414.40,3604.9976371,N,14004.8945769,E,4,12,1.21,26.294,M,39.389,M,32.4,0000*65
$GNGGA,103414.60,3604.9976954,N,14004.8945900,E,4,12,1.21,26.300,M,39.389,M,32.6,0000*65
$GNGGA,103414.80,3604.9977560,N,14004.8946055,E,4,12,1.21,26.307,M,39.389,M,32.8,0000*62
$GNGGA,103415.00,3604.9978117,N,14004.8946107,E,4,12,1.21,26.302,M,39.389,M,33.0,0000*6A
$GNGGA,103415.40,3604.9979008,N,14004.8946003,E,4,12,1.21,26.300,M,39.389,M,33.4,0000*63
$GNGGA,103415.80,3604.9979491,N,14004.8945535,E,4,12,1.21,26.296,M,39.389,M,33.8,0000*6A
$GNGGA,103416.20,3604.9979801,N,14004.8944848,E,4,12,1.21,26.294,M,39.389,M,34.2,0000*6F
$GNGGA,103416.60,3604.9979943,N,14004.8944063,E,4,12,1.21,26.243,M,39.389,M,34.6,0000*63
$GNGGA,103416.90,3604.9979973,N,14004.8943168,E,4,12,1.21,26.251,M,39.389,M,34.9,0000*6E
$GNGGA,103417.10,3604.9979961,N,14004.8942328,E,4,12,1.21,26.232,M,39.389,M,35.1,0000*6F
$GNGGA,103417.30,3604.9979894,N,14004.8941550,E,4,12,1.21,26.244,M,39.389,M,35.3,0000*6F
$GNGGA,103417.50,3604.9980022,N,14004.8940740,E,4,12,1.21,26.257,M,39.389,M,35.5,0000*6C
$GNGGA,103417.70,3604.9980107,N,14004.8939782,E,4,12,1.21,26.255,M,39.389,M,35.7,0000*68
$GNGGA,103417.90,3604.9980207,N,14004.8938787,E,4,12,1.21,26.246,M,39.389,M,35.9,0000*6D
$GNGGA,103418.10,3604.9980346,N,14004.8937714,E,4,12,1.21,26.250,M,39.389,M,36.1,0000*67
$GNGGA,103418.40,3604.9980374,N,14004.8936003,E,4,12,1.21,26.247,M,39.389,M,36.4,0000*60
$GNGGA,103418.60,3604.9980472,N,14004.8934838,E,4,12,1.21,26.248,M,39.389,M,36.6,0000*6C
$GNGGA,103418.80,3604.9980628,N,14004.8933619,E,4,12,1.21,26.236,M,39.389,M,36.8,0000*62
$GNGGA,103418.90,3604.9980758,N,14004.8932966,E,4,12,1.21,26.227,M,39.389,M,36.9,0000*62
$GNGGA,103419.20,3604.9981095,N,14004.8931142,E,4,12,1.21,26.185,M,39.389,M,37.2,0000*63
$GNGGA,103419.30,3604.9981115,N,14004.8930418,E,4,12,1.21,26.187,M,39.389,M,37.3,0000*63
$GNGGA,103419.40,3604.9981150,N,14004.8929736,E,4,12,1.21,26.179,M,39.389,M,37.4,0000*64
$GNGGA,103419.60,3604.9981249,N,14004.8928452,E,4,12,1.21,26.176,M,39.389,M,37.6,0000*60
$GNGGA,103419.80,3604.9981363,N,14004.8927185,E,4,12,1.21,26.176,M,39.389,M,37.8,0000*69
$GNGGA,103419.90,3604.9981438,N,14004.8926523,E,4,12,1.21,26.161,M,39.389,M,37.9,0000*6F
$GNGGA,103420.00,3604.9981489,N,14004.8925793,E,4,12,1.21,26.148,M,39.389,M,38.0,0000*61
$GNGGA,103420.10,3604.9981550,N,14004.8925115,E,4,12,1.21,26.153,M,39.389,M,38.1,0000*66
$GNGGA,103420.30,3604.9981648,N,14004.8923746,E,4,12,1.21,26.153,M,39.389,M,38.3,0000*6A
$GNGGA,103420.50,3604.9981708,N,14004.8922451,E,4,12,1.21,26.157,M,39.389,M,38.5,0000*6F
$GNGGA,103420.70,3604.9981856,N,14004.8921206,E,4,12,1.21,26.154,M,39.389,M,38.7,0000*6F
$GNGGA,103420.90,3604.9982020,N,14004.8919906,E,4,12,1.21,26.157,M,39.389,M,38.9,0000*66
$GNGGA,103421.00,3604.9982074,N,14004.8919171,E,4,12,1.21,26.163,M,39.389,M,39.0,0000*68
$GNGGA,103421.20,3604.9982217,N,14004.8918041,E,4,12,1.21,26.161,M,39.389,M,39.2,0000*6E
$GNGGA,103421.30,3604.9982214,N,14004.8917346,E,4,12,1.21,26.161,M,39.389,M,39.3,0000*66
$GNGGA,103421.50,3604.9982253,N,14004.8916231,E,4,12,1.21,26.140,M,39.389,M,39.5,0000*66
$GNGGA,103421.70,3604.9982254,N,14004.8915069,E,4,12,1.21,26.145,M,39.389,M,39.7,0000*68
$GNGGA,103421.90,3604.9982389,N,14004.8913757,E,4,12,1.21,26.126,M,39.389,M,39.9,0000*60
$GNGGA,103422.00,3604.9982419,N,14004.8913087,E,4,12,1.21,26.131,M,39.389,M,40.0,0000*6F
$GNGGA,103422.20,3604.9982473,N,14004.8911833,E,4,12,1.21,26.138,M,39.389,M,40.2,0000*6F
$GNGGA,103422.40,3604.9982560,N,14004.8910579,E,4,12,1.21,26.135,M,39.389,M,40.4,0000*63
$GNGGA,103422.60,3604.9982529,N,14004.8909468,E,4,12,1.21,26.128,M,39.389,M,40.6,0000*6B
$GNGGA,103422.80,3604.9982615,N,14004.8908384,E,4,12,1.21,26.132,M,39.389,M,40.8,0000*68
$GNGGA,103423.00,3604.9982769,N,14004.8907281,E,4,12,1.21,26.126,M,39.389,M,41.0,0000*6C
$GNGGA,103423.20,3604.9982875,N,14004.8906305,E,4,12,1.21,26.112,M,39.389,M,41.2,0000*65
$GNGGA,103423.40,3604.9982931,N,14004.8905550,E,4,12,1.21,26.093,M,39.389,M,41.4,0000*69
$GNGGA,103423.60,3604.9982873,N,14004.8904857,E,4,12,1.21,26.088,M,39.389,M,41.6,0000*6F
$GNGGA,103423.90,3604.9982776,N,14004.8904037,E,4,12,1.21,26.094,M,39.389,M,41.9,0000*66
$GNGGA,103424.30,3604.9982485,N,14004.8903428,E,4,12,1.21,26.085,M,39.389,M,42.3,0000*60
$GNGGA,103424.60,3604.9981754,N,14004.8903158,E,4,12,1.21,26.098,M,39.389,M,42.6,0000*62
$GNGGA,103424.80,3604.9981109,N,14004.8903155,E,4,12,1.21,26.095,M,39.389,M,42.8,0000*6C
$GNGGA,103425.00,3604.9980531,N,14004.8903124,E,4,12,1.21,26.104,M,39.389,M,43.0,0000*6D
$GNGGA,103425.20,3604.9979958,N,14004.8903087,E,4,12,1.21,26.088,M,39.389,M,43.2,0000*65
$GNGGA,103425.40,3604.9979382,N,14004.8903098,E,4,12,1.21,26.079,M,39.389,M,43.4,0000*68
$GNGGA,103425.60,3604.9978748,N,14004.8903026,E,4,12,1.21,26.097,M,39.389,M,43.6,0000*6E
$GNGGA,103425.80,3604.9978117,N,14004.8902929,E,4,12,1.21,26.119,M,39.389,M,43.8,0000*62
$GNGGA,103426.00,3604.9977563,N,14004.8902855,E,4,12,1.21,26.117,M,39.389,M,44.0,0000*6A
$GNGGA,103426.30,3604.9976956,N,14004.8902628,E,4,12,1.21,26.111,M,39.389,M,44.3,0000*63
$GNGGA,103426.80,3604.9976390,N,14004.8902308,E,4,12,1.21,26.094,M,39.389,M,44.8,0000*68
$GNGGA,103427.20,3604.9975875,N,14004.8901801,E,4,12,1.21,26.076,M,39.389,M,45.2,0000*66
$GNGGA,103427.50,3604.9975554,N,14004.8901173,E,4,12,1.21,26.074,M,39.389,M,45.5,0000*66
$GNGGA,103427.80,3604.9975390,N,14004.8900376,E,4,12,1.21,26.070,M,39.389,M,45.8,0000*6A
$GNGGA,103428.10,3604.9975384,N,14004.8899494,E,4,12,1.21,26.080,M,39.389,M,46.1,0000*66
$GNGGA,103428.40,3604.9975393,N,14004.8898326,E,4,12,1.21,26.052,M,39.389,M,46.4,0000*60
$GNGGA,103428.60,3604.9975345,N,14004.8897530,E,4,12,1.21,26.082,M,39.389,M,46.6,0000*68
$GNGGA,103428.80,3604.9975331,N,14004.8896723,E,4,12,1.21,26.066,M,39.389,M,46.8,0000*60
$GNGGA,103429.00,3604.9975376,N,14004.8895936,E,4,12,1.21,26.057,M,39.389,M,47.0,0000*68
$GNGGA,103429.20,3604.9975370,N,14004.8895194,E,4,12,1.21,26.061,M,39.389,M,47.2,0000*6B
$GNGGA,103429.40,3604.9975410,N,14004.8894382,E,4,12,1.21,26.057,M,39.389,M,47.4,0000*6B
$GNGGA,103429.60,3604.9975521,N,14004.8893438,E,4,12,1.21,26.026,M,39.389,M,47.6,0000*6F
$GNGGA,103429.80,3604.9975583,N,14004.8892543,E,4,12,1.21,26.021,M,39.389,M,47.8,0000*6C
$GNGGA,103430.00,3604.9975605,N,14004.8891581,E,4,12,1.21,26.028,M,39.389,M,48.0,0000*62
$GNGGA,103430.20,3604.9975627,N,14004.8890821,E,4,12,1.21,26.022,M,39.389,M,3.2,0000*51
$GNGGA,103430.50,3604.9975715,N,14004.8889862,E,4,12,1.21,26.023,M,39.389,M,3.5,0000*5F
$GNGGA,103430.70,3604.9975875,N,14004.8889219,E,5,12,1.21,26.007,M,39.389,M,3.7,0000*57
$GNGGA,103431.00,3604.9976183,N,14004.8888406,E,5,12,1.21,26.011,M,39.389,M,4.0,0000*5C
$GNGGA,103431.30,3604.9976725,N,14004.8887748,E,5,12,1.21,26.029,M,39.389,M,4.3,0000*5B
$GNGGA,103431.60,3604.9977447,N,14004.8887303,E,5,12,1.21,26.028,M,39.389,M,4.6,0000*57
$GNGGA,103431.80,3604.9978024,N,14004.8887150,E,5,12,1.21,26.020,M,39.389,M,4.8,0000*55
$GNGGA,103432.00,3604.9978647,N,14004.8887118,E,5,12,1.21,26.001,M,39.389,M,5.0,0000*5B
$GNGGA,103432.20,3604.9979416,N,14004.8887053,E,5,12,1.21,25.984,M,39.389,M,5.2,0000*55
$GNGGA,103432.40,3604.9980084,N,14004.8886963,E,5,12,1.21,25.995,M,39.389,M,5.4,0000*57
$GNGGA,103432.60,3604.9980756,N,14004.8886869,E,5,12,1.21,25.977,M,39.389,M,5.6,0000*58
$GNGGA,103432.70,3604.9981300,N,14004.8887034,E,4,12,1.21,25.989,M,39.389,M,5.7,0000*5F
$GNGGA,103432.90,3604.9982031,N,14004.8886914,E,4,12,1.21,25.992,M,39.389,M,5.9,0000*5D
$GNGGA,103433.10,3604.9982635,N,14004.8886991,E,4,12,1.21,26.003,M,39.389,M,6.1,0000*52
$GNGGA,103433.40,3604.9983464,N,14004.8887354,E,4,12,1.21,25.982,M,39.389,M,1.4,0000*53
$GNGGA,103433.60,3604.9983974,N,14004.8887637,E,4,12,1.21,26.003,M,39.389,M,1.6,0000*5C
$GNGGA,103433.90,3604.9984375,N,14004.8888232,E,4,12,1.21,26.023,M,39.389,M,1.9,0000*5C
$GNGGA,103434.20,3604.9984805,N,14004.8888882,E,4,12,1.21,26.044,M,39.389,M,2.2,0000*54
$GNGGA,103434.50,3604.9984931,N,14004.8889833,E,4,12,1.21,26.083,M,39.389,M,2.5,0000*52
$GNGGA,103434.70,3604.9984920,N,14004.8890611,E,4,12,1.21,26.096,M,39.389,M,2.7,0000*50
$GNGGA,103434.90,3604.9984947,N,14004.8891489,E,4,12,1.21,26.082,M,39.389,M,2.9,0000*56
$GNGGA,103435.10,3604.9984916,N,14004.8892369,E,4,12,1.21,26.095,M,39.389,M,3.1,0000*5E
$GNGGA,103435.30,3604.9984908,N,14004.8893340,E,4,12,1.21,26.101,M,39.389,M,3.3,0000*57
$GNGGA,103435.50,3604.9984909,N,14004.8894451,E,4,12,1.21,26.101,M,39.389,M,3.5,0000*56
$GNGGA,103435.70,3604.9984823,N,14004.8895525,E,4,12,1.21,26.118,M,39.389,M,3.7,0000*54
$GNGGA,103435.90,3604.9984731,N,14004.8896765,E,4,12,1.21,26.124,M,39.389,M,3.9,0000*52
$GNGGA,103436.00,3604.9984643,N,14004.8897497,E,4,12,1.21,26.103,M,39.389,M,4.0,0000*58
$GNGGA,103436.20,3604.9984511,N,14004.8898878,E,4,12,1.21,26.108,M,39.389,M,4.2,0000*55
$GNGGA,103436.40,3604.9984410,N,14004.8900219,E,4,12,1.21,26.121,M,39.389,M,4.4,0000*53
$GNGGA,103436.50,3604.9984278,N,14004.8900930,E,4,12,1.21,26.129,M,39.389,M,4.5,0000*53
$GNGGA,103436.60,3604.9984187,N,14004.8901633,E,4,12,1.21,26.127,M,39.389,M,4.6,0000*53
$GNGGA,103436.80,3604.9984118,N,14004.8902904,E,4,12,1.21,26.145,M,39.389,M,4.8,0000*59
$GNGGA,103436.90,3604.9984066,N,14004.8903625,E,4,12,1.21,26.157,M,39.389,M,4.9,0000*5F
$GNGGA,103437.00,3604.9983901,N,14004.8904286,E,4,12,1.21,26.149,M,39.389,M,5.0,0000*55
$GNGGA,103437.20,3604.9983716,N,14004.8905697,E,4,12,1.21,26.137,M,39.389,M,5.2,0000*51
$GNGGA,103437.30,3604.9983631,N,14004.8906406,E,4,12,1.21,26.135,M,39.389,M,5.3,0000*5E
$GNGGA,103437.50,3604.9983564,N,14004.8907744,E,4,12,1.21,26.147,M,39.389,M,5.5,0000*5C
$GNGGA,103437.60,3604.9983564,N,14004.8908439,E,4,12,1.21,26.151,M,39.389,M,5.6,0000*5D
$GNGGA,103437.70,3604.9983514,N,14004.8909144,E,4,12,1.21,26.146,M,39.389,M,5.7,0000*52
$GNGGA,103437.90,3604.9983411,N,14004.8910517,E,4,12,1.21,26.153,M,39.389,M,5.9,0000*58
$GNGGA,103438.20,3604.9983227,N,14004.8912519,E,4,12,1.21,26.167,M,39.389,M,1.2,0000*5B
$GNGGA,103438.40,3604.9983143,N,14004.8913959,E,4,12,1.21,26.164,M,39.389,M,1.4,0000*50
$GNGGA,103438.50,3604.9983085,N,14004.8914684,E,4,12,1.21,26.163,M,39.389,M,1.5,0000*54
$GNGGA,103438.60,3604.9983060,N,14004.8915353,E,4,12,1.21,26.172,M,39.389,M,1.6,0000*51
$GNGGA,103438.70,3604.9983003,N,14004.8916105,E,4,12,1.21,26.162,M,39.389,M,1.7,0000*57
$GNGGA,103438.80,3604.9982968,N,14004.8916819,E,4,12,1.21,26.153,M,39.389,M,1.8,0000*54
$GNGGA,103439.00,3604.9982871,N,14004.8918125,E,4,12,1.21,26.189,M,39.389,M,2.0,0000*50
$GNGGA,103439.10,3604.9982775,N,14004.8918801,E,4,12,1.21,26.184,M,39.389,M,2.1,0000*59
$GNGGA,103439.20,3604.9982710,N,14004.8919509,E,4,12,1.21,26.171,M,39.389,M,2.2,0000*54
$GNGGA,103439.30,3604.9982620,N,14004.8920194,E,4,12,1.21,26.163,M,39.389,M,2.3,0000*5F
$GNGGA,103439.40,3604.9982523,N,14004.8920950,E,4,12,1.21,26.172,M,39.389,M,2.4,0000*5F
$GNGGA,103439.50,3604.9982434,N,14004.8921657,E,4,12,1.21,26.174,M,39.389,M,2.5,0000*57
$GNGGA,103439.70,3604.9982309,N,14004.8922962,E,4,12,1.21,26.183,M,39.389,M,2.7,0000*5C
$GNGGA,103439.80,3604.9982279,N,14004.8923633,E,4,12,1.21,26.187,M,39.389,M,2.8,0000*54
$GNGGA,103440.00,3604.9982227,N,14004.8924870,E,4,12,1.21,26.179,M,39.389,M,3.0,0000*5F
$GNGGA,103440.20,3604.9982069,N,14004.8926041,E,4,12,1.21,26.193,M,39.389,M,3.2,0000*5B
$GNGGA,103440.40,3604.9981862,N,14004.8927275,E,4,12,1.21,26.178,M,39.389,M,3.4,0000*5A
$GNGGA,103440.60,3604.9981715,N,14004.8928505,E,4,12,1.21,26.198,M,39.389,M,3.6,0000*54
$GNGGA,103440.80,3604.9981648,N,14004.8929631,E,4,12,1.21,26.213,M,39.389,M,3.8,0000*58
$GNGGA,103441.00,3604.9981592,N,14004.8930754,E,4,12,1.21,26.204,M,39.389,M,4.0,0000*56
$GNGGA,103441.20,3604.9981540,N,14004.8931854,E,4,12,1.21,26.216,M,39.389,M,4.2,0000*54
$GNGGA,103441.40,3604.9981382,N,14004.8933011,E,4,12,1.21,26.218,M,39.389,M,4.4,0000*59
$GNGGA,103441.60,3604.9981259,N,14004.8934216,E,4,12,1.21,26.209,M,39.389,M,4.6,0000*5C
$GNGGA,103441.80,3604.9981142,N,14004.8935386,E,4,12,1.21,26.222,M,39.389,M,4.8,0000*55
$GNGGA,103442.00,3604.9981084,N,14004.8936533,E,4,12,1.21,26.219,M,39.389,M,5.0,0000*5F
$GNGGA,103442.20,3604.9981016,N,14004.8937558,E,2,12,1.21,26.224,M,39.389,M,5.2,0000*50
$GNGGA,103442.40,3604.9980965,N,14004.8938611,E,2,12,1.21,26.239,M,39.389,M,5.4,0000*51
$GNGGA,103442.60,3604.9980829,N,14004.8939673,E,2,12,1.21,26.222,M,39.389,M,5.6,0000*57
$GNGGA,103442.80,3604.9980735,N,14004.8940704,E,2,12,1.21,26.210,M,39.389,M,5.8,0000*5B
$GNGGA,103443.00,3604.9980734,N,14004.8941598,E,2,12,1.21,26.232,M,39.389,M,6.0,0000*5E
$GNGGA,103443.20,3604.9980726,N,14004.8942360,E,2,12,1.21,26.233,M,39.389,M,6.2,0000*5E
$GNGGA,103443.40,3604.9980818,N,14004.8943171,E,2,12,1.21,26.235,M,39.389,M,6.4,0000*59
$GNGGA,103443.60,3604.9980848,N,14004.8943867,E,5,12,1.21,26.249,M,39.389,M,6.6,0000*5E
$GNGGA,103443.80,3604.9980858,N,14004.8944665,E,5,12,1.21,26.255,M,39.389,M,6.8,0000*59
$GNGGA,103444.00,3604.9980880,N,14004.8945509,E,5,12,1.21,26.253,M,39.389,M,7.0,0000*54
$GNGGA,103444.20,3604.9980895,N,14004.8946446,E,5,12,1.21,26.268,M,39.389,M,2.2,0000*54
$GNGGA,103444.40,3604.9980891,N,14004.8947498,E,5,12,1.21,26.268,M,39.389,M,2.4,0000*52
$GNGGA,103444.60,3604.9980882,N,14004.8948549,E,5,12,1.21,26.270,M,39.389,M,2.6,0000*5B
$GNGGA,103444.70,3604.9980748,N,14004.8949239,E,4,12,1.21,26.279,M,39.389,M,2.7,0000*5B
$GNGGA,103444.90,3604.9980675,N,14004.8950329,E,4,12,1.21,26.280,M,39.389,M,2.9,0000*5A
$GNGGA,103445.20,3604.9980520,N,14004.8951951,E,4,12,1.21,26.295,M,39.389,M,3.2,0000*59
$GNGGA,103445.40,3604.9980565,N,14004.8953095,E,4,12,1.21,26.317,M,39.389,M,3.4,0000*50
$GNGGA,103445.60,3604.9980456,N,14004.8954363,E,4,12,1.21,26.297,M,39.389,M,3.6,0000*55
$GNGGA,103445.80,3604.9980487,N,14004.8955470,E,4,12,1.21,26.318,M,39.389,M,3.8,0000*5B
$GNGGA,103446.00,3604.9980430,N,14004.8956681,E,4,12,1.21,26.323,M,39.389,M,4.0,0000*54
$GNGGA,103446.20,3604.9980332,N,14004.8957814,E,4,12,1.21,26.314,M,39.389,M,4.2,0000*56
$GNGGA,103446.40,3604.9980194,N,14004.8959000,E,4,12,1.21,26.325,M,39.389,M,4.4,0000*59
$GNGGA,103446.50,3604.9980117,N,14004.8959673,E,4,12,1.21,26.307,M,39.389,M,4.5,0000*50
$GNGGA,103446.70,3604.9980072,N,14004.8960725,E,4,12,1.21,26.333,M,39.389,M,4.7,0000*5D
$GNGGA,103446.90,3604.9979998,N,14004.8961761,E,4,12,1.21,26.329,M,39.389,M,4.9,0000*5C
$GNGGA,103447.20,3604.9979844,N,14004.8963294,E,4,12,1.21,26.334,M,39.389,M,5.2,0000*5D
$GNGGA,103447.40,3604.9979678,N,14004.8964296,E,4,12,1.21,26.333,M,39.389,M,5.4,0000*5E
$GNGGA,103447.60,3604.9979499,N,14004.8965426,E,4,12,1.21,26.325,M,39.389,M,5.6,0000*58
$GNGGA,103447.80,3604.9979364,N,14004.8966521,E,4,12,1.21,26.329,M,39.389,M,5.8,0000*54
$GNGGA,103448.00,3604.9979330,N,14004.8967607,E,4,12,1.21,26.316,M,39.389,M,6.0,0000*53
$GNGGA,103448.20,3604.9979312,N,14004.8968749,E,4,12,1.21,26.340,M,39.389,M,1.2,0000*53
$GNGGA,103448.40,3604.9979246,N,14004.8969928,E,4,12,1.21,26.340,M,39.389,M,1.4,0000*5B
$GNGGA,103448.60,3604.9979073,N,14004.8971153,E,4,12,1.21,26.327,M,39.389,M,1.6,0000*53
$GNGGA,103448.70,3604.9978982,N,14004.8971842,E,4,12,1.21,26.326,M,39.389,M,1.7,0000*5D
$GNGGA,103448.90,3604.9978869,N,14004.8973112,E,4,12,1.21,26.347,M,39.389,M,1.9,0000*50
$GNGGA,103449.20,3604.9978772,N,14004.8975055,E,4,12,1.21,26.345,M,39.389,M,2.2,0000*51
$GNGGA,103449.40,3604.9978697,N,14004.8976278,E,4,12,1.21,26.387,M,39.389,M,2.4,0000*5B
$GNGGA,103449.60,3604.9978596,N,14004.8977460,E,4,12,1.21,26.389,M,39.389,M,2.6,0000*59
$GNGGA,103449.80,3604.9978468,N,14004.8978701,E,4,12,1.21,26.398,M,39.389,M,2.8,0000*52
$GNGGA,103450.00,3604.9978406,N,14004.8979934,E,4,12,1.21,26.421,M,39.389,M,3.0,0000*5F
$GNGGA,103450.20,3604.9978348,N,14004.8981163,E,4,12,1.21,26.439,M,39.389,M,3.2,0000*56
$GNGGA,103450.40,3604.9978330,N,14004.8982390,E,4,12,1.21,26.457,M,39.389,M,3.4,0000*5C
$GNGGA,103450.60,3604.9978292,N,14004.8983658,E,4,12,1.21,26.470,M,39.389,M,3.6,0000*50
$GNGGA,103450.80,3604.9978178,N,14004.8984910,E,4,12,1.21,26.452,M,39.389,M,3.8,0000*53
$GNGGA,103450.90,3604.9978066,N,14004.8985592,E,4,12,1.21,26.444,M,39.389,M,3.9,0000*5D
$GNGGA,103451.10,3604.9977990,N,14004.8986808,E,4,12,1.21,26.450,M,39.389,M,4.1,0000*5C
$GNGGA,103451.30,3604.9977848,N,14004.8988053,E,4,12,1.21,26.433,M,39.389,M,4.3,0000*55
$GNGGA,103451.50,3604.9977798,N,14004.8989165,E,4,12,1.21,26.423,M,39.389,M,4.5,0000*53
$GNGGA,103451.70,3604.9977772,N,14004.8990377,E,4,12,1.21,26.440,M,39.389,M,4.7,0000*5B
$GNGGA,103451.90,3604.9977681,N,14004.8991621,E,4,12,1.21,26.435,M,39.389,M,4.9,0000*53
$GNGGA,103452.10,3604.9977602,N,14004.8992857,E,4,12,1.21,26.445,M,39.389,M,5.1,0000*51
$GNGGA,103452.30,3604.9977582,N,14004.8994149,E,4,12,1.21,26.458,M,39.389,M,5.3,0000*56
$GNGGA,103452.50,3604.9977619,N,14004.8995343,E,4,12,1.21,26.441,M,39.389,M,5.5,0000*56
$GNGGA,103452.70,3604.9977639,N,14004.8996437,E,4,12,1.21,26.462,M,39.389,M,5.7,0000*52
$GNGGA,103452.90,3604.9977615,N,14004.8997523,E,4,12,1.21,26.467,M,39.389,M,5.9,0000*5C
$GNGGA,103453.10,3604.9977514,N,14004.8998779,E,4,12,1.21,26.465,M,39.389,M,6.1,0000*5C
$GNGGA,103453.40,3604.9977421,N,14004.9000470,E,4,12,1.21,26.485,M,39.389,M,1.4,0000*51
$GNGGA,103453.60,3604.9977412,N,14004.9001493,E,4,12,1.21,26.487,M,39.389,M,1.6,0000*5F
$GNGGA,103453.80,3604.9977390,N,14004.9002455,E,4,12,1.21,26.482,M,39.389,M,1.8,0000*5E
$GNGGA,103454.00,3604.9977338,N,14004.9003382,E,4,12,1.21,26.491,M,39.389,M,2.0,0000*56
$GNGGA,103454.20,3604.9977174,N,14004.9004266,E,4,12,1.21,26.492,M,39.389,M,2.2,0000*53
$GNGGA,103454.40,3604.9977010,N,14004.9005152,E,4,12,1.21,26.501,M,39.389,M,2.4,0000*5E
$GNGGA,103454.60,3604.9976925,N,14004.9005891,E,4,12,1.21,26.496,M,39.389,M,2.6,0000*59
$GNGGA,103454.90,3604.9976820,N,14004.9006840,E,4,12,1.21,26.488,M,39.389,M,2.9,0000*5D
$GNGGA,103455.20,3604.9976784,N,14004.9007669,E,4,12,1.21,26.494,M,39.389,M,3.2,0000*55
$GNGGA,103455.60,3604.9976734,N,14004.9008409,E,4,12,1.21,26.506,M,39.389,M,3.6,0000*5F
$GNGGA,103456.10,3604.9976057,N,14004.9008567,E,4,12,1.21,26.498,M,39.389,M,4.1,0000*56
$GNGGA,103456.40,3604.9975394,N,14004.9008508,E,4,12,1.21,26.493,M,39.389,M,4.4,0000*5B
$GNGGA,103456.70,3604.9974613,N,14004.9008364,E,4,12,1.21,26.507,M,39.389,M,4.7,0000*50
$GNGGA,103457.00,3604.9973778,N,14004.9008112,E,4,12,1.21,26.515,M,39.389,M,5.0,0000*5B
$GNGGA,103457.20,3604.9973235,N,14004.9007870,E,4,12,1.21,26.520,M,39.389,M,5.2,0000*53
$GNGGA,103457.40,3604.9972632,N,14004.9007722,E,4,12,1.21,26.522,M,39.389,M,5.4,0000*5B
$GNGGA,103457.60,3604.9972009,N,14004.9007700,E,4,12,1.21,26.528,M,39.389,M,5.6,0000*5F
$GNGGA,103457.90,3604.9971295,N,14004.9007899,E,4,12,1.21,26.533,M,39.389,M,5.9,0000*5E
$GNGGA,103458.20,3604.9970650,N,14004.9008245,E,4,12,1.21,26.533,M,39.389,M,1.2,0000*5D
$GNGGA,103458.50,3604.9970127,N,14004.9008658,E,4,12,1.21,26.546,M,39.389,M,1.5,0000*50
$GNGGA,103458.80,3604.9969604,N,14004.9008999,E,4,12,1.21,26.550,M,39.389,M,1.8,0000*5B
$GNGGA,103459.10,3604.9969058,N,14004.9009478,E,4,12,1.21,26.551,M,39.389,M,2.1,0000*54
$GNGGA,103459.30,3604.9968771,N,14004.9010172,E,4,12,1.21,26.554,M,39.389,M,2.3,0000*5B
$GNGGA,103459.50,3604.9968508,N,14004.9010889,E,4,12,1.21,26.554,M,39.389,M,2.5,0000*5A
$GNGGA,103459.70,3604.9968245,N,14004.9011679,E,4,12,1.21,26.559,M,39.389,M,2.7,0000*59
$GNGGA,103459.90,3604.9968054,N,14004.9012663,E,4,12,1.21,26.567,M,39.389,M,2.9,0000*5E
$GNGGA,103500.10,3604.9967856,N,14004.9013688,E,4,12,1.21,26.571,M,39.389,M,3.1,0000*54
$GNGGA,103500.30,3604.9967659,N,14004.9014687,E,4,12,1.21,26.568,M,39.389,M,3.3,0000*55
$GNGGA,103500.50,3604.9967440,N,14004.9015942,E,4,12,1.21,26.572,M,39.389,M,3.5,0000*53
$GNGGA,103500.70,3604.9967265,N,14004.9017092,E,4,12,1.21,26.586,M,39.389,M,3.7,0000*5F
$GNGGA,103500.90,3604.9967122,N,14004.9018249,E,4,12,1.21,26.604,M,39.389,M,3.9,0000*5D
$GNGGA,103501.10,3604.9967085,N,14004.9019376,E,4,12,1.21,26.620,M,39.389,M,4.1,0000*5D
$GNGGA,103501.30,3604.9967098,N,14004.9020589,E,4,12,1.21,26.613,M,39.389,M,4.3,0000*5D
$GNGGA,103501.50,3604.9967143,N,14004.9021675,E,4,12,1.21,26.624,M,39.389,M,4.5,0000*5F
$GNGGA,103501.70,3604.9967133,N,14004.9022676,E,4,12,1.21,26.622,M,39.389,M,4.7,0000*5E
$GNGGA,103501.90,3604.9967057,N,14004.9023432,E,4,12,1.21,26.630,M,39.389,M,4.9,0000*5D
$GNGGA,103502.10,3604.9967133,N,14004.9024135,E,4,12,1.21,26.667,M,39.389,M,5.1,0000*5B
$GNGGA,103502.40,3604.9967243,N,14004.9025000,E,4,12,1.21,26.694,M,39.389,M,5.4,0000*55
$GNGGA,103502.70,3604.9967515,N,14004.9025834,E,4,12,1.21,26.699,M,39.389,M,5.7,0000*53
$GNGGA,103503.00,3604.9967950,N,14004.9026455,E,4,12,1.21,26.685,M,39.389,M,6.0,0000*59
$GNGGA,103503.20,3604.9968397,N,14004.9026914,E,4,12,1.21,26.669,M,39.389,M,1.2,0000*5A
$GNGGA,103503.40,3604.9968879,N,14004.9027316,E,4,12,1.21,26.673,M,39.389,M,1.4,0000*53
$GNGGA,103503.60,3604.9969378,N,14004.9027590,E,4,12,1.21,26.673,M,39.389,M,1.6,0000*50
$GNGGA,103503.80,3604.9970005,N,14004.9027672,E,4,12,1.21,26.671,M,39.389,M,1.8,0000*5C
$GNGGA,103504.00,3604.9970716,N,14004.9027701,E,4,12,1.21,26.660,M,39.389,M,2.0,0000*58
$GNGGA,103504.20,3604.9971344,N,14004.9027749,E,4,12,1.21,26.651,M,39.389,M,2.2,0000*54
$GNGGA,103504.40,3604.9972018,N,14004.9027804,E,4,12,1.21,26.626,M,39.389,M,2.4,0000*5B
$GNGGA,103504.60,3604.9972682,N,14004.9027771,E,4,12,1.21,26.606,M,39.389,M,2.6,0000*51
$GNGGA,103504.90,3604.9973395,N,14004.9027874,E,4,12,1.21,26.591,M,39.389,M,2.9,0000*54
$GNGGA,103505.40,3604.9973940,N,14004.9028167,E,4,12,1.21,26.600,M,39.389,M,3.4,0000*59
$GNGGA,103505.80,3604.9973900,N,14004.9028869,E,4,12,1.21,26.605,M,39.389,M,3.8,0000*5F
$GNGGA,103506.00,3604.9973819,N,14004.9029567,E,4,12,1.21,26.606,M,39.389,M,4.0,0000*53
$GNGGA,103506.20,3604.9973872,N,14004.9030345,E,4,12,1.21,26.603,M,39.389,M,4.2,0000*55
$GNGGA,103506.40,3604.9973757,N,14004.9031300,E,4,12,1.21,26.593,M,39.389,M,4.4,0000*57
$GNGGA,103506.60,3604.9973712,N,14004.9032346,E,4,12,1.21,26.588,M,39.389,M,4.6,0000*5D
$GNGGA,103506.80,3604.9973734,N,14004.9033513,E,4,12,1.21,26.591,M,39.389,M,4.8,0000*56
$GNGGA,103507.00,3604.9973787,N,14004.9034758,E,4,12,1.21,26.612,M,39.389,M,5.0,0000*5C
$GNGGA,103507.10,3604.9973838,N,14004.9035441,E,4,12,1.21,26.615,M,39.389,M,5.1,0000*5A
$GNGGA,103507.30,3604.9973870,N,14004.9036714,E,4,12,1.21,26.629,M,39.389,M,5.3,0000*59
$GNGGA,103507.50,3604.9973972,N,14004.9037995,E,4,12,1.21,26.650,M,39.389,M,5.5,0000*52
$GNGGA,103507.70,3604.9974062,N,14004.9039281,E,4,12,1.21,26.667,M,39.389,M,5.7,0000*59
$GNGGA,103507.90,3604.9974148,N,14004.9040566,E,4,12,1.21,26.676,M,39.389,M,5.9,0000*50
$GNGGA,103508.00,3604.9974123,N,14004.9041248,E,4,12,1.21,26.692,M,39.389,M,6.0,0000*51
$GNGGA,103508.20,3604.9974096,N,14004.9042525,E,4,12,1.21,26.698,M,39.389,M,1.2,0000*5C
$GNGGA,103508.30,3604.9974015,N,14004.9043204,E,4,12,1.21,26.705,M,39.389,M,1.3,0000*57
$GNGGA,103508.40,3604.9973941,N,14004.9043903,E,4,12,1.21,26.706,M,39.389,M,1.4,0000*57
$GNGGA,103508.50,3604.9973920,N,14004.9044577,E,4,12,1.21,26.719,M,39.389,M,1.5,0000*56
$GNGGA,103508.60,3604.9973896,N,14004.9045269,E,4,12,1.21,26.733,M,39.389,M,1.6,0000*5B
$GNGGA,103508.70,3604.9973866,N,14004.9045962,E,4,12,1.21,26.738,M,39.389,M,1.7,0000*5F
$GNGGA,103508.80,3604.9973848,N,14004.9046686,E,4,12,1.21,26.741,M,39.389,M,1.8,0000*5B
$GNGGA,103508.90,3604.9973881,N,14004.9047488,E,4,12,1.21,26.721,M,39.389,M,1.9,0000*55
$GNGGA,103509.00,3604.9973890,N,14004.9048183,E,4,12,1.21,26.722,M,39.389,M,2.0,0000*55
$GNGGA,103509.10,3604.9973840,N,14004.9048931,E,4,12,1.21,26.720,M,39.389,M,2.1,0000*5B
$GNGGA,103509.20,3604.9973764,N,14004.9049622,E,4,12,1.21,26.716,M,39.389,M,2.2,0000*5B
$GNGGA,103509.30,3604.9973751,N,14004.9050301,E,4,12,1.21,26.705,M,39.389,M,2.3,0000*53
$GNGGA,103509.40,3604.9973667,N,14004.9051013,E,4,12,1.21,26.696,M,39.389,M,2.4,0000*5D
$GNGGA,103509.50,3604.9973624,N,14004.9051742,E,4,12,1.21,26.701,M,39.389,M,2.5,0000*56
$GNGGA,103509.60,3604.9973575,N,14004.9052468,E,4,12,1.21,26.703,M,39.389,M,2.6,0000*5B
$GNGGA,103509.70,3604.9973592,N,14004.9053198,E,4,12,1.21,26.710,M,39.389,M,2.7,0000*5B
$GNGGA,103509.80,3604.9973576,N,14004.9053898,E,4,12,1.21,26.715,M,39.389,M,2.8,0000*5D
$GNGGA,103509.90,3604.9973597,N,14004.9054611,E,4,12,1.21,26.707,M,39.389,M,2.9,0000*59
$GNGGA,103510.00,3604.9973645,N,14004.9055345,E,4,12,1.21,26.707,M,39.389,M,3.0,0000*59
$GNGGA,103510.10,3604.9973677,N,14004.9056036,E,4,12,1.21,26.719,M,39.389,M,3.1,0000*53
$GNGGA,103510.20,3604.9973675,N,14004.9056773,E,4,12,1.21,26.721,M,39.389,M,3.2,0000*5C
$GNGGA,103510.30,3604.9973624,N,14004.9057443,E,4,12,1.21,26.723,M,39.389,M,3.3,0000*5B
$GNGGA,103510.40,3604.9973604,N,14004.9058119,E,4,12,1.21,26.725,M,39.389,M,3.4,0000*5A
$GNGGA,103510.50,3604.9973541,N,14004.9058895,E,4,12,1.21,26.720,M,39.389,M,3.5,0000*50
$GNGGA,103510.60,3604.9973495,N,14004.9059624,E,4,12,1.21,26.716,M,39.389,M,3.6,0000*58
$GNGGA,103510.80,3604.9973440,N,14004.9061063,E,4,12,1.21,26.744,M,39.389,M,3.8,0000*59
$GNGGA,103510.90,3604.9973460,N,14004.9061764,E,4,12,1.21,26.737,M,39.389,M,3.9,0000*5F
$GNGGA,103511.00,3604.9973438,N,14004.9062577,E,4,12,1.21,26.740,M,39.389,M,4.0,0000*57
$GNGGA,103511.10,3604.9973446,N,14004.9063290,E,4,12,1.21,26.743,M,39.389,M,4.1,0000*52
$GNGGA,103511.20,3604.9973403,N,14004.9063975,E,4,12,1.21,26.747,M,39.389,M,4.2,0000*57
$GNGGA,103511.30,3604.9973350,N,14004.9064703,E,4,12,1.21,26.757,M,39.389,M,4.3,0000*5F
$GNGGA,103511.40,3604.9973291,N,14004.9065420,E,4,12,1.21,26.766,M,39.389,M,4.4,0000*52
$GNGGA,103511.50,3604.9973238,N,14004.9066089,E,4,12,1.21,26.761,M,39.389,M,4.5,0000*52
$GNGGA,103511.60,3604.9973170,N,14004.9066768,E,4,12,1.21,26.759,M,39.389,M,4.6,0000*5E
$GNGGA,103511.70,3604.9973131,N,14004.9067512,E,4,12,1.21,26.774,M,39.389,M,4.7,0000*5A
$GNGGA,103511.80,3604.9973106,N,14004.9068275,E,4,12,1.21,26.784,M,39.389,M,4.8,0000*58
$GNGGA,103511.90,3604.9973050,N,14004.9068997,E,4,12,1.21,26.789,M,39.389,M,4.9,0000*50
$GNGGA,103512.00,3604.9973066,N,14004.9069722,E,4,12,1.21,26.779,M,39.389,M,5.0,0000*59
$GNGGA,103512.10,3604.9973048,N,14004.9070418,E,4,12,1.21,26.783,M,39.389,M,5.1,0000*52
$GNGGA,103512.20,3604.9973015,N,14004.9071124,E,4,12,1.21,26.788,M,39.389,M,5.2,0000*5A
$GNGGA,103512.30,3604.9972954,N,14004.9071847,E,4,12,1.21,26.808,M,39.389,M,5.3,0000*5C
$GNGGA,103512.50,3604.9972902,N,14004.9073125,E,4,12,1.21,26.819,M,39.389,M,5.5,0000*50
$GNGGA,103512.60,3604.9972806,N,14004.9073844,E,4,12,1.21,26.823,M,39.389,M,5.6,0000*52
$GNGGA,103512.70,3604.9972725,N,14004.9074579,E,4,12,1.21,26.813,M,39.389,M,5.7,0000*5B
$GNGGA,103512.80,3604.9972640,N,14004.9075319,E,4,12,1.21,26.831,M,39.389,M,5.8,0000*58
$GNGGA,103513.00,3604.9972605,N,14004.9076619,E,4,12,1.21,26.832,M,39.389,M,6.0,0000*5E
$GNGGA,103513.10,3604.9972579,N,14004.9077291,E,4,12,1.21,26.832,M,39.389,M,6.1,0000*53
$GNGGA,103513.40,3604.9972516,N,14004.9079186,E,4,12,1.21,26.850,M,39.389,M,6.4,0000*55
$GNGGA,103513.60,3604.9972464,N,14004.9080397,E,4,12,1.21,26.840,M,39.389,M,6.6,0000*54
$GNGGA,103513.80,3604.9972353,N,14004.9081678,E,4,12,1.21,26.834,M,39.389,M,6.8,0000*51
$GNGGA,103513.90,3604.9972327,N,14004.9082358,E,4,12,1.21,26.843,M,39.389,M,6.9,0000*56
$GNGGA,103514.00,3604.9972276,N,14004.9083038,E,4,12,1.21,26.844,M,39.388,M,7.0,0000*57
$GNGGA,103514.10,3604.9972272,N,14004.9083706,E,4,12,1.21,26.853,M,39.388,M,7.1,0000*5F
$GNGGA,103514.20,3604.9972250,N,14004.9084373,E,4,12,1.21,26.846,M,39.388,M,2.2,0000*5F
$GNGGA,103514.40,3604.9972207,N,14004.9085673,E,4,12,1.21,26.846,M,39.388,M,2.4,0000*59
$GNGGA,103514.60,3604.9972151,N,14004.9086873,E,4,12,1.21,26.872,M,39.388,M,2.6,0000*53
$GNGGA,103514.80,3604.9972019,N,14004.9088153,E,4,12,1.21,26.858,M,39.388,M,2.8,0000*53
$GNGGA,103515.00,3604.9971893,N,14004.9089463,E,4,12,1.21,26.860,M,39.388,M,3.0,0000*56
$GNGGA,103515.10,3604.9971844,N,14004.9090168,E,4,12,1.21,26.872,M,39.388,M,3.1,0000*59
$GNGGA,103515.20,3604.9971844,N,14004.9090879,E,4,12,1.21,26.873,M,39.388,M,3.2,0000*51
$GNGGA,103515.40,3604.9971878,N,14004.9092207,E,4,12,1.21,26.869,M,39.388,M,3.4,0000*54
$GNGGA,103515.50,3604.9971895,N,14004.9092896,E,4,12,1.21,26.859,M,39.388,M,3.5,0000*56
$GNGGA,103515.70,3604.9971846,N,14004.9094190,E,4,12,1.21,26.883,M,39.388,M,3.7,0000*56
$GNGGA,103515.90,3604.9971772,N,14004.9095614,E,4,12,1.21,26.871,M,39.388,M,3.9,0000*59
$GNGGA,103516.00,3604.9971732,N,14004.9096328,E,4,12,1.21,26.874,M,39.388,M,4.0,0000*55
$GNGGA,103516.10,3604.9971688,N,14004.9097100,E,4,12,1.21,26.875,M,39.388,M,4.1,0000*5D
$GNGGA,103516.20,3604.9971660,N,14004.9097921,E,4,12,1.21,26.885,M,39.388,M,4.2,0000*5F
$GNGGA,103516.30,3604.9971639,N,14004.9098701,E,4,12,1.21,26.881,M,39.388,M,4.3,0000*54
$GNGGA,103516.40,3604.9971660,N,14004.9099521,E,4,12,1.21,26.868,M,39.388,M,4.4,0000*5E
$GNGGA,103516.50,3604.9971639,N,14004.9100287,E,4,12,1.21,26.867,M,39.388,M,4.5,0000*57
$GNGGA,103516.60,3604.9971613,N,14004.9101033,E,4,12,1.21,26.869,M,39.388,M,4.6,0000*5D
$GNGGA,103516.70,3604.9971534,N,14004.9101774,E,4,12,1.21,26.879,M,39.388,M,4.7,0000*5E
$GNGGA,103516.80,3604.9971504,N,14004.9102483,E,4,12,1.21,26.888,M,39.388,M,4.8,0000*5B
$GNGGA,103516.90,3604.9971490,N,14004.9103249,E,4,12,1.21,26.888,M,39.388,M,4.9,0000*56
$GNGGA,103517.00,3604.9971386,N,14004.9104141,E,4,12,1.21,26.876,M,39.388,M,5.0,0000*5B
$GNGGA,103517.10,3604.9971287,N,14004.9104932,E,4,12,1.21,26.876,M,39.388,M,5.1,0000*57
$GNGGA,103517.20,3604.9971205,N,14004.9105725,E,4,12,1.21,26.878,M,39.388,M,5.2,0000*5A
$GNGGA,103517.30,3604.9971120,N,14004.9106531,E,4,12,1.21,26.879,M,39.388,M,5.3,0000*5B
$GNGGA,103517.40,3604.9971088,N,14004.9107340,E,4,12,1.21,26.876,M,39.388,M,5.4,0000*56
$GNGGA,103517.50,3604.9971068,N,14004.9108090,E,4,12,1.21,26.864,M,39.388,M,5.5,0000*5A
$GNGGA,103517.60,3604.9970983,N,14004.9108891,E,4,12,1.21,26.860,M,39.388,M,5.6,0000*5A
$GNGGA,103517.70,3604.9970876,N,14004.9109714,E,4,12,1.21,26.863,M,39.388,M,5.7,0000*51
$GNGGA,103517.80,3604.9970742,N,14004.9110410,E,4,12,1.21,26.866,M,39.388,M,5.8,0000*53
$GNGGA,103517.90,3604.9970638,N,14004.9111140,E,4,12,1.21,26.860,M,39.388,M,5.9,0000*58
$GNGGA,103518.00,3604.9970480,N,14004.9111975,E,4,12,1.21,26.841,M,39.388,M,6.0,0000*58
$GNGGA,103518.20,3604.9970268,N,14004.9113502,E,4,12,1.21,26.848,M,39.388,M,1.2,0000*58
$GNGGA,103518.40,3604.9970102,N,14004.9115038,E,4,12,1.21,26.850,M,39.388,M,1.4,0000*54
$GNGGA,103518.50,3604.9970060,N,14004.9115865,E,4,12,1.21,26.831,M,39.388,M,1.5,0000*56
$GNGGA,103518.60,3604.9970018,N,14004.9116700,E,4,12,1.21,26.821,M,39.388,M,1.6,0000*57
$GNGGA,103518.70,3604.9969977,N,14004.9117429,E,4,12,1.21,26.839,M,39.388,M,1.7,0000*5F
$GNGGA,103518.80,3604.9969937,N,14004.9118147,E,4,12,1.21,26.852,M,39.388,M,1.8,0000*54
$GNGGA,103518.90,3604.9969895,N,14004.9118882,E,4,12,1.21,26.850,M,39.388,M,1.9,0000*5F
$GNGGA,103519.00,3604.9969800,N,14004.9119726,E,4,12,1.21,26.842,M,39.388,M,2.0,0000*52
$GNGGA,103519.10,3604.9969743,N,14004.9120524,E,4,12,1.21,26.842,M,39.388,M,2.1,0000*50
$GNGGA,103519.20,3604.9969724,N,14004.9121299,E,4,12,1.21,26.854,M,39.388,M,2.2,0000*56
$GNGGA,103519.30,3604.9969686,N,14004.9122046,E,4,12,1.21,26.861,M,39.388,M,2.3,0000*5A
$GNGGA,103519.40,3604.9969641,N,14004.9122810,E,4,12,1.21,26.860,M,39.388,M,2.4,0000*5B
$GNGGA,103519.50,3604.9969606,N,14004.9123539,E,4,12,1.21,26.859,M,39.388,M,2.5,0000*55
$GNGGA,103519.60,3604.9969566,N,14004.9124261,E,4,12,1.21,26.855,M,39.388,M,2.6,0000*51
$GNGGA,103519.70,3604.9969525,N,14004.9124991,E,4,12,1.21,26.857,M,39.388,M,2.7,0000*50
$GNGGA,103519.80,3604.9969484,N,14004.9125704,E,4,12,1.21,26.866,M,39.388,M,2.8,0000*5B
$GNGGA,103519.90,3604.9969426,N,14004.9126409,E,4,12,1.21,26.858,M,39.388,M,2.9,0000*53
$GNGGA,103520.00,3604.9969360,N,14004.9127094,E,4,12,1.21,26.855,M,39.388,M,3.0,0000*51
$GNGGA,103520.10,3604.9969264,N,14004.9127805,E,4,12,1.21,26.855,M,39.388,M,3.1,0000*54
$GNGGA,103520.20,3604.9969187,N,14004.9128558,E,4,12,1.21,26.848,M,39.388,M,3.2,0000*5C
$GNGGA,103520.30,3604.9969163,N,14004.9129335,E,4,12,1.21,26.852,M,39.388,M,3.3,0000*51
$GNGGA,103520.40,3604.9969139,N,14004.9130047,E,4,12,1.21,26.858,M,39.388,M,3.4,0000*5A
$GNGGA,103520.50,3604.9969107,N,14004.9130797,E,4,12,1.21,26.858,M,39.388,M,3.5,0000*5D
$GNGGA,103520.60,3604.9969102,N,14004.9131519,E,4,12,1.21,26.852,M,39.388,M,3.6,0000*57
$GNGGA,103520.70,3604.9969160,N,14004.9132187,E,4,12,1.21,26.859,M,39.388,M,3.7,0000*58
$GNGGA,103520.80,3604.9969228,N,14004.9132867,E,4,12,1.21,26.865,M,39.388,M,3.8,0000*5F
$GNGGA,103520.90,3604.9969228,N,14004.9133570,E,4,12,1.21,26.865,M,39.388,M,3.9,0000*55
$GNGGA,103521.00,3604.9969210,N,14004.9134274,E,4,12,1.21,26.870,M,39.388,M,4.0,0000*58
$GNGGA,103521.20,3604.9969219,N,14004.9135651,E,4,12,1.21,26.862,M,39.388,M,4.2,0000*50
$GNGGA,103521.30,3604.9969253,N,14004.9136369,E,4,12,1.21,26.862,M,39.388,M,4.3,0000*53
$GNGGA,103521.40,3604.9969360,N,14004.9137146,E,4,12,1.21,26.859,M,39.388,M,4.4,0000*54
$GNGGA,103521.50,3604.9969472,N,14004.9137919,E,4,12,1.21,26.857,M,39.388,M,4.5,0000*5C
$GNGGA,103521.60,3604.9969620,N,14004.9138607,E,4,12,1.21,26.854,M,39.388,M,4.6,0000*55
$GNGGA,103521.70,3604.9969816,N,14004.9139295,E,4,12,1.21,26.842,M,39.388,M,4.7,0000*57
$GNGGA,103521.80,3604.9970056,N,14004.9139981,E,4,12,1.21,26.836,M,39.388,M,4.8,0000*5E
$GNGGA,103521.90,3604.9970277,N,14004.9140624,E,4,12,1.21,26.850,M,39.388,M,4.9,0000*51
$GNGGA,103522.00,3604.9970425,N,14004.9141283,E,4,12,1.21,26.845,M,39.388,M,5.0,0000*5E
$GNGGA,103522.10,3604.9970594,N,14004.9141924,E,4,12,1.21,26.840,M,39.388,M,5.1,0000*56
$GNGGA,103522.20,3604.9970761,N,14004.9142703,E,4,12,1.21,26.828,M,39.388,M,5.2,0000*58
$GNGGA,103522.30,3604.9971006,N,14004.9143339,E,4,12,1.21,26.829,M,39.388,M,5.3,0000*52
$GNGGA,103522.40,3604.9971239,N,14004.9144109,E,4,12,1.21,26.829,M,39.388,M,5.4,0000*5A
$GNGGA,103522.50,3604.9971518,N,14004.9144866,E,4,12,1.21,26.827,M,39.388,M,5.5,0000*50
$GNGGA,103522.60,3604.9971794,N,14004.9145568,E,4,12,1.21,26.823,M,39.388,M,5.6,0000*50
$GNGGA,103522.70,3604.9972078,N,14004.9146223,E,4,12,1.21,26.817,M,39.388,M,5.7,0000*5A
$GNGGA,103522.80,3604.9972336,N,14004.9146873,E,4,12,1.21,26.809,M,39.388,M,5.8,0000*53
$GNGGA,103522.90,3604.9972573,N,14004.9147531,E,4,12,1.21,26.813,M,39.388,M,5.9,0000*55
$GNGGA,103523.00,3604.9972786,N,14004.9148226,E,4,12,1.21,26.818,M,39.388,M,6.0,0000*5A
$GNGGA,103523.10,3604.9973021,N,14004.9148833,E,4,12,1.21,26.817,M,39.388,M,6.1,0000*50
$GNGGA,103523.20,3604.9973241,N,14004.9149494,E,4,12,1.21,26.803,M,39.388,M,1.2,0000*56
$GNGGA,103523.40,3604.9973769,N,14004.9150892,E,4,12,1.21,26.802,M,39.388,M,1.4,0000*5A
$GNGGA,103523.50,3604.9974084,N,14004.9151645,E,4,12,1.21,26.804,M,39.388,M,1.5,0000*5A
$GNGGA,103523.60,3604.9974371,N,14004.9152406,E,4,12,1.21,26.810,M,39.388,M,1.6,0000*50
$GNGGA,103523.70,3604.9974692,N,14004.9153019,E,4,12,1.21,26.812,M,39.388,M,1.7,0000*51
$GNGGA,103523.80,3604.9975018,N,14004.9153685,E,4,12,1.21,26.795,M,39.388,M,1.8,0000*57
$GNGGA,103523.90,3604.9975336,N,14004.9154356,E,4,12,1.21,26.798,M,39.388,M,1.9,0000*59
$GNGGA,103524.00,3604.9975674,N,14004.9154942,E,4,12,1.21,26.819,M,39.388,M,2.0,0000*57
$GNGGA,103524.10,3604.9976000,N,14004.9155576,E,4,12,1.21,26.810,M,39.388,M,2.1,0000*52
$GNGGA,103524.20,3604.9976345,N,14004.9156119,E,4,12,1.21,26.813,M,39.388,M,2.2,0000*5D
$GNGGA,103524.30,3604.9976692,N,14004.9156742,E,4,12,1.21,26.814,M,39.388,M,2.3,0000*5D
$GNGGA,103524.40,3604.9977050,N,14004.9157398,E,4,12,1.21,26.806,M,39.388,M,2.4,0000*55
$GNGGA,103524.50,3604.9977529,N,14004.9157919,E,4,12,1.21,26.809,M,39.388,M,2.5,0000*52
$GNGGA,103524.60,3604.9977999,N,14004.9158517,E,4,12,1.21,26.812,M,39.388,M,2.6,0000*52
$GNGGA,103524.70,3604.9978525,N,14004.9159027,E,4,12,1.21,26.810,M,39.388,M,2.7,0000*53
$GNGGA,103524.80,3604.9979067,N,14004.9159452,E,4,12,1.21,26.806,M,39.388,M,2.8,0000*50
$GNGGA,103524.90,3604.9979617,N,14004.9159860,E,4,12,1.21,26.795,M,39.388,M,2.9,0000*59
$GNGGA,103525.00,3604.9980157,N,14004.9160232,E,4,12,1.21,26.801,M,39.388,M,3.0,0000*59
$GNGGA,103525.10,3604.9980707,N,14004.9160594,E,4,12,1.21,26.809,M,39.388,M,3.1,0000*59
$GNGGA,103525.20,3604.9981286,N,14004.9160917,E,4,12,1.21,26.805,M,39.388,M,3.2,0000*5F
$GNGGA,103525.30,3604.9981823,N,14004.9161294,E,4,12,1.21,26.787,M,39.388,M,3.3,0000*5E
$GNGGA,103525.40,3604.9982399,N,14004.9161740,E,4,12,1.21,26.772,M,39.388,M,3.4,0000*51
$GNGGA,103525.50,3604.9983018,N,14004.9162091,E,4,12,1.21,26.772,M,39.388,M,3.5,0000*52
$GNGGA,103525.60,3604.9983652,N,14004.9162384,E,4,12,1.21,26.760,M,39.388,M,3.6,0000*5E
$GNGGA,103525.70,3604.9984318,N,14004.9162594,E,4,12,1.21,26.761,M,39.388,M,3.7,0000*54
$GNGGA,103525.80,3604.9985002,N,14004.9162750,E,4,12,1.21,26.760,M,39.388,M,3.8,0000*56
$GNGGA,103525.90,3604.9985630,N,14004.9163004,E,4,12,1.21,26.745,M,39.388,M,3.9,0000*51
$GNGGA,103526.00,3604.9986247,N,14004.9163182,E,4,12,1.21,26.744,M,39.388,M,4.0,0000*5C
$GNGGA,103526.10,3604.9986872,N,14004.9163228,E,4,12,1.21,26.754,M,39.388,M,4.1,0000*52
$GNGGA,103526.20,3604.9987533,N,14004.9163382,E,4,12,1.21,26.758,M,39.388,M,4.2,0000*56
$GNGGA,103526.30,3604.9988157,N,14004.9163611,E,4,12,1.21,26.754,M,39.388,M,4.3,0000*5C
$GNGGA,103526.40,3604.9988759,N,14004.9163725,E,4,12,1.21,26.761,M,39.388,M,4.4,0000*54
$GNGGA,103526.50,3604.9989415,N,14004.9163940,E,4,12,1.21,26.752,M,39.388,M,4.5,0000*53
$GNGGA,103526.60,3604.9990066,N,14004.9164107,E,4,12,1.21,26.750,M,39.388,M,4.6,0000*55
$GNGGA,103526.70,3604.9990683,N,14004.9164326,E,4,12,1.21,26.756,M,39.388,M,4.7,0000*5F
$GNGGA,103526.80,3604.9991304,N,14004.9164469,E,4,12,1.21,26.763,M,39.388,M,4.8,0000*5E
$GNGGA,103526.90,3604.9991962,N,14004.9164572,E,4,12,1.21,26.753,M,39.388,M,4.9,0000*5C
$GNGGA,103527.00,3604.9992568,N,14004.9164731,E,4,12,1.21,26.748,M,39.388,M,5.0,0000*56
$GNGGA,103527.10,3604.9993207,N,14004.9164862,E,4,12,1.21,26.753,M,39.388,M,5.1,0000*5A
$GNGGA,103527.30,3604.9994284,N,14004.9165276,E,4,12,1.21,26.782,M,39.388,M,5.3,0000*54
$GNGGA,103527.40,3604.9994881,N,14004.9165418,E,4,12,1.21,26.783,M,39.388,M,5.4,0000*54
$GNGGA,103527.50,3604.9995517,N,14004.9165615,E,4,12,1.21,26.779,M,39.388,M,5.5,0000*5D
$GNGGA,103527.60,3604.9996164,N,14004.9165846,E,4,12,1.21,26.780,M,39.388,M,5.6,0000*50
$GNGGA,103527.70,3604.9996745,N,14004.9166058,E,4,12,1.21,26.792,M,39.388,M,5.7,0000*52
$GNGGA,103527.80,3604.9997329,N,14004.9166235,E,4,12,1.21,26.805,M,39.388,M,5.8,0000*55
$GNGGA,103527.90,3604.9997918,N,14004.9166374,E,4,12,1.21,26.818,M,39.388,M,5.9,0000*55
$GNGGA,103528.00,3604.9998572,N,14004.9166438,E,4,12,1.21,26.809,M,39.388,M,6.0,0000*59
$GNGGA,103528.10,3604.9999159,N,14004.9166565,E,4,12,1.21,26.809,M,39.388,M,6.1,0000*5C
$GNGGA,103528.20,3604.9999801,N,14004.9166727,E,4,12,1.21,26.817,M,39.388,M,1.2,0000*54
$GNGGA,103528.40,3605.0000986,N,14004.9166940,E,4,12,1.21,26.812,M,39.388,M,1.4,0000*51
$GNGGA,103528.50,3605.0001624,N,14004.9167043,E,4,12,1.21,26.811,M,39.388,M,1.5,0000*5F
$GNGGA,103528.60,3605.0002292,N,14004.9167240,E,4,12,1.21,26.810,M,39.388,M,1.6,0000*55
$GNGGA,103528.70,3605.0002952,N,14004.9167368,E,4,12,1.21,26.820,M,39.388,M,1.7,0000*5A
