$GNGGA,122954.30,3605.0735885,N,14004.7850974,E,5,12,0.86,27.498,M,39.392,M,2.3,0000*59
$GNGGA,123000.40,3605.0736514,N,14004.7850897,E,5,12,0.86,27.416,M,39.392,M,3.4,0000*5D
$GNGGA,123000.60,3605.0737100,N,14004.7850507,E,5,12,0.86,27.402,M,39.392,M,3.6,0000*5C
$GNGGA,123000.80,3605.0737910,N,14004.7850239,E,5,12,0.86,27.389,M,39.392,M,3.8,0000*5B
$GNGGA,123000.90,3605.0738445,N,14004.7850049,E,5,12,0.86,27.396,M,39.392,M,3.9,0000*52
$GNGGA,123001.10,3605.0739207,N,14004.7849641,E,5,12,0.86,27.418,M,39.392,M,4.1,0000*52
$GNGGA,123001.20,3605.0739733,N,14004.7849463,E,5,12,0.86,27.401,M,39.392,M,4.2,0000*5A
$GNGGA,123001.30,3605.0740249,N,14004.7849159,E,5,12,0.86,27.395,M,39.392,M,4.3,0000*5A
$GNGGA,123001.40,3605.0740832,N,14004.7848793,E,5,12,0.86,27.391,M,39.392,M,4.4,0000*59
$GNGGA,123001.50,3605.0741465,N,14004.7848569,E,5,12,0.86,27.404,M,39.392,M,4.5,0000*5A
$GNGGA,123001.70,3605.0742432,N,14004.7848164,E,5,12,0.86,27.433,M,39.392,M,4.7,0000*56
$GNGGA,123001.80,3605.0743013,N,14004.7847941,E,5,12,0.86,27.416,M,39.392,M,4.8,0000*57
$GNGGA,123001.90,3605.0743656,N,14004.7847710,E,5,12,0.86,27.414,M,39.392,M,4.9,0000*58
$GNGGA,123002.00,3605.0744240,N,14004.7847474,E,5,12,0.86,27.430,M,39.392,M,5.0,0000*59
$GNGGA,123002.10,3605.0744746,N,14004.7847200,E,5,12,0.86,27.449,M,39.392,M,5.1,0000*51
$GNGGA,123002.30,3605.0745763,N,14004.7846750,E,5,12,0.86,27.455,M,39.392,M,5.3,0000*5B
$GNGGA,123002.40,3605.0746374,N,14004.7846515,E,5,12,0.86,27.439,M,39.392,M,5.4,0000*53
$GNGGA,123002.50,3605.0746958,N,14004.7846215,E,5,12,0.86,27.426,M,39.392,M,5.5,0000*5E
$GNGGA,123002.60,3605.0747606,N,14004.7846018,E,5,12,0.86,27.450,M,39.392,M,5.6,0000*55
$GNGGA,123002.70,3605.0748164,N,14004.7845905,E,5,12,0.86,27.458,M,39.392,M,5.7,0000*57
$GNGGA,123002.80,3605.0748707,N,14004.7845767,E,5,12,0.86,27.463,M,39.392,M,5.8,0000*56
$GNGGA,123002.90,3605.0749313,N,14004.7845633,E,5,12,0.86,27.444,M,39.392,M,5.9,0000*53
$GNGGA,123003.00,3605.0750006,N,14004.7845552,E,5,12,0.86,27.447,M,39.392,M,6.0,0000*59
$GNGGA,123003.10,3605.0750669,N,14004.7845480,E,5,12,0.86,27.461,M,39.392,M,6.1,0000*5C
$GNGGA,123003.20,3605.0751269,N,14004.7845411,E,5,12,0.86,27.490,M,39.392,M,1.2,0000*58
$GNGGA,123003.30,3605.0751865,N,14004.7845384,E,5,12,0.86,27.502,M,39.392,M,1.3,0000*5F
$GNGGA,123003.40,3605.0752467,N,14004.7845447,E,5,12,0.86,27.481,M,39.392,M,1.4,0000*50
$GNGGA,123003.50,3605.0753210,N,14004.7845373,E,5,12,0.86,27.476,M,39.392,M,1.5,0000*5F
$GNGGA,123003.60,3605.0753933,N,14004.7845462,E,5,12,0.86,27.478,M,39.392,M,1.6,0000*5C
$GNGGA,123003.70,3605.0754595,N,14004.7845654,E,5,12,0.86,27.508,M,39.392,M,1.7,0000*5A
$GNGGA,123003.80,3605.0755182,N,14004.7845942,E,5,12,0.86,27.506,M,39.392,M,1.8,0000*5F
$GNGGA,123003.90,3605.0755767,N,14004.7846184,E,5,12,0.86,27.489,M,39.392,M,1.9,0000*55
$GNGGA,123004.00,3605.0756428,N,14004.7846502,E,5,12,0.86,27.482,M,39.392,M,2.0,0000*5B
$GNGGA,123004.10,3605.0757105,N,14004.7846929,E,5,12,0.86,27.495,M,39.392,M,2.1,0000*53
$GNGGA,123004.20,3605.0757674,N,14004.7847372,E,5,12,0.86,27.516,M,39.392,M,2.2,0000*5D
$GNGGA,123004.30,3605.0758168,N,14004.7847789,E,5,12,0.86,27.526,M,39.392,M,2.3,0000*5B
$GNGGA,123004.40,3605.0758737,N,14004.7848379,E,5,12,0.86,27.512,M,39.392,M,2.4,0000*54
$GNGGA,123004.50,3605.0759339,N,14004.7848856,E,5,12,0.86,27.487,M,39.392,M,2.5,0000*54
$GNGGA,123004.60,3605.0759961,N,14004.7849494,E,5,12,0.86,27.484,M,39.392,M,2.6,0000*53
$GNGGA,123004.70,3605.0760406,N,14004.7850281,E,5,12,0.86,27.513,M,39.392,M,2.7,0000*50
$GNGGA,123004.80,3605.0760780,N,14004.7850952,E,5,12,0.86,27.518,M,39.392,M,2.8,0000*53
$GNGGA,123004.90,3605.0761108,N,14004.7851642,E,5,12,0.86,27.485,M,39.392,M,2.9,0000*5E
$GNGGA,123005.00,3605.0761558,N,14004.7852410,E,5,12,0.86,27.492,M,39.392,M,3.0,0000*5F
$GNGGA,123005.10,3605.0761873,N,14004.7853225,E,5,12,0.86,27.495,M,39.392,M,3.1,0000*5D
$GNGGA,123005.20,3605.0762216,N,14004.7853950,E,5,12,0.86,27.519,M,39.392,M,3.2,0000*5B
$GNGGA,123005.30,3605.0762500,N,14004.7854717,E,5,12,0.86,27.514,M,39.392,M,3.3,0000*5C
$GNGGA,123005.40,3605.0762792,N,14004.7855473,E,5,12,0.86,27.486,M,39.392,M,3.4,0000*5F
$GNGGA,123005.50,3605.0763010,N,14004.7856347,E,5,12,0.86,27.475,M,39.392,M,3.5,0000*5C
$GNGGA,123005.60,3605.0763288,N,14004.7857286,E,5,12,0.86,27.499,M,39.392,M,3.6,0000*50
$GNGGA,123005.70,3605.0763464,N,14004.7858134,E,5,12,0.86,27.513,M,39.392,M,3.7,0000*52
$GNGGA,123005.80,3605.0763387,N,14004.7858978,E,5,12,0.86,27.500,M,39.392,M,3.8,0000*5A
$GNGGA,123005.90,3605.0763491,N,14004.7859908,E,5,12,0.86,27.483,M,39.392,M,3.9,0000*56
$GNGGA,123006.00,3605.0763569,N,14004.7860858,E,5,12,0.86,27.455,M,39.392,M,4.0,0000*51
$GNGGA,123006.10,3605.0763750,N,14004.7861891,E,5,12,0.86,27.460,M,39.392,M,4.1,0000*5B
$GNGGA,123006.20,3605.0763883,N,14004.7862842,E,5,12,0.86,27.490,M,39.392,M,4.2,0000*58
$GNGGA,123006.30,3605.0763880,N,14004.7863771,E,5,12,0.86,27.496,M,39.392,M,4.3,0000*53
$GNGGA,123006.40,3605.0763892,N,14004.7864716,E,5,12,0.86,27.471,M,39.392,M,4.4,0000*5F
$GNGGA,123006.50,3605.0763976,N,14004.7865806,E,5,12,0.86,27.447,M,39.392,M,4.5,0000*5E
$GNGGA,123006.60,3605.0763890,N,14004.7866790,E,5,12,0.86,27.464,M,39.392,M,4.6,0000*55
$GNGGA,123006.70,3605.0763832,N,14004.7867634,E,5,12,0.86,27.486,M,39.392,M,4.7,0000*5F
$GNGGA,123006.80,3605.0763717,N,14004.7868582,E,5,12,0.86,27.486,M,39.392,M,4.8,0000*56
$GNGGA,123006.90,3605.0763557,N,14004.7869506,E,5,12,0.86,27.465,M,39.392,M,4.9,0000*50
$GNGGA,123007.00,3605.0763458,N,14004.7870352,E,5,12,0.86,27.461,M,39.392,M,5.0,0000*55
$GNGGA,123007.10,3605.0763321,N,14004.7871196,E,5,12,0.86,27.483,M,39.392,M,5.1,0000*5B
$GNGGA,123007.20,3605.0763339,N,14004.7872084,E,5,12,0.86,27.498,M,39.392,M,5.2,0000*59
$GNGGA,123007.30,3605.0763239,N,14004.7872934,E,5,12,0.86,27.487,M,39.392,M,5.3,0000*54
$GNGGA,123007.40,3605.0763142,N,14004.7873772,E,5,12,0.86,27.467,M,39.392,M,5.4,0000*58
$GNGGA,123007.50,3605.0763169,N,14004.7874753,E,5,12,0.86,27.475,M,39.392,M,5.5,0000*56
$GNGGA,123007.60,3605.0763137,N,14004.7875671,E,5,12,0.86,27.496,M,39.392,M,5.6,0000*50
$GNGGA,123007.70,3605.0763077,N,14004.7876520,E,5,12,0.86,27.520,M,39.392,M,5.7,0000*5D
$GNGGA,123007.80,3605.0762967,N,14004.7877301,E,5,12,0.86,27.508,M,39.392,M,5.8,0000*5A
$GNGGA,123007.90,3605.0762923,N,14004.7878243,E,5,12,0.86,27.489,M,39.392,M,5.9,0000*5A
$GNGGA,123008.00,3605.0762875,N,14004.7879116,E,5,12,0.86,27.504,M,39.392,M,6.0,0000*52
$GNGGA,123008.10,3605.0762843,N,14004.7879943,E,5,12,0.86,27.531,M,39.392,M,6.1,0000*59
$GNGGA,123008.20,3605.0762861,N,14004.7880817,E,5,12,0.86,27.535,M,39.392,M,1.2,0000*5C
$GNGGA,123008.30,3605.0762841,N,14004.7881664,E,5,12,0.86,27.524,M,39.392,M,1.3,0000*55
$GNGGA,123008.40,3605.0762833,N,14004.7882529,E,5,12,0.86,27.510,M,39.392,M,1.4,0000*5E
$GNGGA,123008.50,3605.0762901,N,14004.7883478,E,5,12,0.86,27.509,M,39.392,M,1.5,0000*52
$GNGGA,123008.60,3605.0762881,N,14004.7884404,E,5,12,0.86,27.536,M,39.392,M,1.6,0000*5B
$GNGGA,123008.70,3605.0762826,N,14004.7885270,E,5,12,0.86,27.543,M,39.392,M,1.7,0000*50
$GNGGA,123008.80,3605.0762823,N,14004.7886116,E,5,12,0.86,27.539,M,39.392,M,1.8,0000*58
$GNGGA,123008.90,3605.0762745,N,14004.7887062,E,5,12,0.86,27.523,M,39.392,M,1.9,0000*5F
$GNGGA,123009.00,3605.0762695,N,14004.7887993,E,5,12,0.86,27.534,M,39.392,M,2.0,0000*50
$GNGGA,123009.10,3605.0762688,N,14004.7888864,E,5,12,0.86,27.554,M,39.392,M,2.1,0000*5C
$GNGGA,123009.20,3605.0762717,N,14004.7889750,E,5,12,0.86,27.555,M,39.392,M,2.2,0000*53
$GNGGA,123009.30,3605.0762671,N,14004.7890621,E,5,12,0.86,27.544,M,39.392,M,2.3,0000*5D
$GNGGA,123009.40,3605.0762680,N,14004.7891598,E,5,12,0.86,27.527,M,39.392,M,2.4,0000*56
$GNGGA,123009.50,3605.0762737,N,14004.7892569,E,5,12,0.86,27.532,M,39.392,M,2.5,0000*52
$GNGGA,123009.60,3605.0762651,N,14004.7893437,E,5,12,0.86,27.558,M,39.392,M,2.6,0000*54
$GNGGA,123009.70,3605.0762603,N,14004.7894309,E,5,12,0.86,27.559,M,39.392,M,2.7,0000*5F
$GNGGA,123009.80,3605.0762535,N,14004.7895229,E,5,12,0.86,27.535,M,39.392,M,2.8,0000*51
$GNGGA,123009.90,3605.0762461,N,14004.7896158,E,5,12,0.86,27.524,M,39.392,M,2.9,0000*57
$GNGGA,123010.00,3605.0762376,N,14004.7897042,E,5,12,0.86,27.545,M,39.392,M,3.0,0000*53
$GNGGA,123010.10,3605.0762398,N,14004.7897971,E,5,12,0.86,27.575,M,39.392,M,3.1,0000*59
$GNGGA,123010.20,3605.0762387,N,14004.7898829,E,5,12,0.86,27.565,M,39.392,M,3.2,0000*55
$GNGGA,123010.30,3605.0762319,N,14004.7899683,E,5,12,0.86,27.554,M,39.392,M,3.3,0000*5F
$GNGGA,123010.40,3605.0762321,N,14004.7900631,E,5,12,0.86,27.550,M,39.392,M,3.4,0000*58
$GNGGA,123010.50,3605.0762322,N,14004.7901567,E,5,12,0.86,27.564,M,39.392,M,3.5,0000*5D
$GNGGA,123010.60,3605.0762257,N,14004.7902447,E,5,12,0.86,27.578,M,39.392,M,3.6,0000*53
$GNGGA,123010.70,3605.0762161,N,14004.7903306,E,5,12,0.86,27.576,M,39.392,M,3.7,0000*58
$GNGGA,123010.80,3605.0762081,N,14004.7904152,E,5,12,0.86,27.562,M,39.392,M,3.8,0000*56
$GNGGA,123010.90,3605.0761967,N,14004.7905027,E,5,12,0.86,27.548,M,39.392,M,3.9,0000*5E
$GNGGA,123011.00,3605.0761921,N,14004.7905968,E,5,12,0.86,27.563,M,39.392,M,4.0,0000*51
$GNGGA,123011.10,3605.0761923,N,14004.7906706,E,5,12,0.86,27.580,M,39.392,M,4.1,0000*5B
$GNGGA,123011.20,3605.0761925,N,14004.7907577,E,5,12,0.86,27.578,M,39.392,M,4.2,0000*5F
$GNGGA,123011.30,3605.0761841,N,14004.7908354,E,5,12,0.86,27.561,M,39.392,M,4.3,0000*5C
$GNGGA,123011.40,3605.0761854,N,14004.7909203,E,5,12,0.86,27.561,M,39.392,M,4.4,0000*5A
$GNGGA,123011.50,3605.0761840,N,14004.7910120,E,5,12,0.86,27.583,M,39.392,M,4.5,0000*59
$GNGGA,123011.60,3605.0761761,N,14004.7910963,E,5,12,0.86,27.590,M,39.392,M,4.6,0000*58
$GNGGA,123011.70,3605.0761720,N,14004.7911735,E,5,12,0.86,27.586,M,39.392,M,4.7,0000*56
$GNGGA,123011.80,3605.0761637,N,14004.7912540,E,5,12,0.86,27.565,M,39.392,M,4.8,0000*5F
$GNGGA,123011.90,3605.0761553,N,14004.7913414,E,5,12,0.86,27.553,M,39.392,M,4.9,0000*5A
$GNGGA,123012.00,3605.0761533,N,14004.7914275,E,5,12,0.86,27.567,M,39.392,M,5.0,0000*5F
$GNGGA,123012.10,3605.0761549,N,14004.7915140,E,5,12,0.86,27.577,M,39.392,M,5.1,0000*57
$GNGGA,123012.20,3605.0761536,N,14004.7915922,E,5,12,0.86,27.582,M,39.392,M,5.2,0000*59
$GNGGA,123012.30,3605.0761454,N,14004.7916740,E,5,12,0.86,27.557,M,39.392,M,5.3,0000*5D
$GNGGA,123012.40,3605.0761452,N,14004.7917631,E,5,12,0.86,27.554,M,39.392,M,5.4,0000*5E
$GNGGA,123012.50,3605.0761453,N,14004.7918502,E,5,12,0.86,27.568,M,39.392,M,5.5,0000*5C
$GNGGA,123012.60,3605.0761358,N,14004.7919341,E,5,12,0.86,27.578,M,39.392,M,5.6,0000*51
$GNGGA,123012.70,3605.0761295,N,14004.7920083,E,5,12,0.86,27.568,M,39.392,M,5.7,0000*57
$GNGGA,123012.80,3605.0761222,N,14004.7920986,E,5,12,0.86,27.549,M,39.392,M,5.8,0000*54
$GNGGA,123012.90,3605.0761102,N,14004.7921797,E,5,12,0.86,27.551,M,39.392,M,5.9,0000*53
$GNGGA,123013.00,3605.0761009,N,14004.7922657,E,5,12,0.86,27.556,M,39.392,M,6.0,0000*52
$GNGGA,123013.10,3605.0761030,N,14004.7923553,E,5,12,0.86,27.565,M,39.392,M,6.1,0000*5E
$GNGGA,123013.20,3605.0760926,N,14004.7924379,E,5,12,0.86,27.560,M,39.392,M,6.2,0000*5D
$GNGGA,123013.30,3605.0760840,N,14004.7925281,E,5,12,0.86,27.526,M,39.392,M,6.3,0000*59
$GNGGA,123013.40,3605.0760767,N,14004.7926275,E,5,12,0.86,27.519,M,39.392,M,6.4,0000*57
$GNGGA,123013.50,3605.0760707,N,14004.7927141,E,5,12,0.86,27.536,M,39.392,M,6.5,0000*59
$GNGGA,123013.60,3605.0760578,N,14004.7928042,E,5,12,0.86,27.551,M,39.392,M,6.6,0000*5F
$GNGGA,123013.70,3605.0760495,N,14004.7928855,E,5,12,0.86,27.539,M,39.392,M,6.7,0000*5D
$GNGGA,123013.80,3605.0760439,N,14004.7929829,E,5,12,0.86,27.518,M,39.392,M,6.8,0000*52
$GNGGA,123013.90,3605.0760335,N,14004.7930635,E,5,12,0.86,27.506,M,39.392,M,6.9,0000*5D
$GNGGA,123014.00,3605.0760372,N,14004.7931529,E,5,12,0.86,27.517,M,39.392,M,7.0,0000*57
$GNGGA,123014.10,3605.0760321,N,14004.7932444,E,5,12,0.86,27.538,M,39.392,M,7.1,0000*55
$GNGGA,123014.20,3605.0760234,N,14004.7933180,E,5,12,0.86,27.509,M,39.392,M,2.2,0000*5B
$GNGGA,123014.30,3605.0760174,N,14004.7934127,E,5,12,0.86,27.503,M,39.392,M,2.3,0000*5C
$GNGGA,123014.40,3605.0760171,N,14004.7935086,E,5,12,0.86,27.497,M,39.392,M,2.4,0000*5E
$GNGGA,123014.50,3605.0760114,N,14004.7936035,E,5,12,0.86,27.511,M,39.392,M,2.5,0000*59
$GNGGA,123014.60,3605.0760060,N,14004.7936944,E,5,12,0.86,27.527,M,39.392,M,2.6,0000*51
$GNGGA,123014.70,3605.0759932,N,14004.7937824,E,5,12,0.86,27.520,M,39.392,M,2.7,0000*54
$GNGGA,123014.80,3605.0759831,N,14004.7938802,E,5,12,0.86,27.503,M,39.392,M,2.8,0000*5C
$GNGGA,123014.90,3605.0759803,N,14004.7939656,E,5,12,0.86,27.502,M,39.392,M,2.9,0000*52
$GNGGA,123015.00,3605.0759752,N,14004.7940569,E,5,12,0.86,27.516,M,39.392,M,3.0,0000*5D
$GNGGA,123015.10,3605.0759830,N,14004.7941406,E,5,12,0.86,27.524,M,39.392,M,3.1,0000*5E
$GNGGA,123015.20,3605.0759834,N,14004.7942238,E,5,12,0.86,27.501,M,39.392,M,3.2,0000*55
$GNGGA,123015.30,3605.0759799,N,14004.7943087,E,5,12,0.86,27.485,M,39.392,M,3.3,0000*57
$GNGGA,123015.40,3605.0759840,N,14004.7944050,E,5,12,0.86,27.494,M,39.392,M,3.4,0000*51
$GNGGA,123015.50,3605.0759855,N,14004.7944943,E,5,12,0.86,27.499,M,39.392,M,3.5,0000*53
$GNGGA,123015.60,3605.0759780,N,14004.7945738,E,5,12,0.86,27.507,M,39.392,M,3.6,0000*51
$GNGGA,123015.70,3605.0759695,N,14004.7946610,E,5,12,0.86,27.514,M,39.392,M,3.7,0000*5E
$GNGGA,123015.80,3605.0759637,N,14004.7947468,E,5,12,0.86,27.486,M,39.392,M,3.8,0000*50
$GNGGA,123015.90,3605.0759554,N,14004.7948301,E,5,12,0.86,27.468,M,39.392,M,3.9,0000*51
$GNGGA,123016.00,3605.0759556,N,14004.7949344,E,5,12,0.86,27.486,M,39.392,M,4.0,0000*57
$GNGGA,123016.10,3605.0759576,N,14004.7950103,E,5,12,0.86,27.489,M,39.392,M,4.1,0000*53
$GNGGA,123016.20,3605.0759417,N,14004.7950950,E,5,12,0.86,27.488,M,39.392,M,4.2,0000*5A
$GNGGA,123016.30,3605.0759370,N,14004.7951815,E,5,12,0.86,27.463,M,39.392,M,4.3,0000*58
$GNGGA,123016.40,3605.0759324,N,14004.7952741,E,5,12,0.86,27.453,M,39.392,M,4.4,0000*57
$GNGGA,123016.50,3605.0759297,N,14004.7953708,E,5,12,0.86,27.471,M,39.392,M,4.5,0000*52
$GNGGA,123016.70,3605.0759079,N,14004.7955084,E,5,12,0.86,27.447,M,39.392,M,4.7,0000*50
$GNGGA,123016.80,3605.0758948,N,14004.7956019,E,5,12,0.86,27.434,M,39.392,M,4.8,0000*59
$GNGGA,123016.90,3605.0758750,N,14004.7956804,E,5,12,0.86,27.434,M,39.392,M,4.9,0000*5A
$GNGGA,123017.00,3605.0758590,N,14004.7957766,E,5,12,0.86,27.470,M,39.392,M,5.0,0000*5E
$GNGGA,123017.10,3605.0758589,N,14004.7958576,E,5,12,0.86,27.483,M,39.392,M,5.1,0000*56
$GNGGA,123017.20,3605.0758534,N,14004.7959353,E,5,12,0.86,27.476,M,39.392,M,5.2,0000*5A
$GNGGA,123017.30,3605.0758381,N,14004.7960214,E,5,12,0.86,27.464,M,39.392,M,5.3,0000*59
$GNGGA,123017.40,3605.0758351,N,14004.7961217,E,5,12,0.86,27.463,M,39.392,M,5.4,0000*51
$GNGGA,123017.50,3605.0758240,N,14004.7962127,E,5,12,0.86,27.503,M,39.392,M,5.5,0000*54
$GNGGA,123017.60,3605.0758178,N,14004.7962826,E,5,12,0.86,27.514,M,39.392,M,5.6,0000*52
$GNGGA,123017.70,3605.0758185,N,14004.7963646,E,5,12,0.86,27.515,M,39.392,M,5.7,0000*58
$GNGGA,123017.80,3605.0758116,N,14004.7964466,E,5,12,0.86,27.511,M,39.392,M,5.8,0000*51
$GNGGA,123017.90,3605.0758058,N,14004.7965214,E,5,12,0.86,27.494,M,39.392,M,5.9,0000*54
$GNGGA,123018.00,3605.0757948,N,14004.7965996,E,5,12,0.86,27.507,M,39.392,M,6.0,0000*55
$GNGGA,123018.10,3605.0758026,N,14004.7966716,E,5,12,0.86,27.504,M,39.392,M,6.1,0000*5D
$GNGGA,123018.20,3605.0758020,N,14004.7967453,E,5,12,0.86,27.509,M,39.392,M,1.2,0000*52
$GNGGA,123018.30,3605.0757860,N,14004.7968154,E,5,12,0.86,27.506,M,39.392,M,1.3,0000*53
$GNGGA,123018.40,3605.0757840,N,14004.7968891,E,5,12,0.86,27.482,M,39.392,M,1.4,0000*5C
$GNGGA,123018.50,3605.0757772,N,14004.7969641,E,5,12,0.86,27.479,M,39.392,M,1.5,0000*54
$GNGGA,123018.60,3605.0757673,N,14004.7970303,E,5,12,0.86,27.486,M,39.392,M,1.6,0000*5F
$GNGGA,123018.80,3605.0757425,N,14004.7971530,E,5,12,0.86,27.494,M,39.392,M,1.8,0000*5A
$GNGGA,123019.00,3605.0757155,N,14004.7972614,E,5,12,0.86,27.489,M,39.392,M,2.0,0000*50
$GNGGA,123019.20,3605.0756903,N,14004.7973475,E,5,12,0.86,27.513,M,39.392,M,2.2,0000*5C
$GNGGA,123019.40,3605.0756776,N,14004.7974180,E,5,12,0.86,27.519,M,39.392,M,2.4,0000*52
$GNGGA,123019.60,3605.0756667,N,14004.7974893,E,5,12,0.86,27.519,M,39.392,M,2.6,0000*58
$GNGGA,123019.80,3605.0756639,N,14004.7975690,E,5,12,0.86,27.529,M,39.392,M,2.8,0000*5C
$GNGGA,123020.10,3605.0756636,N,14004.7976377,E,5,12,0.86,27.554,M,39.392,M,3.1,0000*5D
$GNGGA,123020.70,3605.0756344,N,14004.7977019,E,5,12,0.86,27.572,M,39.392,M,3.7,0000*53
$GNGGA,123021.40,3605.0756405,N,14004.7976058,E,5,12,0.86,27.544,M,39.392,M,4.4,0000*56
$GNGGA,123021.60,3605.0756007,N,14004.7975256,E,5,12,0.86,27.552,M,39.392,M,4.6,0000*58
$GNGGA,123021.80,3605.0755424,N,14004.7974092,E,5,12,0.86,27.556,M,39.392,M,4.8,0000*51
$GNGGA,123021.90,3605.0755045,N,14004.7973487,E,5,12,0.86,27.555,M,39.392,M,4.9,0000*56
$GNGGA,123022.00,3605.0754640,N,14004.7972928,E,5,12,0.86,27.548,M,39.392,M,5.0,0000*53
$GNGGA,123022.10,3605.0754137,N,14004.7972531,E,5,12,0.86,27.552,M,39.392,M,5.1,0000*5B
$GNGGA,123022.30,3605.0753206,N,14004.7971837,E,5,12,0.86,27.536,M,39.392,M,5.3,0000*57
$GNGGA,123022.50,3605.0752534,N,14004.7971346,E,5,12,0.86,27.541,M,39.392,M,5.5,0000*5D
$GNGGA,123022.70,3605.0752136,N,14004.7970479,E,5,12,0.86,27.553,M,39.392,M,5.7,0000*52
$GNGGA,123022.90,3605.0751853,N,14004.7969698,E,5,12,0.86,27.575,M,39.392,M,5.9,0000*5A
$GNGGA,123023.10,3605.0751486,N,14004.7968712,E,5,12,0.86,27.559,M,39.392,M,6.1,0000*50
$GNGGA,123023.20,3605.0751251,N,14004.7968067,E,5,12,0.86,27.564,M,39.392,M,1.2,0000*50
$GNGGA,123023.40,3605.0750808,N,14004.7966836,E,5,12,0.86,27.558,M,39.392,M,1.4,0000*5A
$GNGGA,123023.50,3605.0750653,N,14004.7966155,E,5,12,0.86,27.579,M,39.392,M,1.5,0000*55
$GNGGA,123023.70,3605.0750389,N,14004.7964957,E,5,12,0.86,27.565,M,39.392,M,1.7,0000*52
$GNGGA,123023.80,3605.0750233,N,14004.7964209,E,5,12,0.86,27.552,M,39.392,M,1.8,0000*56
$GNGGA,123023.90,3605.0750206,N,14004.7963535,E,5,12,0.86,27.542,M,39.392,M,1.9,0000*5E
$GNGGA,123024.00,3605.0750092,N,14004.7962863,E,5,12,0.86,27.560,M,39.392,M,2.0,0000*5A
$GNGGA,123024.20,3605.0750010,N,14004.7961746,E,5,12,0.86,27.564,M,39.392,M,2.2,0000*5F
$GNGGA,123024.30,3605.0750019,N,14004.7961038,E,5,12,0.86,27.550,M,39.392,M,2.3,0000*5F
$GNGGA,123024.40,3605.0750018,N,14004.7960345,E,5,12,0.86,27.533,M,39.392,M,2.4,0000*53
$GNGGA,123024.60,3605.0750254,N,14004.7959198,E,5,12,0.86,27.531,M,39.392,M,2.6,0000*53
$GNGGA,123024.80,3605.0750434,N,14004.7958159,E,5,12,0.86,27.516,M,39.392,M,2.8,0000*5A
$GNGGA,123025.00,3605.0750731,N,14004.7957158,E,5,12,0.86,27.514,M,39.392,M,3.0,0000*50
$GNGGA,123025.20,3605.0750965,N,14004.7956245,E,5,12,0.86,27.511,M,39.392,M,3.2,0000*54
$GNGGA,123025.40,3605.0751186,N,14004.7955384,E,5,12,0.86,27.518,M,39.392,M,3.4,0000*56
$GNGGA,123025.60,3605.0751376,N,14004.7954480,E,5,12,0.86,27.519,M,39.392,M,3.6,0000*58
$GNGGA,123025.80,3605.0751600,N,14004.7953753,E,5,12,0.86,27.536,M,39.392,M,3.8,0000*5B
$GNGGA,123026.10,3605.0751999,N,14004.7952972,E,5,12,0.86,27.517,M,39.392,M,4.1,0000*5F
$GNGGA,123026.40,3605.0752540,N,14004.7952511,E,5,12,0.86,27.517,M,39.392,M,4.4,0000*5D
$GNGGA,123026.80,3605.0753077,N,14004.7952019,E,5,12,0.86,27.522,M,39.392,M,4.8,0000*56
$GNGGA,123027.20,3605.0753693,N,14004.7951689,E,5,12,0.86,27.516,M,39.392,M,5.2,0000*51
$GNGGA,123027.50,3605.0754248,N,14004.7951996,E,5,12,0.86,27.500,M,39.392,M,5.5,0000*52
$GNGGA,123027.80,3605.0754930,N,14004.7952468,E,5,12,0.86,27.454,M,39.392,M,5.8,0000*59
$GNGGA,123028.00,3605.0755643,N,14004.7952883,E,5,12,0.86,27.478,M,39.392,M,6.0,0000*58
$GNGGA,123028.20,3605.0756229,N,14004.7952953,E,5,12,0.86,27.524,M,39.392,M,1.2,0000*50
$GNGGA,123028.40,3605.0757018,N,14004.7952707,E,5,12,0.86,27.515,M,39.392,M,1.4,0000*5C
$GNGGA,123028.60,3605.0757908,N,14004.7952624,E,5,12,0.86,27.506,M,39.392,M,1.6,0000*56
$GNGGA,123028.70,3605.0758437,N,14004.7952451,E,5,12,0.86,27.455,M,39.392,M,1.7,0000*5F
$GNGGA,123028.90,3605.0759271,N,14004.7952090,E,5,12,0.86,27.463,M,39.392,M,1.9,0000*56
$GNGGA,123029.10,3605.0760160,N,14004.7951995,E,5,12,0.86,27.467,M,39.392,M,2.1,0000*56
$GNGGA,123029.30,3605.0761017,N,14004.7952153,E,5,12,0.86,27.449,M,39.392,M,2.3,0000*5B
$GNGGA,123029.50,3605.0761917,N,14004.7952659,E,5,12,0.86,27.431,M,39.392,M,2.5,0000*50
$GNGGA,123029.70,3605.0762959,N,14004.7953079,E,5,12,0.86,27.424,M,39.392,M,2.7,0000*58
$GNGGA,123029.80,3605.0763453,N,14004.7953370,E,5,12,0.86,27.409,M,39.392,M,2.8,0000*5B
$GNGGA,123029.90,3605.0764005,N,14004.7953573,E,5,12,0.86,27.380,M,39.392,M,2.9,0000*58
$GNGGA,123030.00,3605.0764662,N,14004.7953767,E,5,12,0.86,27.375,M,39.392,M,3.0,0000*5B
$GNGGA,123030.10,3605.0765247,N,14004.7954036,E,5,12,0.86,27.384,M,39.392,M,3.1,0000*53
$GNGGA,123030.20,3605.0765860,N,14004.7954367,E,5,12,0.86,27.388,M,39.392,M,3.2,0000*57
$GNGGA,123030.30,3605.0766413,N,14004.7954766,E,5,12,0.86,27.373,M,39.392,M,3.3,0000*5D
$GNGGA,123030.40,3605.0766961,N,14004.7955127,E,5,12,0.86,27.363,M,39.392,M,3.4,0000*56
$GNGGA,123030.50,3605.0767509,N,14004.7955581,E,5,12,0.86,27.355,M,39.392,M,3.5,0000*58
$GNGGA,123030.60,3605.0768064,N,14004.7956007,E,5,12,0.86,27.366,M,39.392,M,3.6,0000*51
$GNGGA,123030.70,3605.0768635,N,14004.7956350,E,5,12,0.86,27.372,M,39.392,M,3.7,0000*57
$GNGGA,123030.80,3605.0769100,N,14004.7956794,E,5,12,0.86,27.370,M,39.392,M,3.8,0000*59
$GNGGA,123030.90,3605.0769644,N,14004.7957121,E,5,12,0.86,27.367,M,39.392,M,3.9,0000*51
$GNGGA,123031.00,3605.0770273,N,14004.7957375,E,5,12,0.86,27.360,M,39.392,M,4.0,0000*5B
$GNGGA,123031.10,3605.0770886,N,14004.7957790,E,5,12,0.86,27.357,M,39.392,M,4.1,0000*50
$GNGGA,123031.20,3605.0771531,N,14004.7957995,E,5,12,0.86,27.359,M,39.392,M,4.2,0000*55
$GNGGA,123031.30,3605.0772059,N,14004.7958452,E,5,12,0.86,27.363,M,39.392,M,4.3,0000*5D
$GNGGA,123031.40,3605.0772576,N,14004.7958805,E,5,12,0.86,27.382,M,39.392,M,4.4,0000*54
$GNGGA,123031.50,3605.0773095,N,14004.7959151,E,5,12,0.86,27.376,M,39.392,M,4.5,0000*5F
$GNGGA,123031.60,3605.0773609,N,14004.7959525,E,5,12,0.86,27.375,M,39.392,M,4.6,0000*58
$GNGGA,123031.70,3605.0774146,N,14004.7959955,E,5,12,0.86,27.389,M,39.392,M,4.7,0000*5B
$GNGGA,123031.90,3605.0775141,N,14004.7960653,E,5,12,0.86,27.410,M,39.392,M,4.9,0000*59
$GNGGA,123032.00,3605.0775631,N,14004.7960962,E,5,12,0.86,27.406,M,39.392,M,5.0,0000*51
$GNGGA,123032.10,3605.0776211,N,14004.7961333,E,5,12,0.86,27.399,M,39.392,M,5.1,0000*5A
$GNGGA,123032.20,3605.0776833,N,14004.7961616,E,5,12,0.86,27.396,M,39.392,M,5.2,0000*5D
$GNGGA,123032.30,3605.0777403,N,14004.7961957,E,5,12,0.86,27.403,M,39.392,M,5.3,0000*52
$GNGGA,123032.40,3605.0777989,N,14004.7962313,E,5,12,0.86,27.414,M,39.392,M,5.4,0000*52
$GNGGA,123032.50,3605.0778462,N,14004.7962707,E,5,12,0.86,27.425,M,39.392,M,5.5,0000*56
$GNGGA,123032.60,3605.0779002,N,14004.7963087,E,5,12,0.86,27.421,M,39.392,M,5.6,0000*5F
$GNGGA,123032.70,3605.0779528,N,14004.7963544,E,5,12,0.86,27.410,M,39.392,M,5.7,0000*5A
$GNGGA,123032.80,3605.0780001,N,14004.7963951,E,5,12,0.86,27.420,M,39.392,M,5.8,0000*59
$GNGGA,123032.90,3605.0780515,N,14004.7964374,E,5,12,0.86,27.430,M,39.392,M,5.9,0000*52
$GNGGA,123033.10,3605.0781428,N,14004.7965074,E,5,12,0.86,27.438,M,39.392,M,6.1,0000*54
$GNGGA,123033.20,3605.0781984,N,14004.7965418,E,5,12,0.86,27.427,M,39.392,M,1.2,0000*58
$GNGGA,123033.30,3605.0782536,N,14004.7965799,E,5,12,0.86,27.420,M,39.392,M,1.3,0000*53
$GNGGA,123033.40,3605.0783153,N,14004.7966129,E,5,12,0.86,27.424,M,39.392,M,1.4,0000*5F
$GNGGA,123033.50,3605.0783666,N,14004.7966570,E,5,12,0.86,27.446,M,39.392,M,1.5,0000*52
$GNGGA,123033.60,3605.0784074,N,14004.7967065,E,5,12,0.86,27.449,M,39.392,M,1.6,0000*5F
$GNGGA,123033.70,3605.0784552,N,14004.7967549,E,5,12,0.86,27.445,M,39.392,M,1.7,0000*59
$GNGGA,123033.80,3605.0784970,N,14004.7968121,E,5,12,0.86,27.434,M,39.392,M,1.8,0000*56
$GNGGA,123033.90,3605.0785383,N,14004.7968700,E,5,12,0.86,27.439,M,39.392,M,1.9,0000*59
$GNGGA,123034.00,3605.0785838,N,14004.7969277,E,5,12,0.86,27.460,M,39.392,M,2.0,0000*5E
$GNGGA,123034.10,3605.0786202,N,14004.7969888,E,5,12,0.86,27.467,M,39.392,M,2.1,0000*53
$GNGGA,123034.20,3605.0786544,N,14004.7970509,E,5,12,0.86,27.466,M,39.392,M,2.2,0000*5B
$GNGGA,123034.30,3605.0786938,N,14004.7971187,E,5,12,0.86,27.454,M,39.392,M,2.3,0000*5E
$GNGGA,123034.40,3605.0787298,N,14004.7971927,E,5,12,0.86,27.445,M,39.392,M,2.4,0000*5C
$GNGGA,123034.50,3605.0787614,N,14004.7972814,E,5,12,0.86,27.459,M,39.392,M,2.5,0000*53
$GNGGA,123034.60,3605.0787724,N,14004.7973669,E,5,12,0.86,27.484,M,39.392,M,2.6,0000*54
$GNGGA,123034.70,3605.0787795,N,14004.7974516,E,5,12,0.86,27.496,M,39.392,M,2.7,0000*51
$GNGGA,123034.80,3605.0787787,N,14004.7975413,E,5,12,0.86,27.486,M,39.392,M,2.8,0000*56
$GNGGA,123034.90,3605.0787679,N,14004.7976231,E,5,12,0.86,27.488,M,39.392,M,2.9,0000*5D
$GNGGA,123035.00,3605.0787558,N,14004.7977022,E,5,12,0.86,27.507,M,39.392,M,3.0,0000*5A
$GNGGA,123035.10,3605.0787436,N,14004.7977776,E,5,12,0.86,27.530,M,39.392,M,3.1,0000*51
$GNGGA,123035.20,3605.0787284,N,14004.7978465,E,5,12,0.86,27.540,M,39.392,M,3.2,0000*57
$GNGGA,123035.30,3605.0787138,N,14004.7979180,E,5,12,0.86,27.548,M,39.392,M,3.3,0000*54
$GNGGA,123035.40,3605.0786960,N,14004.7979891,E,5,12,0.86,27.537,M,39.392,M,3.4,0000*51
$GNGGA,123035.50,3605.0786870,N,14004.7980612,E,5,12,0.86,27.543,M,39.392,M,3.5,0000*51
$GNGGA,123035.60,3605.0786732,N,14004.7981346,E,5,12,0.86,27.559,M,39.392,M,3.6,0000*56
$GNGGA,123035.70,3605.0786505,N,14004.7982055,E,5,12,0.86,27.571,M,39.392,M,3.7,0000*58
$GNGGA,123035.80,3605.0786280,N,14004.7982711,E,5,12,0.86,27.579,M,39.392,M,3.8,0000*5D
$GNGGA,123035.90,3605.0786041,N,14004.7983311,E,5,12,0.86,27.573,M,39.392,M,3.9,0000*5D
$GNGGA,123036.00,3605.0785800,N,14004.7983980,E,5,12,0.86,27.577,M,39.392,M,4.0,0000*51
$GNGGA,123036.10,3605.0785511,N,14004.7984693,E,5,12,0.86,27.576,M,39.392,M,4.1,0000*57
$GNGGA,123036.20,3605.0785261,N,14004.7985368,E,5,12,0.86,27.602,M,39.392,M,4.2,0000*57
$GNGGA,123036.40,3605.0784896,N,14004.7986499,E,5,12,0.86,27.594,M,39.392,M,4.4,0000*52
$GNGGA,123036.50,3605.0784665,N,14004.7987140,E,5,12,0.86,27.582,M,39.392,M,4.5,0000*57
$GNGGA,123036.60,3605.0784414,N,14004.7987780,E,5,12,0.86,27.577,M,39.392,M,4.6,0000*53
$GNGGA,123036.70,3605.0784225,N,14004.7988475,E,5,12,0.86,27.587,M,39.392,M,4.7,0000*5E
$GNGGA,123036.80,3605.0783913,N,14004.7989096,E,5,12,0.86,27.602,M,39.392,M,4.8,0000*51
$GNGGA,123037.00,3605.0783403,N,14004.7990267,E,5,12,0.86,27.597,M,39.392,M,5.0,0000*56
$GNGGA,123037.20,3605.0782751,N,14004.7991320,E,5,12,0.86,27.575,M,39.392,M,5.2,0000*5C
$GNGGA,123037.30,3605.0782385,N,14004.7991953,E,5,12,0.86,27.587,M,39.392,M,5.3,0000*52
$GNGGA,123037.50,3605.0781942,N,14004.7992877,E,5,12,0.86,27.606,M,39.392,M,5.5,0000*5E
$GNGGA,123037.70,3605.0781398,N,14004.7993868,E,5,12,0.86,27.592,M,39.392,M,5.7,0000*52
$GNGGA,123037.90,3605.0780950,N,14004.7994886,E,5,12,0.86,27.595,M,39.392,M,5.9,0000*5D
$GNGGA,123038.10,3605.0780391,N,14004.7995657,E,5,12,0.86,27.604,M,39.392,M,6.1,0000*5E
$GNGGA,123038.30,3605.0779764,N,14004.7996326,E,5,12,0.86,27.584,M,39.392,M,1.3,0000*5A
$GNGGA,123038.50,3605.0778984,N,14004.7997042,E,5,12,0.86,27.582,M,39.392,M,1.5,0000*5D
$GNGGA,123038.60,3605.0778508,N,14004.7997527,E,5,12,0.86,27.595,M,39.392,M,1.6,0000*55
$GNGGA,123038.80,3605.0777902,N,14004.7998274,E,5,12,0.86,27.599,M,39.392,M,1.8,0000*5E
$GNGGA,123039.00,3605.0777220,N,14004.7999168,E,5,12,0.86,27.595,M,39.392,M,2.0,0000*54
$GNGGA,123039.20,3605.0776488,N,14004.8000214,E,5,12,0.86,27.581,M,39.392,M,2.2,0000*5A
$GNGGA,123039.40,3605.0775828,N,14004.8001157,E,5,12,0.86,27.593,M,39.392,M,2.4,0000*59
$GNGGA,123039.60,3605.0775205,N,14004.8002039,E,5,12,0.86,27.588,M,39.392,M,2.6,0000*5C
$GNGGA,123039.70,3605.0774932,N,14004.8002750,E,5,12,0.86,27.579,M,39.392,M,2.7,0000*54
$GNGGA,123039.80,3605.0774611,N,14004.8003323,E,5,12,0.86,27.585,M,39.392,M,2.8,0000*58
$GNGGA,123040.00,3605.0774254,N,14004.8004419,E,5,12,0.86,27.587,M,39.392,M,3.0,0000*59
$GNGGA,123040.20,3605.0773953,N,14004.8005659,E,5,12,0.86,27.563,M,39.392,M,3.2,0000*5F
$GNGGA,123040.30,3605.0773868,N,14004.8006366,E,5,12,0.86,27.556,M,39.392,M,3.3,0000*5A
$GNGGA,123040.40,3605.0773783,N,14004.8007113,E,5,12,0.86,27.574,M,39.392,M,3.4,0000*51
$GNGGA,123040.50,3605.0773643,N,14004.8007767,E,5,12,0.86,27.578,M,39.392,M,3.5,0000*55
$GNGGA,123040.70,3605.0773574,N,14004.8009038,E,5,12,0.86,27.588,M,39.392,M,3.7,0000*5E
$GNGGA,123040.80,3605.0773479,N,14004.8009777,E,5,12,0.86,27.589,M,39.392,M,3.8,0000*5F
$GNGGA,123040.90,3605.0773423,N,14004.8010507,E,5,12,0.86,27.606,M,39.392,M,3.9,0000*59
$GNGGA,123041.00,3605.0773419,N,14004.8011256,E,5,12,0.86,27.622,M,39.392,M,4.0,0000*52
$GNGGA,123041.20,3605.0773537,N,14004.8012617,E,5,12,0.86,27.626,M,39.392,M,4.2,0000*59
$GNGGA,123041.40,3605.0773554,N,14004.8014097,E,5,12,0.86,27.600,M,39.392,M,4.4,0000*50
$GNGGA,123041.50,3605.0773633,N,14004.8014888,E,5,12,0.86,27.600,M,39.392,M,4.5,0000*54
$GNGGA,123041.60,3605.0773586,N,14004.8015671,E,5,12,0.86,27.625,M,39.392,M,4.6,0000*57
$GNGGA,123041.70,3605.0773527,N,14004.8016346,E,5,12,0.86,27.624,M,39.392,M,4.7,0000*5F
$GNGGA,123041.80,3605.0773474,N,14004.8017039,E,5,12,0.86,27.614,M,39.392,M,4.8,0000*51
$GNGGA,123041.90,3605.0773481,N,14004.8017862,E,5,12,0.86,27.607,M,39.392,M,4.9,0000*5F
$GNGGA,123042.00,3605.0773491,N,14004.8018748,E,5,12,0.86,27.627,M,39.392,M,5.0,0000*56
$GNGGA,123042.10,3605.0773623,N,14004.8019519,E,5,12,0.86,27.648,M,39.392,M,5.1,0000*53
$GNGGA,123042.20,3605.0773785,N,14004.8020179,E,5,12,0.86,27.666,M,39.392,M,5.2,0000*5A
$GNGGA,123042.40,3605.0774108,N,14004.8021593,E,5,12,0.86,27.644,M,39.392,M,5.4,0000*5F
$GNGGA,123042.60,3605.0774454,N,14004.8022892,E,5,12,0.86,27.673,M,39.392,M,5.6,0000*58
$GNGGA,123042.70,3605.0774542,N,14004.8023554,E,5,12,0.86,27.668,M,39.392,M,5.7,0000*52
$GNGGA,123042.80,3605.0774603,N,14004.8024276,E,5,12,0.86,27.672,M,39.392,M,5.8,0000*5F
$GNGGA,123043.00,3605.0774579,N,14004.8025716,E,5,12,0.86,27.679,M,39.392,M,6.0,0000*5A
$GNGGA,123043.20,3605.0774664,N,14004.8027120,E,5,12,0.86,27.694,M,39.392,M,6.2,0000*57
$GNGGA,123043.40,3605.0774890,N,14004.8028383,E,5,12,0.86,27.693,M,39.392,M,6.4,0000*51
$GNGGA,123043.60,3605.0775178,N,14004.8029737,E,5,12,0.86,27.674,M,39.392,M,6.6,0000*5C
$GNGGA,123043.70,3605.0775349,N,14004.8030463,E,5,12,0.86,27.678,M,39.392,M,6.7,0000*5A
$GNGGA,123043.90,3605.0775596,N,14004.8031732,E,5,12,0.86,27.713,M,39.392,M,6.9,0000*54
$GNGGA,123044.10,3605.0775842,N,14004.8032963,E,5,12,0.86,27.699,M,39.392,M,7.1,0000*5C
$GNGGA,123044.20,3605.0775912,N,14004.8033698,E,5,12,0.86,27.705,M,39.392,M,2.2,0000*53
$GNGGA,123044.30,3605.0776108,N,14004.8034355,E,5,12,0.86,27.727,M,39.392,M,2.3,0000*50
$GNGGA,123044.40,3605.0776318,N,14004.8034997,E,5,12,0.86,27.737,M,39.392,M,2.4,0000*56
$GNGGA,123044.60,3605.0776901,N,14004.8036207,E,5,12,0.86,27.710,M,39.392,M,2.6,0000*51
$GNGGA,123044.70,3605.0777170,N,14004.8036851,E,5,12,0.86,27.707,M,39.392,M,2.7,0000*51
$GNGGA,123044.80,3605.0777408,N,14004.8037517,E,5,12,0.86,27.729,M,39.392,M,2.8,0000*59
$GNGGA,123044.90,3605.0777585,N,14004.8038352,E,5,12,0.86,27.755,M,39.392,M,2.9,0000*5E
$GNGGA,123045.10,3605.0777896,N,14004.8039629,E,5,12,0.86,27.783,M,39.392,M,3.1,0000*52
$GNGGA,123045.20,3605.0778152,N,14004.8040297,E,5,12,0.86,27.768,M,39.392,M,3.2,0000*56
$GNGGA,123045.30,3605.0778380,N,14004.8040972,E,5,12,0.86,27.774,M,39.392,M,3.3,0000*56
$GNGGA,123045.40,3605.0778664,N,14004.8041691,E,5,12,0.86,27.802,M,39.392,M,3.4,0000*54
$GNGGA,123045.50,3605.0778936,N,14004.8042328,E,5,12,0.86,27.807,M,39.392,M,3.5,0000*5D
$GNGGA,123045.60,3605.0779262,N,14004.8042977,E,5,12,0.86,27.810,M,39.392,M,3.6,0000*50
$GNGGA,123045.70,3605.0779627,N,14004.8043504,E,5,12,0.86,27.809,M,39.392,M,3.7,0000*54
$GNGGA,123045.90,3605.0780305,N,14004.8044734,E,5,12,0.86,27.790,M,39.392,M,3.9,0000*5E
$GNGGA,123046.00,3605.0780652,N,14004.8045359,E,5,12,0.86,27.806,M,39.392,M,4.0,0000*53
$GNGGA,123046.20,3605.0781273,N,14004.8046403,E,5,12,0.86,27.809,M,39.392,M,4.2,0000*51
$GNGGA,123046.30,3605.0781598,N,14004.8047038,E,5,12,0.86,27.813,M,39.392,M,4.3,0000*55
$GNGGA,123046.40,3605.0781990,N,14004.8047590,E,5,12,0.86,27.808,M,39.392,M,4.4,0000*5C
$GNGGA,123046.50,3605.0782321,N,14004.8048287,E,5,12,0.86,27.822,M,39.392,M,4.5,0000*59
$GNGGA,123046.60,3605.0782657,N,14004.8048914,E,5,12,0.86,27.849,M,39.392,M,4.6,0000*51
$GNGGA,123046.80,3605.0783362,N,14004.8049996,E,5,12,0.86,27.850,M,39.392,M,4.8,0000*50
$GNGGA,123046.90,3605.0783700,N,14004.8050579,E,5,12,0.86,27.826,M,39.392,M,4.9,0000*54
$GNGGA,123047.00,3605.0784079,N,14004.8051080,E,5,12,0.86,27.810,M,39.392,M,5.0,0000*5D
$GNGGA,123047.10,3605.0784427,N,14004.8051619,E,5,12,0.86,27.822,M,39.392,M,5.1,0000*55
$GNGGA,123047.20,3605.0784724,N,14004.8052211,E,5,12,0.86,27.825,M,39.392,M,5.2,0000*5D
$GNGGA,123047.40,3605.0785194,N,14004.8053138,E,5,12,0.86,27.808,M,39.392,M,5.4,0000*57
$GNGGA,123047.50,3605.0785550,N,14004.8053894,E,5,12,0.86,27.797,M,39.392,M,5.5,0000*5D
$GNGGA,123047.70,3605.0786113,N,14004.8055083,E,5,12,0.86,27.834,M,39.392,M,5.7,0000*53
$GNGGA,123047.90,3605.0786626,N,14004.8056080,E,5,12,0.86,27.827,M,39.392,M,5.9,0000*50
$GNGGA,123048.10,3605.0787229,N,14004.8057061,E,5,12,0.86,27.821,M,39.392,M,6.1,0000*5E
$GNGGA,123048.20,3605.0787651,N,14004.8057540,E,5,12,0.86,27.829,M,39.392,M,1.2,0000*5C
$GNGGA,123048.30,3605.0788052,N,14004.8057987,E,5,12,0.86,27.862,M,39.392,M,1.3,0000*5E
$GNGGA,123048.50,3605.0788656,N,14004.8058833,E,5,12,0.86,27.884,M,39.392,M,1.5,0000*55
$GNGGA,123048.70,3605.0789374,N,14004.8059694,E,5,12,0.86,27.859,M,39.392,M,1.7,0000*53
$GNGGA,123048.80,3605.0789784,N,14004.8060259,E,5,12,0.86,27.865,M,39.392,M,1.8,0000*58
$GNGGA,123049.00,3605.0790371,N,14004.8061166,E,5,12,0.86,27.886,M,39.392,M,2.0,0000*5F
$GNGGA,123049.20,3605.0790943,N,14004.8061966,E,5,12,0.86,27.892,M,39.392,M,2.2,0000*59
$GNGGA,123049.40,3605.0791521,N,14004.8062784,E,5,12,0.86,27.864,M,39.392,M,2.4,0000*58
$GNGGA,123049.60,3605.0792069,N,14004.8063612,E,5,12,0.86,27.875,M,39.392,M,2.6,0000*5D
$GNGGA,123049.80,3605.0792465,N,14004.8064246,E,5,12,0.86,27.869,M,39.392,M,2.8,0000*5A
$GNGGA,123050.00,3605.0792762,N,14004.8064942,E,5,12,0.86,27.872,M,39.392,M,3.0,0000*52
$GNGGA,123050.20,3605.0792966,N,14004.8065642,E,5,12,0.86,27.872,M,39.392,M,3.2,0000*56
$GNGGA,123050.50,3605.0793345,N,14004.8066289,E,5,12,0.86,27.890,M,39.392,M,3.5,0000*50
$GNGGA,123051.50,3605.0793725,N,14004.8066765,E,5,12,0.86,27.906,M,39.392,M,4.5,0000*5D
$GNGGA,123052.90,3605.0794279,N,14004.8066714,E,5,12,0.86,27.892,M,39.392,M,5.9,0000*5E
$GNGGA,123053.60,3605.0793962,N,14004.8067256,E,5,12,0.86,27.879,M,39.392,M,1.6,0000*5A
$GNGGA,123053.90,3605.0794113,N,14004.8068165,E,5,12,0.86,27.861,M,39.392,M,1.9,0000*56
$GNGGA,123054.10,3605.0794231,N,14004.8068930,E,5,12,0.86,27.873,M,39.392,M,2.1,0000*5A
$GNGGA,123054.40,3605.0794304,N,14004.8069895,E,5,12,0.86,27.872,M,39.392,M,2.4,0000*53
$GNGGA,123054.60,3605.0794276,N,14004.8070787,E,5,12,0.86,27.869,M,39.392,M,2.6,0000*59
$GNGGA,123054.80,3605.0794150,N,14004.8071724,E,5,12,0.86,27.876,M,39.392,M,2.8,0000*58
$GNGGA,123055.00,3605.0794268,N,14004.8072515,E,5,12,0.86,27.919,M,39.392,M,3.0,0000*5B
$GNGGA,123055.30,3605.0794318,N,14004.8073311,E,5,12,0.86,27.921,M,39.392,M,3.3,0000*55
$GNGGA,123055.60,3605.0794471,N,14004.8073999,E,5,12,0.86,27.918,M,39.392,M,3.6,0000*5D
$GNGGA,123055.90,3605.0794728,N,14004.8074912,E,5,12,0.86,27.905,M,39.392,M,3.9,0000*5A
$GNGGA,123056.10,3605.0794639,N,14004.8075642,E,5,12,0.86,27.906,M,39.392,M,4.1,0000*57
$GNGGA,123056.30,3605.0794499,N,14004.8076644,E,5,12,0.86,27.900,M,39.392,M,4.3,0000*5C
$GNGGA,123056.50,3605.0794398,N,14004.8077571,E,5,12,0.86,27.937,M,39.392,M,4.5,0000*5A
$GNGGA,123056.80,3605.0794627,N,14004.8078388,E,5,12,0.86,27.955,M,39.392,M,4.8,0000*50
$GNGGA,123057.10,3605.0795127,N,14004.8079042,E,5,12,0.86,27.937,M,39.392,M,5.1,0000*56
$GNGGA,123057.30,3605.0795644,N,14004.8079550,E,5,12,0.86,27.920,M,39.392,M,5.3,0000*54
$GNGGA,123057.50,3605.0796419,N,14004.8080059,E,5,12,0.86,27.917,M,39.392,M,5.5,0000*53
$GNGGA,123057.70,3605.0797144,N,14004.8080574,E,5,12,0.86,27.905,M,39.392,M,5.7,0000*56
$GNGGA,123057.90,3605.0798072,N,14004.8081082,E,5,12,0.86,27.891,M,39.392,M,5.9,0000*5C
$GNGGA,123058.10,3605.0799069,N,14004.8081587,E,5,12,0.86,27.917,M,39.392,M,6.1,0000*54
$GNGGA,123058.30,3605.0799970,N,14004.8081945,E,5,12,0.86,27.905,M,39.392,M,1.3,0000*53
$GNGGA,123058.40,3605.0800602,N,14004.8082171,E,5,12,0.86,27.896,M,39.392,M,1.4,0000*51
$GNGGA,123058.50,3605.0801223,N,14004.8082382,E,5,12,0.86,27.890,M,39.392,M,1.5,0000*5F
$GNGGA,123058.60,3605.0801860,N,14004.8082676,E,5,12,0.86,27.899,M,39.392,M,1.6,0000*55
$GNGGA,123058.70,3605.0802431,N,14004.8082967,E,5,12,0.86,27.926,M,39.392,M,1.7,0000*54
$GNGGA,123058.80,3605.0803013,N,14004.8083237,E,5,12,0.86,27.929,M,39.392,M,1.8,0000*51
$GNGGA,123058.90,3605.0803588,N,14004.8083538,E,5,12,0.86,27.914,M,39.392,M,1.9,0000*50
$GNGGA,123059.00,3605.0804187,N,14004.8083884,E,5,12,0.86,27.913,M,39.392,M,2.0,0000*53
$GNGGA,123059.10,3605.0804708,N,14004.8084284,E,5,12,0.86,27.920,M,39.392,M,2.1,0000*5F
$GNGGA,123059.20,3605.0805295,N,14004.8084615,E,5,12,0.86,27.956,M,39.392,M,2.2,0000*52
$GNGGA,123059.30,3605.0805838,N,14004.8085003,E,5,12,0.86,27.951,M,39.392,M,2.3,0000*58
$GNGGA,123059.40,3605.0806388,N,14004.8085365,E,5,12,0.86,27.948,M,39.392,M,2.4,0000*50
$GNGGA,123059.50,3605.0806934,N,14004.8085784,E,5,12,0.86,27.917,M,39.392,M,2.5,0000*5C
$GNGGA,123059.60,3605.0807486,N,14004.8086220,E,5,12,0.86,27.889,M,39.392,M,2.6,0000*57
$GNGGA,123059.70,3605.0807987,N,14004.8086764,E,5,12,0.86,27.899,M,39.392,M,2.7,0000*5F
$GNGGA,123059.80,3605.0808366,N,14004.8087330,E,5,12,0.86,27.913,M,39.392,M,2.8,0000*52
$GNGGA,123059.90,3605.0808823,N,14004.8087890,E,5,12,0.86,27.911,M,39.392,M,2.9,0000*5B
$GNGGA,123100.00,3605.0809189,N,14004.8088461,E,5,12,0.86,27.881,M,39.392,M,3.0,0000*5A
$GNGGA,123100.10,3605.0809537,N,14004.8089097,E,5,12,0.86,27.886,M,39.392,M,3.1,0000*50
$GNGGA,123100.20,3605.0809852,N,14004.8089788,E,5,12,0.86,27.878,M,39.392,M,3.2,0000*56
$GNGGA,123100.30,3605.0810142,N,14004.8090411,E,5,12,0.86,27.883,M,39.392,M,3.3,0000*59
$GNGGA,123100.40,3605.0810396,N,14004.8091037,E,5,12,0.86,27.889,M,39.392,M,3.4,0000*59
$GNGGA,123100.50,3605.0810685,N,14004.8091708,E,5,12,0.86,27.881,M,39.392,M,3.5,0000*5D
$GNGGA,123100.60,3605.0810943,N,14004.8092446,E,5,12,0.86,27.864,M,39.392,M,3.6,0000*59
$GNGGA,123100.70,3605.0811120,N,14004.8093156,E,5,12,0.86,27.846,M,39.392,M,3.7,0000*50
$GNGGA,123100.80,3605.0811214,N,14004.8093906,E,5,12,0.86,27.849,M,39.392,M,3.8,0000*56
$GNGGA,123100.90,3605.0811306,N,14004.8094614,E,5,12,0.86,27.863,M,39.392,M,3.9,0000*57
$GNGGA,123101.00,3605.0811401,N,14004.8095270,E,5,12,0.86,27.860,M,39.392,M,4.0,0000*55
$GNGGA,123101.10,3605.0811432,N,14004.8096028,E,5,12,0.86,27.847,M,39.392,M,4.1,0000*5C
$GNGGA,123101.30,3605.0811375,N,14004.8097408,E,5,12,0.86,27.840,M,39.392,M,4.3,0000*58
$GNGGA,123101.40,3605.0811408,N,14004.8098076,E,5,12,0.86,27.856,M,39.392,M,4.4,0000*50
$GNGGA,123101.60,3605.0811443,N,14004.8099318,E,5,12,0.86,27.855,M,39.391,M,4.6,0000*55
$GNGGA,123101.70,3605.0811424,N,14004.8100030,E,5,12,0.86,27.846,M,39.391,M,4.7,0000*5E
$GNGGA,123101.80,3605.0811502,N,14004.8100701,E,5,12,0.86,27.842,M,39.391,M,4.8,0000*5A
$GNGGA,123101.90,3605.0811469,N,14004.8101387,E,5,12,0.86,27.847,M,39.391,M,4.9,0000*58
$GNGGA,123102.10,3605.0811375,N,14004.8102605,E,5,12,0.86,27.873,M,39.391,M,5.1,0000*5B
$GNGGA,123102.30,3605.0811163,N,14004.8103881,E,5,12,0.86,27.859,M,39.391,M,5.3,0000*55
$GNGGA,123102.40,3605.0811033,N,14004.8104605,E,5,12,0.86,27.864,M,39.391,M,5.4,0000*5A
$GNGGA,123102.60,3605.0810901,N,14004.8105738,E,5,12,0.86,27.898,M,39.391,M,5.6,0000*5E
$GNGGA,123102.80,3605.0810796,N,14004.8106981,E,5,12,0.86,27.881,M,39.391,M,5.8,0000*59
$GNGGA,123103.00,3605.0810789,N,14004.8108300,E,5,12,0.86,27.874,M,39.391,M,6.0,0000*52
$GNGGA,123103.10,3605.0810733,N,14004.8109092,E,5,12,0.86,27.885,M,39.391,M,6.1,0000*54
$GNGGA,123103.30,3605.0810713,N,14004.8110364,E,5,12,0.86,27.883,M,39.391,M,1.3,0000*55
$GNGGA,123103.40,3605.0810635,N,14004.8111132,E,5,12,0.86,27.861,M,39.391,M,1.4,0000*5C
$GNGGA,123103.50,3605.0810608,N,14004.8111826,E,5,12,0.86,27.859,M,39.391,M,1.5,0000*55
$GNGGA,123103.60,3605.0810569,N,14004.8112576,E,5,12,0.86,27.872,M,39.391,M,1.6,0000*53
$GNGGA,123103.70,3605.0810484,N,14004.8113252,E,5,12,0.86,27.890,M,39.391,M,1.7,0000*5D
$GNGGA,123103.80,3605.0810470,N,14004.8113925,E,5,12,0.86,27.891,M,39.391,M,1.8,0000*5C
$GNGGA,123103.90,3605.0810524,N,14004.8114755,E,5,12,0.86,27.866,M,39.391,M,1.9,0000*5A
$GNGGA,123104.00,3605.0810473,N,14004.8115545,E,5,12,0.86,27.841,M,39.391,M,2.0,0000*5A
$GNGGA,123104.10,3605.0810464,N,14004.8116339,E,5,12,0.86,27.833,M,39.391,M,2.1,0000*57
$GNGGA,123104.20,3605.0810402,N,14004.8117142,E,5,12,0.86,27.861,M,39.391,M,2.2,0000*5F
$GNGGA,123104.30,3605.0810351,N,14004.8117827,E,5,12,0.86,27.868,M,39.391,M,2.3,0000*5D
$GNGGA,123104.40,3605.0810278,N,14004.8118595,E,5,12,0.86,27.864,M,39.391,M,2.4,0000*50
$GNGGA,123104.50,3605.0810222,N,14004.8119395,E,5,12,0.86,27.848,M,39.391,M,2.5,0000*56
$GNGGA,123104.60,3605.0810143,N,14004.8120195,E,5,12,0.86,27.843,M,39.391,M,2.6,0000*51
$GNGGA,123104.70,3605.0810109,N,14004.8120958,E,5,12,0.86,27.875,M,39.391,M,2.7,0000*53
$GNGGA,123104.80,3605.0810094,N,14004.8121660,E,5,12,0.86,27.891,M,39.391,M,2.8,0000*59
$GNGGA,123104.90,3605.0810114,N,14004.8122435,E,5,12,0.86,27.877,M,39.391,M,2.9,0000*59
$GNGGA,123105.00,3605.0810086,N,14004.8123167,E,5,12,0.86,27.862,M,39.391,M,3.0,0000*54
$GNGGA,123105.10,3605.0810062,N,14004.8123927,E,5,12,0.86,27.863,M,39.391,M,3.1,0000*53
$GNGGA,123105.20,3605.0810072,N,14004.8124674,E,5,12,0.86,27.865,M,39.391,M,3.2,0000*5A
$GNGGA,123105.30,3605.0810070,N,14004.8125397,E,5,12,0.86,27.881,M,39.391,M,3.3,0000*5B
$GNGGA,123105.50,3605.0809936,N,14004.8126644,E,5,12,0.86,27.879,M,39.391,M,3.5,0000*57
$GNGGA,123105.60,3605.0809885,N,14004.8127329,E,5,12,0.86,27.872,M,39.391,M,3.6,0000*5A
$GNGGA,123105.80,3605.0809751,N,14004.8128649,E,5,12,0.86,27.884,M,39.391,M,3.8,0000*59
$GNGGA,123106.00,3605.0809637,N,14004.8129748,E,5,12,0.86,27.887,M,39.391,M,4.0,0000*5E
$GNGGA,123106.10,3605.0809608,N,14004.8130436,E,5,12,0.86,27.883,M,39.391,M,4.1,0000*54
$GNGGA,123106.30,3605.0809489,N,14004.8131635,E,5,12,0.86,27.877,M,39.391,M,4.3,0000*54
$GNGGA,123106.50,3605.0809431,N,14004.8132871,E,5,12,0.86,27.890,M,39.391,M,4.5,0000*53
$GNGGA,123106.70,3605.0809316,N,14004.8133932,E,5,12,0.86,27.877,M,39.391,M,4.7,0000*5F
$GNGGA,123106.90,3605.0809120,N,14004.8135056,E,5,12,0.86,27.879,M,39.391,M,4.9,0000*5B
$GNGGA,123107.10,3605.0809001,N,14004.8136211,E,5,12,0.86,27.888,M,39.391,M,5.1,0000*55
$GNGGA,123107.30,3605.0808812,N,14004.8137434,E,5,12,0.86,27.857,M,39.391,M,5.3,0000*5C
$GNGGA,123107.40,3605.0808758,N,14004.8138119,E,5,12,0.86,27.841,M,39.391,M,5.4,0000*5F
$GNGGA,123107.60,3605.0808661,N,14004.8139562,E,5,12,0.86,27.845,M,39.391,M,5.6,0000*59
$GNGGA,123107.70,3605.0808613,N,14004.8140298,E,5,12,0.86,27.867,M,39.391,M,5.7,0000*50
$GNGGA,123107.80,3605.0808575,N,14004.8140991,E,5,12,0.86,27.865,M,39.391,M,5.8,0000*53
$GNGGA,123107.90,3605.0808488,N,14004.8141710,E,5,12,0.86,27.851,M,39.391,M,5.9,0000*51
$GNGGA,123108.00,3605.0808365,N,14004.8142468,E,5,12,0.86,27.852,M,39.391,M,6.0,0000*55
$GNGGA,123108.10,3605.0808260,N,14004.8143179,E,5,12,0.86,27.854,M,39.391,M,6.1,0000*53
$GNGGA,123108.20,3605.0808192,N,14004.8143959,E,5,12,0.86,27.877,M,39.391,M,1.2,0000*51
$GNGGA,123108.30,3605.0808131,N,14004.8144643,E,5,12,0.86,27.882,M,39.391,M,1.3,0000*51
$GNGGA,123108.40,3605.0808123,N,14004.8145322,E,5,12,0.86,27.867,M,39.391,M,1.4,0000*5A
$GNGGA,123108.50,3605.0808136,N,14004.8146094,E,5,12,0.86,27.856,M,39.391,M,1.5,0000*51
$GNGGA,123108.60,3605.0808107,N,14004.8146943,E,5,12,0.86,27.851,M,39.391,M,1.6,0000*57
$GNGGA,123108.70,3605.0808070,N,14004.8147726,E,5,12,0.86,27.870,M,39.391,M,1.7,0000*59
$GNGGA,123108.90,3605.0807978,N,14004.8149054,E,5,12,0.86,27.877,M,39.391,M,1.9,0000*5C
$GNGGA,123109.00,3605.0807901,N,14004.8149749,E,5,12,0.86,27.863,M,39.391,M,2.0,0000*5E
$GNGGA,123109.10,3605.0807841,N,14004.8150427,E,5,12,0.86,27.863,M,39.391,M,2.1,0000*58
$GNGGA,123109.20,3605.0807771,N,14004.8151136,E,5,12,0.86,27.883,M,39.391,M,2.2,0000*5E
$GNGGA,123109.40,3605.0807718,N,14004.8152487,E,5,12,0.86,27.886,M,39.391,M,2.4,0000*58
$GNGGA,123109.50,3605.0807688,N,14004.8153238,E,5,12,0.86,27.859,M,39.391,M,2.5,0000*51
$GNGGA,123109.60,3605.0807719,N,14004.8153997,E,5,12,0.86,27.850,M,39.391,M,2.6,0000*5F
$GNGGA,123109.70,3605.0807687,N,14004.8154788,E,5,12,0.86,27.851,M,39.391,M,2.7,0000*5F
$GNGGA,123109.80,3605.0807667,N,14004.8155621,E,5,12,0.86,27.871,M,39.391,M,2.8,0000*50
$GNGGA,123109.90,3605.0807577,N,14004.8156316,E,5,12,0.86,27.883,M,39.391,M,2.9,0000*5D
$GNGGA,123110.00,3605.0807497,N,14004.8157033,E,5,12,0.86,27.871,M,39.391,M,3.0,0000*53
$GNGGA,123110.10,3605.0807393,N,14004.8157830,E,5,12,0.86,27.854,M,39.391,M,3.1,0000*5C
$GNGGA,123110.20,3605.0807299,N,14004.8158575,E,5,12,0.86,27.862,M,39.391,M,3.2,0000*51
$GNGGA,123110.30,3605.0807174,N,14004.8159366,E,5,12,0.86,27.882,M,39.391,M,3.3,0000*5A
$GNGGA,123110.50,3605.0807116,N,14004.8160711,E,5,12,0.86,27.880,M,39.391,M,3.5,0000*52
$GNGGA,123110.60,3605.0807051,N,14004.8161476,E,5,12,0.86,27.869,M,39.391,M,3.6,0000*54
$GNGGA,123110.70,3605.0807024,N,14004.8162238,E,5,12,0.86,27.861,M,39.391,M,3.7,0000*51
$GNGGA,123110.80,3605.0807012,N,14004.8163059,E,5,12,0.86,27.869,M,39.391,M,3.8,0000*58
$GNGGA,123110.90,3605.0806958,N,14004.8163818,E,5,12,0.86,27.886,M,39.391,M,3.9,0000*52
$GNGGA,123111.00,3605.0806889,N,14004.8164544,E,5,12,0.86,27.889,M,39.391,M,4.0,0000*55
$GNGGA,123111.10,3605.0806781,N,14004.8165201,E,5,12,0.86,27.885,M,39.391,M,4.1,0000*59
$GNGGA,123111.20,3605.0806719,N,14004.8165950,E,5,12,0.86,27.874,M,39.391,M,4.2,0000*59
$GNGGA,123111.30,3605.0806616,N,14004.8166673,E,5,12,0.86,27.867,M,39.391,M,4.3,0000*58
$GNGGA,123111.40,3605.0806562,N,14004.8167385,E,5,12,0.86,27.884,M,39.391,M,4.4,0000*58
$GNGGA,123111.60,3605.0806475,N,14004.8168600,E,5,12,0.86,27.880,M,39.391,M,4.6,0000*5C
$GNGGA,123111.80,3605.0806496,N,14004.8169707,E,5,12,0.86,27.874,M,39.391,M,4.8,0000*5D
$GNGGA,123112.00,3605.0806544,N,14004.8170430,E,5,12,0.86,27.894,M,39.391,M,5.0,0000*50
$GNGGA,123112.30,3605.0806530,N,14004.8171235,E,5,12,0.86,27.893,M,39.391,M,5.3,0000*56
$GNGGA,123114.20,3605.0806359,N,14004.8171923,E,5,12,0.86,27.898,M,39.391,M,2.2,0000*59
$GNGGA,123115.00,3605.0806359,N,14004.8172628,E,5,12,0.86,27.879,M,39.391,M,3.0,0000*51
$GNGGA,123116.50,3605.0806058,N,14004.8173216,E,5,12,0.86,27.856,M,39.391,M,4.5,0000*52
$GNGGA,123116.90,3605.0805826,N,14004.8173877,E,5,12,0.86,27.850,M,39.391,M,4.9,0000*5B
$GNGGA,123117.70,3605.0805776,N,14004.8174546,E,5,12,0.86,27.847,M,39.391,M,5.7,0000*5F
$GNGGA,123122.30,3605.0805875,N,14004.8175380,E,5,12,0.89,27.796,M,39.391,M,5.3,0000*54
$GNGGA,123122.50,3605.0805878,N,14004.8176140,E,5,12,0.89,27.802,M,39.391,M,5.5,0000*56
$GNGGA,123122.70,3605.0805834,N,14004.8176884,E,5,12,0.89,27.802,M,39.391,M,5.7,0000*5F
$GNGGA,123122.90,3605.0805716,N,14004.8177723,E,5,12,0.89,27.800,M,39.391,M,5.9,0000*51
$GNGGA,123123.10,3605.0805564,N,14004.8178500,E,5,12,0.89,27.810,M,39.391,M,6.1,0000*59
$GNGGA,123123.30,3605.0805539,N,14004.8179217,E,5,12,0.89,27.812,M,39.391,M,1.3,0000*54
$GNGGA,123123.50,3605.0805565,N,14004.8180156,E,5,12,0.89,27.805,M,39.391,M,1.5,0000*5B
$GNGGA,123123.70,3605.0805572,N,14004.8181364,E,5,12,0.89,27.786,M,39.391,M,1.7,0000*5B
$GNGGA,123123.90,3605.0805580,N,14004.8182559,E,5,12,0.89,27.794,M,39.391,M,1.9,0000*5E
$GNGGA,123124.10,3605.0805513,N,14004.8183838,E,5,12,0.89,27.783,M,39.391,M,2.1,0000*5D
$GNGGA,123124.20,3605.0805467,N,14004.8184557,E,5,12,0.89,27.785,M,39.391,M,2.2,0000*5A
$GNGGA,123124.40,3605.0805355,N,14004.8185862,E,5,12,0.89,27.808,M,39.391,M,2.4,0000*5C
$GNGGA,123124.60,3605.0805257,N,14004.8187114,E,5,12,0.89,27.810,M,39.391,M,2.6,0000*5C
$GNGGA,123124.70,3605.0805229,N,14004.8187814,E,5,12,0.89,27.799,M,39.391,M,2.7,0000*52
$GNGGA,123124.80,3605.0805200,N,14004.8188523,E,5,12,0.89,27.802,M,39.391,M,2.8,0000*52
$GNGGA,123124.90,3605.0805175,N,14004.8189278,E,5,12,0.89,27.815,M,39.391,M,2.9,0000*5D
$GNGGA,123125.00,3605.0805099,N,14004.8190008,E,5,12,0.89,27.829,M,39.391,M,3.0,0000*5C
$GNGGA,123125.10,3605.0804997,N,14004.8190715,E,5,12,0.89,27.835,M,39.391,M,3.1,0000*5C
$GNGGA,123125.20,3605.0804891,N,14004.8191411,E,5,12,0.89,27.828,M,39.391,M,3.2,0000*51
$GNGGA,123125.30,3605.0804750,N,14004.8192087,E,5,12,0.89,27.829,M,39.391,M,3.3,0000*5A
$GNGGA,123125.40,3605.0804645,N,14004.8192780,E,5,12,0.89,27.842,M,39.391,M,3.4,0000*52
$GNGGA,123125.50,3605.0804533,N,14004.8193472,E,5,12,0.89,27.858,M,39.391,M,3.5,0000*54
$GNGGA,123125.60,3605.0804441,N,14004.8194136,E,5,12,0.89,27.867,M,39.391,M,3.6,0000*5E
$GNGGA,123125.70,3605.0804373,N,14004.8194857,E,5,12,0.89,27.857,M,39.391,M,3.7,0000*55
$GNGGA,123125.80,3605.0804290,N,14004.8195523,E,5,12,0.89,27.835,M,39.391,M,3.8,0000*52
$GNGGA,123125.90,3605.0804231,N,14004.8196299,E,5,12,0.89,27.839,M,39.391,M,3.9,0000*50
$GNGGA,123126.00,3605.0804158,N,14004.8197119,E,5,12,0.89,27.842,M,39.391,M,4.0,0000*5E
$GNGGA,123126.10,3605.0804061,N,14004.8197854,E,5,12,0.89,27.849,M,39.391,M,4.1,0000*5E
$GNGGA,123126.20,3605.0804017,N,14004.8198607,E,5,12,0.89,27.857,M,39.391,M,4.2,0000*57
$GNGGA,123126.30,3605.0803909,N,14004.8199353,E,5,12,0.89,27.848,M,39.391,M,4.3,0000*5D
$GNGGA,123126.40,3605.0803806,N,14004.8200132,E,5,12,0.89,27.850,M,39.391,M,4.4,0000*5C
$GNGGA,123126.50,3605.0803733,N,14004.8200870,E,5,12,0.89,27.863,M,39.391,M,4.5,0000*5A
$GNGGA,123126.60,3605.0803634,N,14004.8201640,E,5,12,0.89,27.882,M,39.391,M,4.6,0000*5F
$GNGGA,123126.70,3605.0803608,N,14004.8202341,E,5,12,0.89,27.884,M,39.391,M,4.7,0000*51
$GNGGA,123126.80,3605.0803568,N,14004.8203050,E,5,12,0.89,27.859,M,39.391,M,4.8,0000*56
$GNGGA,123126.90,3605.0803500,N,14004.8203839,E,5,12,0.89,27.854,M,39.391,M,4.9,0000*52
$GNGGA,123127.00,3605.0803480,N,14004.8204675,E,5,12,0.89,27.849,M,39.391,M,5.0,0000*56
$GNGGA,123127.10,3605.0803484,N,14004.8205474,E,5,12,0.89,27.871,M,39.391,M,5.1,0000*5B
$GNGGA,123127.20,3605.0803376,N,14004.8206369,E,5,12,0.89,27.884,M,39.391,M,5.2,0000*53
$GNGGA,123127.30,3605.0803328,N,14004.8207141,E,5,12,0.89,27.872,M,39.391,M,5.3,0000*58
$GNGGA,123127.40,3605.0803250,N,14004.8207949,E,5,12,0.89,27.862,M,39.391,M,5.4,0000*57
$GNGGA,123127.50,3605.0803177,N,14004.8208677,E,5,12,0.89,27.875,M,39.391,M,5.5,0000*5A
$GNGGA,123127.60,3605.0803158,N,14004.8209495,E,5,12,0.89,27.902,M,39.391,M,5.6,0000*59
$GNGGA,123127.70,3605.0803085,N,14004.8210228,E,5,12,0.89,27.911,M,39.391,M,5.7,0000*52
$GNGGA,123127.80,3605.0803145,N,14004.8210918,E,5,12,0.89,27.895,M,39.391,M,5.8,0000*5A
$GNGGA,123127.90,3605.0803121,N,14004.8211727,E,5,12,0.89,27.874,M,39.391,M,5.9,0000*54
$GNGGA,123128.00,3605.0803117,N,14004.8212576,E,5,12,0.89,27.871,M,39.391,M,6.0,0000*5D
$GNGGA,123128.10,3605.0803143,N,14004.8213426,E,5,12,0.89,27.887,M,39.391,M,6.1,0000*50
$GNGGA,123128.20,3605.0803088,N,14004.8214219,E,5,12,0.89,27.909,M,39.391,M,1.2,0000*5B
$GNGGA,123128.30,3605.0803035,N,14004.8214961,E,5,12,0.89,27.908,M,39.391,M,1.3,0000*58
$GNGGA,123128.40,3605.0802997,N,14004.8215772,E,5,12,0.89,27.901,M,39.391,M,1.4,0000*5C
$GNGGA,123128.50,3605.0802889,N,14004.8216552,E,5,12,0.89,27.904,M,39.391,M,1.5,0000*54
$GNGGA,123128.60,3605.0802835,N,14004.8217298,E,5,12,0.89,27.920,M,39.391,M,1.6,0000*55
$GNGGA,123128.70,3605.0802750,N,14004.8218023,E,5,12,0.89,27.939,M,39.391,M,1.7,0000*5C
$GNGGA,123128.80,3605.0802737,N,14004.8218823,E,5,12,0.89,27.926,M,39.391,M,1.8,0000*5B
$GNGGA,123128.90,3605.0802685,N,14004.8219600,E,5,12,0.89,27.903,M,39.391,M,1.9,0000*5A
$GNGGA,123129.00,3605.0802642,N,14004.8220448,E,5,12,0.89,27.898,M,39.391,M,2.0,0000*54
$GNGGA,123129.10,3605.0802635,N,14004.8221317,E,5,12,0.89,27.901,M,39.391,M,2.1,0000*59
$GNGGA,123129.20,3605.0802549,N,14004.8222137,E,5,12,0.89,27.925,M,39.391,M,2.2,0000*54
$GNGGA,123129.30,3605.0802491,N,14004.8222899,E,5,12,0.89,27.933,M,39.391,M,2.3,0000*5A
$GNGGA,123129.40,3605.0802399,N,14004.8223708,E,5,12,0.89,27.918,M,39.391,M,2.4,0000*5A
$GNGGA,123129.50,3605.0802281,N,14004.8224467,E,5,12,0.89,27.909,M,39.391,M,2.5,0000*5F
$GNGGA,123129.60,3605.0802203,N,14004.8225193,E,5,12,0.89,27.914,M,39.391,M,2.6,0000*56
$GNGGA,123129.70,3605.0802155,N,14004.8225946,E,5,12,0.89,27.939,M,39.391,M,2.7,0000*59
$GNGGA,123129.80,3605.0802103,N,14004.8226646,E,5,12,0.89,27.936,M,39.391,M,2.8,0000*59
$GNGGA,123129.90,3605.0802088,N,14004.8227404,E,5,12,0.89,27.911,M,39.391,M,2.9,0000*5B
$GNGGA,123130.00,3605.0802073,N,14004.8228295,E,5,12,0.89,27.885,M,39.391,M,3.0,0000*5B
$GNGGA,123130.10,3605.0802037,N,14004.8229108,E,5,12,0.89,27.885,M,39.391,M,3.1,0000*5D
$GNGGA,123130.20,3605.0801998,N,14004.8229942,E,5,12,0.89,27.898,M,39.391,M,3.2,0000*58
$GNGGA,123130.30,3605.0801949,N,14004.8230712,E,5,12,0.89,27.916,M,39.391,M,3.3,0000*50
$GNGGA,123130.40,3605.0801865,N,14004.8231483,E,5,12,0.89,27.897,M,39.391,M,3.4,0000*5D
$GNGGA,123130.50,3605.0801724,N,14004.8232279,E,5,12,0.89,27.884,M,39.391,M,3.5,0000*55
$GNGGA,123130.60,3605.0801665,N,14004.8233041,E,5,12,0.89,27.884,M,39.391,M,3.6,0000*59
$GNGGA,123130.70,3605.0801559,N,14004.8233761,E,5,12,0.89,27.901,M,39.391,M,3.7,0000*5C
$GNGGA,123130.80,3605.0801512,N,14004.8234466,E,5,12,0.89,27.908,M,39.391,M,3.8,0000*59
$GNGGA,123130.90,3605.0801489,N,14004.8235218,E,5,12,0.89,27.887,M,39.391,M,3.9,0000*52
$GNGGA,123131.00,3605.0801416,N,14004.8236038,E,5,12,0.89,27.866,M,39.391,M,4.0,0000*5E
$GNGGA,123131.10,3605.0801386,N,14004.8236852,E,5,12,0.89,27.866,M,39.391,M,4.1,0000*54
$GNGGA,123131.20,3605.0801373,N,14004.8237681,E,5,12,0.89,27.878,M,39.391,M,4.2,0000*50
$GNGGA,123131.30,3605.0801352,N,14004.8238470,E,5,12,0.89,27.893,M,39.391,M,4.3,0000*55
$GNGGA,123131.40,3605.0801287,N,14004.8239250,E,5,12,0.89,27.888,M,39.391,M,4.4,0000*53
$GNGGA,123131.50,3605.0801190,N,14004.8240049,E,5,12,0.89,27.881,M,39.391,M,4.5,0000*5B
$GNGGA,123131.60,3605.0801132,N,14004.8240783,E,5,12,0.89,27.891,M,39.391,M,4.6,0000*53
$GNGGA,123131.70,3605.0801094,N,14004.8241589,E,5,12,0.89,27.913,M,39.391,M,4.7,0000*5C
$GNGGA,123131.80,3605.0801021,N,14004.8242390,E,5,12,0.89,27.928,M,39.391,M,4.8,0000*57
$GNGGA,123131.90,3605.0801043,N,14004.8243096,E,5,12,0.89,27.927,M,39.391,M,4.9,0000*58
$GNGGA,123132.00,3605.0801014,N,14004.8243915,E,5,12,0.89,27.909,M,39.391,M,5.0,0000*56
$GNGGA,123132.10,3605.0800948,N,14004.8244755,E,5,12,0.89,27.896,M,39.391,M,5.1,0000*5D
$GNGGA,123132.20,3605.0800966,N,14004.8245667,E,5,12,0.89,27.900,M,39.391,M,5.2,0000*5E
$GNGGA,123132.30,3605.0800886,N,14004.8246474,E,5,12,0.89,27.917,M,39.391,M,5.3,0000*54
$GNGGA,123132.40,3605.0800832,N,14004.8247240,E,5,12,0.89,27.925,M,39.391,M,5.4,0000*5A
$GNGGA,123132.50,3605.0800704,N,14004.8248067,E,5,12,0.89,27.919,M,39.391,M,5.5,0000*57
$GNGGA,123132.60,3605.0800610,N,14004.8248898,E,5,12,0.89,27.908,M,39.391,M,5.6,0000*5B
$GNGGA,123132.70,3605.0800486,N,14004.8249670,E,5,12,0.89,27.914,M,39.391,M,5.7,0000*52
$GNGGA,123132.80,3605.0800398,N,14004.8250469,E,5,12,0.89,27.926,M,39.391,M,5.8,0000*59
$GNGGA,123132.90,3605.0800317,N,14004.8251255,E,5,12,0.89,27.930,M,39.391,M,5.9,0000*51
$GNGGA,123133.00,3605.0800255,N,14004.8251966,E,5,12,0.89,27.933,M,39.391,M,6.0,0000*5C
$GNGGA,123133.10,3605.0800198,N,14004.8252794,E,5,12,0.89,27.918,M,39.391,M,6.1,0000*57
$GNGGA,123133.20,3605.0800095,N,14004.8253662,E,5,12,0.89,27.905,M,39.391,M,1.2,0000*59
$GNGGA,123133.30,3605.0800000,N,14004.8254502,E,5,12,0.89,27.915,M,39.391,M,1.3,0000*56
$GNGGA,123133.40,3605.0799866,N,14004.8255275,E,5,12,0.89,27.922,M,39.391,M,1.4,0000*53
$GNGGA,123133.50,3605.0799735,N,14004.8256084,E,5,12,0.89,27.916,M,39.391,M,1.5,0000*52
$GNGGA,123133.60,3605.0799590,N,14004.8256943,E,5,12,0.89,27.906,M,39.391,M,1.6,0000*5C
$GNGGA,123133.70,3605.0799491,N,14004.8257778,E,5,12,0.89,27.909,M,39.391,M,1.7,0000*54
$GNGGA,123133.80,3605.0799385,N,14004.8258501,E,5,12,0.89,27.923,M,39.391,M,1.8,0000*5D
$GNGGA,123133.90,3605.0799298,N,14004.8259276,E,5,12,0.89,27.926,M,39.391,M,1.9,0000*53
$GNGGA,123134.00,3605.0799260,N,14004.8260049,E,5,12,0.89,27.915,M,39.391,M,2.0,0000*54
$GNGGA,123134.10,3605.0799212,N,14004.8260864,E,5,12,0.89,27.887,M,39.391,M,2.1,0000*5C
$GNGGA,123134.20,3605.0799192,N,14004.8261753,E,5,12,0.89,27.882,M,39.391,M,2.2,0000*58
$GNGGA,123134.30,3605.0799150,N,14004.8262634,E,5,12,0.89,27.906,M,39.391,M,2.3,0000*58
$GNGGA,123134.40,3605.0799111,N,14004.8263464,E,5,12,0.89,27.925,M,39.391,M,2.4,0000*5A
$GNGGA,123134.50,3605.0799009,N,14004.8264240,E,5,12,0.89,27.915,M,39.391,M,2.5,0000*56
$GNGGA,123134.60,3605.0798882,N,14004.8265032,E,5,12,0.89,27.900,M,39.391,M,2.6,0000*5E
$GNGGA,123134.70,3605.0798804,N,14004.8265845,E,5,12,0.89,27.907,M,39.391,M,2.7,0000*5F
$GNGGA,123134.80,3605.0798764,N,14004.8266650,E,5,12,0.89,27.923,M,39.391,M,2.8,0000*59
$GNGGA,123134.90,3605.0798712,N,14004.8267474,E,5,12,0.89,27.933,M,39.391,M,2.9,0000*5C
$GNGGA,123135.00,3605.0798695,N,14004.8268189,E,5,12,0.89,27.929,M,39.391,M,3.0,0000*51
$GNGGA,123135.10,3605.0798657,N,14004.8268975,E,5,12,0.89,27.910,M,39.391,M,3.1,0000*5E
$GNGGA,123135.20,3605.0798589,N,14004.8269828,E,5,12,0.89,27.898,M,39.391,M,3.2,0000*57
$GNGGA,123135.30,3605.0798545,N,14004.8270671,E,5,12,0.89,27.910,M,39.391,M,3.3,0000*5C
$GNGGA,123135.40,3605.0798473,N,14004.8271512,E,5,12,0.89,27.924,M,39.391,M,3.4,0000*58
$GNGGA,123135.50,3605.0798398,N,14004.8272297,E,5,12,0.89,27.928,M,39.391,M,3.5,0000*5F
$GNGGA,123135.60,3605.0798292,N,14004.8273127,E,5,12,0.89,27.918,M,39.391,M,3.6,0000*5E
$GNGGA,123135.70,3605.0798222,N,14004.8273917,E,5,12,0.89,27.910,M,39.391,M,3.7,0000*56
$GNGGA,123135.80,3605.0798162,N,14004.8274691,E,5,12,0.89,27.928,M,39.391,M,3.8,0000*5C
$GNGGA,123135.90,3605.0798155,N,14004.8275463,E,5,12,0.89,27.946,M,39.391,M,3.9,0000*5E
$GNGGA,123136.00,3605.0798144,N,14004.8276187,E,5,12,0.89,27.943,M,39.391,M,4.0,0000*53
$GNGGA,123136.10,3605.0798144,N,14004.8276945,E,5,12,0.89,27.919,M,39.391,M,4.1,0000*5A
$GNGGA,123136.20,3605.0798143,N,14004.8277767,E,5,12,0.89,27.898,M,39.391,M,4.2,0000*5A
$GNGGA,123136.30,3605.0798157,N,14004.8278626,E,5,12,0.89,27.903,M,39.391,M,4.3,0000*57
$GNGGA,123136.40,3605.0798096,N,14004.8279477,E,5,12,0.89,27.923,M,39.391,M,4.4,0000*5E
$GNGGA,123136.50,3605.0798040,N,14004.8280260,E,5,12,0.89,27.929,M,39.391,M,4.5,0000*59
$GNGGA,123136.60,3605.0798008,N,14004.8280963,E,5,12,0.89,27.918,M,39.391,M,4.6,0000*5F
$GNGGA,123136.70,3605.0797929,N,14004.8281806,E,5,12,0.89,27.898,M,39.391,M,4.7,0000*50
$GNGGA,123136.80,3605.0797865,N,14004.8282609,E,5,12,0.89,27.907,M,39.391,M,4.8,0000*5C
$GNGGA,123136.90,3605.0797818,N,14004.8283386,E,5,12,0.89,27.923,M,39.391,M,4.9,0000*53
$GNGGA,123137.10,3605.0797843,N,14004.8284803,E,5,12,0.89,27.915,M,39.391,M,5.1,0000*59
$GNGGA,123137.20,3605.0797898,N,14004.8285580,E,5,12,0.89,27.897,M,39.391,M,5.2,0000*53
$GNGGA,123137.30,3605.0797909,N,14004.8286437,E,5,12,0.89,27.903,M,39.391,M,5.3,0000*58
$GNGGA,123137.40,3605.0797872,N,14004.8287239,E,5,12,0.89,27.902,M,39.391,M,5.4,0000*5D
$GNGGA,123137.50,3605.0797809,N,14004.8287932,E,5,12,0.89,27.914,M,39.391,M,5.5,0000*56
$GNGGA,123137.60,3605.0797804,N,14004.8288645,E,5,12,0.89,27.901,M,39.391,M,5.6,0000*5F
$GNGGA,123137.70,3605.0797755,N,14004.8289427,E,5,12,0.89,27.885,M,39.391,M,5.7,0000*5E
