$GNGGA,101536.50,3605.0647088,N,14004.9227778,E,4,12,1.25,26.900,M,39.388,M,4.5,0000*5E
$GNGGA,101537.90,3605.0647054,N,14004.9228599,E,4,12,1.25,26.895,M,39.388,M,5.9,0000*50
$GNGGA,101538.20,3605.0646728,N,14004.9229580,E,4,12,1.25,26.881,M,39.388,M,1.2,0000*5A
$GNGGA,101538.40,3605.0646400,N,14004.9230366,E,4,12,1.25,26.882,M,39.388,M,1.4,0000*56
$GNGGA,101538.60,3605.0646063,N,14004.9231129,E,4,12,1.25,26.901,M,39.388,M,1.6,0000*55
$GNGGA,101538.80,3605.0645709,N,14004.9231930,E,4,12,1.25,26.904,M,39.388,M,1.8,0000*58
$GNGGA,101539.00,3605.0645326,N,14004.9232780,E,4,12,1.25,26.895,M,39.388,M,2.0,0000*5C
$GNGGA,101539.20,3605.0644899,N,14004.9233498,E,4,12,1.25,26.872,M,39.388,M,2.2,0000*50
$GNGGA,101539.40,3605.0644390,N,14004.9234093,E,4,12,1.25,26.846,M,39.388,M,2.4,0000*5D
$GNGGA,101539.60,3605.0643655,N,14004.9234614,E,4,12,1.25,26.812,M,39.388,M,2.6,0000*5E
$GNGGA,101539.80,3605.0642916,N,14004.9235181,E,4,12,1.25,26.802,M,39.388,M,2.8,0000*5C
$GNGGA,101540.00,3605.0642057,N,14004.9235393,E,4,12,1.25,26.791,M,39.388,M,3.0,0000*5B
$GNGGA,101540.20,3605.0641149,N,14004.9235633,E,4,12,1.25,26.784,M,39.388,M,3.2,0000*5D
$GNGGA,101540.40,3605.0640200,N,14004.9235765,E,4,12,1.25,26.790,M,39.388,M,3.4,0000*55
$GNGGA,101540.60,3605.0639179,N,14004.9235809,E,4,12,1.25,26.780,M,39.388,M,3.6,0000*52
$GNGGA,101540.70,3605.0638634,N,14004.9235785,E,4,12,1.25,26.775,M,39.388,M,3.7,0000*5C
$GNGGA,101540.90,3605.0637708,N,14004.9235807,E,4,12,1.25,26.772,M,39.388,M,3.9,0000*5F
$GNGGA,101541.10,3605.0636895,N,14004.9235772,E,4,12,1.25,26.790,M,39.388,M,4.1,0000*52
$GNGGA,101541.30,3605.0636169,N,14004.9235908,E,4,12,1.25,26.813,M,39.388,M,4.3,0000*5F
$GNGGA,101541.50,3605.0635611,N,14004.9236236,E,4,12,1.25,26.832,M,39.388,M,4.5,0000*52
$GNGGA,101541.80,3605.0635316,N,14004.9237109,E,4,12,1.25,26.830,M,39.388,M,4.8,0000*5C
$GNGGA,101542.10,3605.0635714,N,14004.9237806,E,4,12,1.25,26.869,M,39.388,M,5.1,0000*52
$GNGGA,101542.30,3605.0636340,N,14004.9238090,E,4,12,1.25,26.869,M,39.388,M,5.3,0000*5C
$GNGGA,101542.50,3605.0637064,N,14004.9238453,E,4,12,1.25,26.851,M,39.387,M,5.5,0000*57
$GNGGA,101542.70,3605.0637683,N,14004.9238931,E,4,12,1.25,26.850,M,39.387,M,5.7,0000*50
$GNGGA,101542.90,3605.0638330,N,14004.9239476,E,4,12,1.25,26.838,M,39.387,M,5.9,0000*53
$GNGGA,101543.10,3605.0638876,N,14004.9240226,E,4,12,1.25,26.819,M,39.387,M,6.1,0000*56
$GNGGA,101543.40,3605.0639716,N,14004.9241498,E,4,12,1.25,26.823,M,39.387,M,6.4,0000*55
$GNGGA,101543.60,3605.0640180,N,14004.9242160,E,4,12,1.25,26.831,M,39.387,M,6.6,0000*50
$GNGGA,101543.80,3605.0640733,N,14004.9242568,E,4,12,1.25,26.823,M,39.387,M,6.8,0000*51
$GNGGA,101544.00,3605.0641231,N,14004.9242874,E,4,12,1.25,26.836,M,39.387,M,7.0,0000*55
$GNGGA,101544.40,3605.0641996,N,14004.9243411,E,4,12,1.25,26.869,M,39.387,M,2.4,0000*52
$GNGGA,101544.70,3605.0642395,N,14004.9243933,E,4,12,1.25,26.871,M,39.387,M,2.7,0000*5C
$GNGGA,101545.00,3605.0642834,N,14004.9244327,E,4,12,1.25,26.880,M,39.387,M,3.0,0000*5A
$GNGGA,101545.40,3605.0643666,N,14004.9244650,E,4,12,1.25,26.855,M,39.387,M,3.4,0000*5F
$GNGGA,101545.80,3605.0644110,N,14004.9245261,E,4,12,1.25,26.812,M,39.387,M,3.8,0000*5A
$GNGGA,101546.20,3605.0644174,N,14004.9246114,E,4,12,1.25,26.782,M,39.387,M,4.2,0000*58
$GNGGA,101546.50,3605.0644199,N,14004.9246795,E,4,12,1.25,26.801,M,39.387,M,4.5,0000*50
$GNGGA,101546.80,3605.0644289,N,14004.9247462,E,4,12,1.25,26.802,M,39.387,M,4.8,0000*5B
$GNGGA,101547.30,3605.0643908,N,14004.9247969,E,4,12,1.25,26.794,M,39.387,M,5.3,0000*58
$GNGGA,101547.80,3605.0643289,N,14004.9247990,E,4,12,1.25,26.798,M,39.387,M,5.8,0000*50
$GNGGA,101548.40,3605.0642651,N,14004.9248239,E,4,12,1.25,26.788,M,39.387,M,1.4,0000*5D
$GNGGA,101548.90,3605.0642053,N,14004.9248096,E,4,12,1.25,26.778,M,39.387,M,1.9,0000*51
$GNGGA,101549.40,3605.0641482,N,14004.9247812,E,4,12,1.25,26.794,M,39.387,M,2.4,0000*51
$GNGGA,101549.80,3605.0640886,N,14004.9247682,E,4,12,1.25,26.802,M,39.387,M,2.8,0000*5F
$GNGGA,101550.50,3605.0640707,N,14004.9247005,E,4,12,1.25,26.804,M,39.387,M,3.5,0000*5F
$GNGGA,101551.10,3605.0640611,N,14004.9246265,E,4,12,1.25,26.822,M,39.387,M,4.1,0000*5E
$GNGGA,101551.50,3605.0640608,N,14004.9245565,E,4,12,1.25,26.845,M,39.387,M,4.5,0000*53
$GNGGA,101552.00,3605.0641156,N,14004.9245183,E,4,12,1.25,26.793,M,39.387,M,5.0,0000*54
$GNGGA,101552.50,3605.0641802,N,14004.9244962,E,4,12,1.25,26.758,M,39.387,M,5.5,0000*5D
$GNGGA,101553.00,3605.0642342,N,14004.9244568,E,4,12,1.25,26.777,M,39.387,M,6.0,0000*58
$GNGGA,101553.50,3605.0642917,N,14004.9244831,E,4,12,1.25,26.794,M,39.387,M,1.5,0000*59
$GNGGA,101554.00,3605.0643430,N,14004.9245104,E,4,12,1.25,26.841,M,39.387,M,2.0,0000*5D
$GNGGA,101554.70,3605.0643404,N,14004.9245868,E,4,12,1.25,26.793,M,39.387,M,2.7,0000*59
$GNGGA,101555.00,3605.0643032,N,14004.9246363,E,4,12,1.25,26.786,M,39.387,M,3.0,0000*5F
$GNGGA,101555.30,3605.0642403,N,14004.9246821,E,4,12,1.25,26.768,M,39.387,M,3.3,0000*55
$GNGGA,101555.60,3605.0641654,N,14004.9246989,E,4,12,1.25,26.758,M,39.387,M,3.6,0000*56
$GNGGA,101555.80,3605.0641075,N,14004.9246895,E,4,12,1.25,26.748,M,39.387,M,3.8,0000*5E
$GNGGA,101556.00,3605.0640388,N,14004.9246730,E,4,12,1.25,26.744,M,39.387,M,4.0,0000*56
$GNGGA,101556.20,3605.0639633,N,14004.9246602,E,4,12,1.25,26.755,M,39.387,M,4.2,0000*5D
$GNGGA,101556.40,3605.0638709,N,14004.9246449,E,4,12,1.25,26.755,M,39.387,M,4.4,0000*59
$GNGGA,101556.60,3605.0637740,N,14004.9246361,E,4,12,1.25,26.751,M,39.387,M,4.6,0000*52
$GNGGA,101556.70,3605.0637190,N,14004.9246309,E,4,12,1.25,26.761,M,39.387,M,4.7,0000*54
$GNGGA,101556.80,3605.0636647,N,14004.9246242,E,4,12,1.25,26.754,M,39.387,M,4.8,0000*50
$GNGGA,101556.90,3605.0636098,N,14004.9246128,E,4,12,1.25,26.748,M,39.387,M,4.9,0000*56
$GNGGA,101557.00,3605.0635458,N,14004.9246001,E,4,12,1.25,26.747,M,39.387,M,5.0,0000*58
$GNGGA,101557.10,3605.0634819,N,14004.9245860,E,4,12,1.25,26.744,M,39.387,M,5.1,0000*5F
$GNGGA,101557.20,3605.0634242,N,14004.9245774,E,4,12,1.25,26.742,M,39.387,M,5.2,0000*57
$GNGGA,101557.30,3605.0633601,N,14004.9245701,E,4,12,1.25,26.747,M,39.387,M,5.3,0000*54
$GNGGA,101557.40,3605.0632938,N,14004.9245585,E,4,12,1.25,26.749,M,39.387,M,5.4,0000*50
$GNGGA,101557.50,3605.0632251,N,14004.9245473,E,4,12,1.25,26.742,M,39.387,M,5.5,0000*57
$GNGGA,101557.60,3605.0631589,N,14004.9245402,E,4,12,1.25,26.745,M,39.387,M,5.6,0000*57
$GNGGA,101557.70,3605.0630960,N,14004.9245388,E,4,12,1.25,26.741,M,39.387,M,5.7,0000*5C
$GNGGA,101557.80,3605.0630323,N,14004.9245283,E,4,12,1.25,26.740,M,39.387,M,5.8,0000*5A
$GNGGA,101557.90,3605.0629641,N,14004.9245171,E,4,12,1.25,26.735,M,39.387,M,5.9,0000*5F
$GNGGA,101558.00,3605.0628936,N,14004.9245009,E,4,12,1.25,26.730,M,39.387,M,6.0,0000*56
$GNGGA,101558.10,3605.0628224,N,14004.9244866,E,4,12,1.25,26.726,M,39.387,M,6.1,0000*59
$GNGGA,101558.20,3605.0627636,N,14004.9244833,E,4,12,1.25,26.716,M,39.387,M,1.2,0000*55
$GNGGA,101558.40,3605.0626321,N,14004.9244684,E,4,12,1.25,26.700,M,39.387,M,1.4,0000*52
$GNGGA,101558.50,3605.0625618,N,14004.9244540,E,4,12,1.25,26.695,M,39.387,M,1.5,0000*58
$GNGGA,101558.60,3605.0624894,N,14004.9244398,E,4,12,1.25,26.698,M,39.387,M,1.6,0000*5D
$GNGGA,101558.70,3605.0624245,N,14004.9244274,E,4,12,1.25,26.704,M,39.387,M,1.7,0000*5C
$GNGGA,101558.80,3605.0623639,N,14004.9244147,E,4,12,1.25,26.703,M,39.387,M,1.8,0000*50
$GNGGA,101558.90,3605.0622980,N,14004.9243965,E,4,12,1.25,26.705,M,39.387,M,1.9,0000*55
$GNGGA,101559.00,3605.0622243,N,14004.9243763,E,4,12,1.25,26.698,M,39.387,M,2.0,0000*5E
$GNGGA,101559.10,3605.0621561,N,14004.9243567,E,4,12,1.25,26.695,M,39.387,M,2.1,0000*51
$GNGGA,101559.20,3605.0620894,N,14004.9243447,E,4,12,1.25,26.694,M,39.387,M,2.2,0000*55
$GNGGA,101559.30,3605.0620253,N,14004.9243372,E,4,12,1.25,26.697,M,39.387,M,2.3,0000*56
$GNGGA,101559.40,3605.0619602,N,14004.9243185,E,4,12,1.25,26.709,M,39.387,M,2.4,0000*50
$GNGGA,101559.50,3605.0618875,N,14004.9243037,E,4,12,1.25,26.692,M,39.387,M,2.5,0000*54
$GNGGA,101559.60,3605.0618201,N,14004.9242860,E,4,12,1.25,26.692,M,39.387,M,2.6,0000*56
$GNGGA,101559.70,3605.0617564,N,14004.9242746,E,4,12,1.25,26.691,M,39.387,M,2.7,0000*55
$GNGGA,101559.80,3605.0616881,N,14004.9242622,E,4,12,1.25,26.695,M,39.387,M,2.8,0000*55
$GNGGA,101559.90,3605.0616208,N,14004.9242450,E,4,12,1.25,26.694,M,39.387,M,2.9,0000*58
$GNGGA,101600.00,3605.0615477,N,14004.9242211,E,4,12,1.25,26.688,M,39.387,M,3.0,0000*55
$GNGGA,101600.10,3605.0614761,N,14004.9242008,E,4,12,1.25,26.682,M,39.387,M,3.1,0000*50
$GNGGA,101600.20,3605.0614060,N,14004.9241874,E,4,12,1.25,26.683,M,39.387,M,3.2,0000*57
$GNGGA,101600.30,3605.0613387,N,14004.9241814,E,4,12,1.25,26.691,M,39.387,M,3.3,0000*5F
$GNGGA,101600.40,3605.0612681,N,14004.9241677,E,4,12,1.25,26.692,M,39.387,M,3.4,0000*55
$GNGGA,101600.50,3605.0611945,N,14004.9241564,E,4,12,1.25,26.685,M,39.387,M,3.5,0000*56
$GNGGA,101600.60,3605.0611220,N,14004.9241454,E,4,12,1.25,26.696,M,39.387,M,3.6,0000*5E
$GNGGA,101600.70,3605.0610560,N,14004.9241431,E,4,12,1.25,26.691,M,39.387,M,3.7,0000*58
$GNGGA,101600.80,3605.0609940,N,14004.9241364,E,4,12,1.25,26.702,M,39.387,M,3.8,0000*52
$GNGGA,101600.90,3605.0609260,N,14004.9241174,E,4,12,1.25,26.709,M,39.387,M,3.9,0000*53
$GNGGA,101601.00,3605.0608496,N,14004.9241039,E,4,12,1.25,26.712,M,39.387,M,4.0,0000*59
$GNGGA,101601.10,3605.0607791,N,14004.9240918,E,4,12,1.25,26.711,M,39.387,M,4.1,0000*5A
$GNGGA,101601.20,3605.0607083,N,14004.9240773,E,4,12,1.25,26.710,M,39.387,M,4.2,0000*5C
$GNGGA,101601.30,3605.0606389,N,14004.9240684,E,4,12,1.25,26.720,M,39.387,M,4.3,0000*5E
$GNGGA,101601.40,3605.0605699,N,14004.9240583,E,4,12,1.25,26.718,M,39.387,M,4.4,0000*56
$GNGGA,101601.50,3605.0604976,N,14004.9240482,E,4,12,1.25,26.713,M,39.387,M,4.5,0000*52
$GNGGA,101601.60,3605.0604286,N,14004.9240391,E,4,12,1.25,26.711,M,39.387,M,4.6,0000*51
$GNGGA,101601.70,3605.0603636,N,14004.9240322,E,4,12,1.25,26.710,M,39.387,M,4.7,0000*50
$GNGGA,101601.80,3605.0603053,N,14004.9240259,E,4,12,1.25,26.715,M,39.387,M,4.8,0000*5D
$GNGGA,101601.90,3605.0602398,N,14004.9240090,E,4,12,1.25,26.718,M,39.387,M,4.9,0000*52
$GNGGA,101602.00,3605.0601711,N,14004.9239955,E,4,12,1.25,26.713,M,39.387,M,5.0,0000*53
$GNGGA,101602.10,3605.0601047,N,14004.9239843,E,4,12,1.25,26.713,M,39.387,M,5.1,0000*51
$GNGGA,101602.20,3605.0600380,N,14004.9239668,E,4,12,1.25,26.726,M,39.387,M,5.2,0000*59
$GNGGA,101602.30,3605.0599711,N,14004.9239582,E,4,12,1.25,26.731,M,39.387,M,5.3,0000*57
$GNGGA,101602.40,3605.0599052,N,14004.9239479,E,4,12,1.25,26.728,M,39.387,M,5.4,0000*5A
$GNGGA,101602.50,3605.0598403,N,14004.9239434,E,4,12,1.25,26.718,M,39.387,M,5.5,0000*51
$GNGGA,101602.60,3605.0597772,N,14004.9239344,E,4,12,1.25,26.717,M,39.387,M,5.6,0000*54
$GNGGA,101602.70,3605.0597156,N,14004.9239333,E,4,12,1.25,26.716,M,39.387,M,5.7,0000*55
$GNGGA,101602.80,3605.0596518,N,14004.9239274,E,4,12,1.25,26.717,M,39.387,M,5.8,0000*59
$GNGGA,101602.90,3605.0595834,N,14004.9239175,E,4,12,1.25,26.712,M,39.387,M,5.9,0000*5E
$GNGGA,101603.00,3605.0595150,N,14004.9239101,E,4,12,1.25,26.702,M,39.387,M,6.0,0000*55
$GNGGA,101603.10,3605.0594451,N,14004.9238994,E,4,12,1.25,26.695,M,39.387,M,6.1,0000*5A
$GNGGA,101603.20,3605.0593774,N,14004.9238926,E,4,12,1.25,26.691,M,39.387,M,1.2,0000*53
$GNGGA,101603.40,3605.0592444,N,14004.9238844,E,4,12,1.25,26.683,M,39.387,M,1.4,0000*54
$GNGGA,101603.50,3605.0591731,N,14004.9238750,E,4,12,1.25,26.680,M,39.387,M,1.5,0000*5F
$GNGGA,101603.60,3605.0591035,N,14004.9238728,E,4,12,1.25,26.670,M,39.387,M,1.6,0000*5C
$GNGGA,101603.70,3605.0590374,N,14004.9238663,E,4,12,1.25,26.671,M,39.387,M,1.7,0000*54
$GNGGA,101603.80,3605.0589747,N,14004.9238639,E,4,12,1.25,26.671,M,39.387,M,1.8,0000*57
$GNGGA,101603.90,3605.0589068,N,14004.9238534,E,4,12,1.25,26.663,M,39.387,M,1.9,0000*50
$GNGGA,101604.00,3605.0588337,N,14004.9238394,E,4,12,1.25,26.659,M,39.388,M,2.0,0000*56
$GNGGA,101604.10,3605.0587636,N,14004.9238254,E,4,12,1.25,26.650,M,39.388,M,2.1,0000*59
$GNGGA,101604.20,3605.0586967,N,14004.9238149,E,4,12,1.25,26.650,M,39.388,M,2.2,0000*5C
$GNGGA,101604.30,3605.0586289,N,14004.9238078,E,4,12,1.25,26.650,M,39.388,M,2.3,0000*54
$GNGGA,101604.40,3605.0585603,N,14004.9237947,E,4,12,1.25,26.660,M,39.388,M,2.4,0000*58
$GNGGA,101604.50,3605.0584886,N,14004.9237876,E,4,12,1.25,26.656,M,39.388,M,2.5,0000*5C
$GNGGA,101604.60,3605.0584208,N,14004.9237788,E,4,12,1.25,26.646,M,39.388,M,2.6,0000*5F
$GNGGA,101604.70,3605.0583517,N,14004.9237700,E,4,12,1.25,26.653,M,39.388,M,2.7,0000*55
$GNGGA,101604.80,3605.0582847,N,14004.9237647,E,4,12,1.25,26.646,M,39.388,M,2.8,0000*5A
$GNGGA,101604.90,3605.0582167,N,14004.9237513,E,4,12,1.25,26.646,M,39.388,M,2.9,0000*53
$GNGGA,101605.00,3605.0581413,N,14004.9237344,E,4,12,1.25,26.645,M,39.388,M,3.0,0000*51
$GNGGA,101605.10,3605.0580685,N,14004.9237203,E,4,12,1.25,26.633,M,39.388,M,3.1,0000*5E
$GNGGA,101605.20,3605.0580042,N,14004.9237092,E,4,12,1.25,26.635,M,39.388,M,3.2,0000*5F
$GNGGA,101605.30,3605.0579365,N,14004.9237004,E,4,12,1.25,26.639,M,39.388,M,3.3,0000*5C
$GNGGA,101605.40,3605.0578661,N,14004.9236907,E,4,12,1.25,26.641,M,39.388,M,3.4,0000*58
$GNGGA,101605.50,3605.0577957,N,14004.9236813,E,4,12,1.25,26.631,M,39.388,M,3.5,0000*5E
$GNGGA,101605.60,3605.0577263,N,14004.9236701,E,4,12,1.25,26.626,M,39.388,M,3.6,0000*58
$GNGGA,101605.70,3605.0576595,N,14004.9236589,E,4,12,1.25,26.622,M,39.388,M,3.7,0000*51
$GNGGA,101605.80,3605.0575955,N,14004.9236496,E,4,12,1.25,26.625,M,39.388,M,3.8,0000*5A
$GNGGA,101605.90,3605.0575260,N,14004.9236359,E,4,12,1.25,26.618,M,39.388,M,3.9,0000*5D
$GNGGA,101606.00,3605.0574530,N,14004.9236209,E,4,12,1.25,26.610,M,39.388,M,4.0,0000*56
$GNGGA,101606.10,3605.0573823,N,14004.9236052,E,4,12,1.25,26.603,M,39.388,M,4.1,0000*50
$GNGGA,101606.20,3605.0573169,N,14004.9235971,E,4,12,1.25,26.607,M,39.388,M,4.2,0000*58
$GNGGA,101606.30,3605.0572524,N,14004.9235940,E,4,12,1.25,26.620,M,39.388,M,4.3,0000*53
$GNGGA,101606.40,3605.0571825,N,14004.9235880,E,4,12,1.25,26.614,M,39.388,M,4.4,0000*56
$GNGGA,101606.50,3605.0571149,N,14004.9235816,E,4,12,1.25,26.612,M,39.388,M,4.5,0000*5C
$GNGGA,101606.60,3605.0570475,N,14004.9235756,E,4,12,1.25,26.607,M,39.388,M,4.6,0000*58
$GNGGA,101606.70,3605.0569819,N,14004.9235751,E,4,12,1.25,26.612,M,39.388,M,4.7,0000*55
$GNGGA,101606.80,3605.0569179,N,14004.9235722,E,4,12,1.25,26.618,M,39.388,M,4.8,0000*54
$GNGGA,101606.90,3605.0568518,N,14004.9235639,E,4,12,1.25,26.618,M,39.388,M,4.9,0000*5D
$GNGGA,101607.00,3605.0567824,N,14004.9235555,E,4,12,1.25,26.611,M,39.388,M,5.0,0000*50
$GNGGA,101607.10,3605.0567119,N,14004.9235429,E,4,12,1.25,26.607,M,39.388,M,5.1,0000*5A
$GNGGA,101607.20,3605.0566464,N,14004.9235365,E,4,12,1.25,26.610,M,39.388,M,5.2,0000*5D
$GNGGA,101607.30,3605.0565832,N,14004.9235351,E,4,12,1.25,26.620,M,39.388,M,5.3,0000*55
$GNGGA,101607.40,3605.0565126,N,14004.9235258,E,4,12,1.25,26.617,M,39.388,M,5.4,0000*55
$GNGGA,101607.50,3605.0564421,N,14004.9235183,E,4,12,1.25,26.611,M,39.388,M,5.5,0000*55
$GNGGA,101607.60,3605.0563779,N,14004.9235125,E,4,12,1.25,26.606,M,39.388,M,5.6,0000*56
$GNGGA,101607.70,3605.0563108,N,14004.9235054,E,4,12,1.25,26.606,M,39.388,M,5.7,0000*51
$GNGGA,101607.80,3605.0562500,N,14004.9235015,E,4,12,1.25,26.612,M,39.388,M,5.8,0000*5C
$GNGGA,101607.90,3605.0561837,N,14004.9234912,E,4,12,1.25,26.611,M,39.388,M,5.9,0000*5A
$GNGGA,101608.00,3605.0561167,N,14004.9234857,E,4,12,1.25,26.601,M,39.388,M,6.0,0000*5B
$GNGGA,101608.10,3605.0560479,N,14004.9234745,E,4,12,1.25,26.605,M,39.388,M,6.1,0000*58
$GNGGA,101608.20,3605.0559799,N,14004.9234668,E,4,12,1.25,26.603,M,39.388,M,1.2,0000*50
$GNGGA,101608.30,3605.0559143,N,14004.9234613,E,4,12,1.25,26.612,M,39.388,M,1.3,0000*5D
$GNGGA,101608.40,3605.0558488,N,14004.9234557,E,4,12,1.25,26.613,M,39.388,M,1.4,0000*5C
$GNGGA,101608.50,3605.0557793,N,14004.9234544,E,4,12,1.25,26.608,M,39.388,M,1.5,0000*52
$GNGGA,101608.60,3605.0557123,N,14004.9234475,E,4,12,1.25,26.602,M,39.388,M,1.6,0000*56
$GNGGA,101608.70,3605.0556471,N,14004.9234478,E,4,12,1.25,26.601,M,39.388,M,1.7,0000*5B
$GNGGA,101608.80,3605.0555848,N,14004.9234449,E,4,12,1.25,26.603,M,39.388,M,1.8,0000*5E
$GNGGA,101608.90,3605.0555177,N,14004.9234350,E,4,12,1.25,26.595,M,39.388,M,1.9,0000*58
$GNGGA,101609.00,3605.0554440,N,14004.9234242,E,4,12,1.25,26.585,M,39.388,M,2.0,0000*59
$GNGGA,101609.10,3605.0553738,N,14004.9234156,E,4,12,1.25,26.578,M,39.388,M,2.1,0000*56
$GNGGA,101609.20,3605.0553048,N,14004.9234045,E,4,12,1.25,26.579,M,39.388,M,2.2,0000*54
$GNGGA,101609.30,3605.0552374,N,14004.9234032,E,4,12,1.25,26.581,M,39.388,M,2.3,0000*5E
$GNGGA,101609.40,3605.0551686,N,14004.9233970,E,4,12,1.25,26.584,M,39.388,M,2.4,0000*58
$GNGGA,101609.50,3605.0550966,N,14004.9233909,E,4,12,1.25,26.567,M,39.388,M,2.5,0000*5B
$GNGGA,101609.60,3605.0550259,N,14004.9233846,E,4,12,1.25,26.562,M,39.388,M,2.6,0000*53
$GNGGA,101609.70,3605.0549581,N,14004.9233774,E,4,12,1.25,26.559,M,39.388,M,2.7,0000*5F
$GNGGA,101609.80,3605.0548927,N,14004.9233701,E,4,12,1.25,26.552,M,39.388,M,2.8,0000*57
$GNGGA,101609.90,3605.0548249,N,14004.9233603,E,4,12,1.25,26.556,M,39.388,M,2.9,0000*53
$GNGGA,101610.00,3605.0547541,N,14004.9233545,E,4,12,1.25,26.545,M,39.388,M,3.0,0000*59
$GNGGA,101610.10,3605.0546784,N,14004.9233390,E,4,12,1.25,26.538,M,39.388,M,3.1,0000*57
$GNGGA,101610.20,3605.0546107,N,14004.9233286,E,4,12,1.25,26.546,M,39.388,M,3.2,0000*55
$GNGGA,101610.30,3605.0545452,N,14004.9233200,E,4,12,1.25,26.557,M,39.388,M,3.3,0000*5D
$GNGGA,101610.40,3605.0544751,N,14004.9233164,E,4,12,1.25,26.562,M,39.388,M,3.4,0000*5B
$GNGGA,101610.50,3605.0544048,N,14004.9233121,E,4,12,1.25,26.548,M,39.388,M,3.5,0000*5D
$GNGGA,101610.60,3605.0543345,N,14004.9233060,E,4,12,1.25,26.552,M,39.388,M,3.6,0000*5B
$GNGGA,101610.70,3605.0542684,N,14004.9233034,E,4,12,1.25,26.547,M,39.388,M,3.7,0000*57
$GNGGA,101610.80,3605.0542045,N,14004.9232984,E,4,12,1.25,26.557,M,39.388,M,3.8,0000*5E
$GNGGA,101610.90,3605.0541367,N,14004.9232929,E,4,12,1.25,26.552,M,39.388,M,3.9,0000*5C
$GNGGA,101611.00,3605.0540647,N,14004.9232865,E,4,12,1.25,26.542,M,39.388,M,4.0,0000*54
$GNGGA,101611.10,3605.0539960,N,14004.9232789,E,4,12,1.25,26.535,M,39.388,M,4.1,0000*5D
$GNGGA,101611.20,3605.0539328,N,14004.9232754,E,4,12,1.25,26.545,M,39.388,M,4.2,0000*5C
$GNGGA,101611.30,3605.0538679,N,14004.9232780,E,4,12,1.25,26.560,M,39.388,M,4.3,0000*52
$GNGGA,101611.40,3605.0537984,N,14004.9232779,E,4,12,1.25,26.559,M,39.388,M,4.4,0000*5C
$GNGGA,101611.50,3605.0537263,N,14004.9232729,E,4,12,1.25,26.546,M,39.388,M,4.5,0000*55
$GNGGA,101611.60,3605.0536626,N,14004.9232740,E,4,12,1.25,26.541,M,39.388,M,4.6,0000*59
$GNGGA,101611.70,3605.0536042,N,14004.9232719,E,4,12,1.25,26.550,M,39.388,M,4.7,0000*51
$GNGGA,101611.80,3605.0535419,N,14004.9232650,E,4,12,1.25,26.540,M,39.388,M,4.8,0000*55
$GNGGA,101611.90,3605.0534727,N,14004.9232519,E,4,12,1.25,26.540,M,39.388,M,4.9,0000*54
$GNGGA,101612.00,3605.0534033,N,14004.9232389,E,4,12,1.25,26.532,M,39.388,M,5.0,0000*5E
$GNGGA,101612.10,3605.0533397,N,14004.9232285,E,4,12,1.25,26.528,M,39.388,M,5.1,0000*52
$GNGGA,101612.20,3605.0532728,N,14004.9232168,E,4,12,1.25,26.539,M,39.388,M,5.2,0000*53
$GNGGA,101612.30,3605.0532086,N,14004.9232085,E,4,12,1.25,26.548,M,39.388,M,5.3,0000*54
$GNGGA,101612.40,3605.0531436,N,14004.9231958,E,4,12,1.25,26.537,M,39.388,M,5.4,0000*5A
$GNGGA,101612.50,3605.0530767,N,14004.9231890,E,4,12,1.25,26.519,M,39.388,M,5.5,0000*55
$GNGGA,101612.60,3605.0530137,N,14004.9231801,E,4,12,1.25,26.518,M,39.388,M,5.6,0000*5F
$GNGGA,101612.70,3605.0529510,N,14004.9231725,E,4,12,1.25,26.523,M,39.388,M,5.7,0000*57
$GNGGA,101612.80,3605.0528895,N,14004.9231616,E,4,12,1.25,26.524,M,39.388,M,5.8,0000*50
$GNGGA,101612.90,3605.0528192,N,14004.9231480,E,4,12,1.25,26.517,M,39.388,M,5.9,0000*53
$GNGGA,101613.00,3605.0527499,N,14004.9231351,E,4,12,1.25,26.506,M,39.388,M,6.0,0000*5B
$GNGGA,101613.10,3605.0526808,N,14004.9231187,E,4,12,1.25,26.503,M,39.388,M,6.1,0000*52
$GNGGA,101613.20,3605.0526152,N,14004.9231112,E,4,12,1.25,26.509,M,39.388,M,6.2,0000*52
$GNGGA,101613.30,3605.0525474,N,14004.9231013,E,4,12,1.25,26.512,M,39.388,M,6.3,0000*5A
$GNGGA,101613.40,3605.0524799,N,14004.9230932,E,4,12,1.25,26.505,M,39.388,M,6.4,0000*56
$GNGGA,101613.50,3605.0524119,N,14004.9230907,E,4,12,1.25,26.490,M,39.388,M,6.5,0000*53
$GNGGA,101613.60,3605.0523439,N,14004.9230792,E,4,12,1.25,26.487,M,39.388,M,6.6,0000*57
$GNGGA,101613.70,3605.0522817,N,14004.9230772,E,4,12,1.25,26.485,M,39.388,M,6.7,0000*5A
$GNGGA,101613.80,3605.0522203,N,14004.9230680,E,4,12,1.25,26.483,M,39.388,M,6.8,0000*5F
$GNGGA,101613.90,3605.0521530,N,14004.9230555,E,4,12,1.25,26.476,M,39.388,M,6.9,0000*5A
$GNGGA,101614.00,3605.0520866,N,14004.9230414,E,4,12,1.25,26.486,M,39.388,M,7.0,0000*58
$GNGGA,101614.10,3605.0520183,N,14004.9230340,E,4,12,1.25,26.469,M,39.388,M,7.1,0000*5D
$GNGGA,101614.20,3605.0519584,N,14004.9230300,E,4,12,1.25,26.476,M,39.388,M,2.2,0000*5B
$GNGGA,101614.40,3605.0518267,N,14004.9230234,E,4,12,1.25,26.465,M,39.388,M,2.4,0000*54
$GNGGA,101614.50,3605.0517628,N,14004.9230238,E,4,12,1.25,26.454,M,39.388,M,2.5,0000*5A
$GNGGA,101614.60,3605.0516991,N,14004.9230196,E,4,12,1.25,26.456,M,39.388,M,2.6,0000*53
$GNGGA,101614.70,3605.0516376,N,14004.9230160,E,4,12,1.25,26.464,M,39.388,M,2.7,0000*58
$GNGGA,101614.80,3605.0515789,N,14004.9230094,E,4,12,1.25,26.465,M,39.388,M,2.8,0000*54
$GNGGA,101614.90,3605.0515140,N,14004.9230013,E,4,12,1.25,26.469,M,39.388,M,2.9,0000*54
$GNGGA,101615.00,3605.0514457,N,14004.9229925,E,4,12,1.25,26.454,M,39.388,M,3.0,0000*5C
$GNGGA,101615.10,3605.0513806,N,14004.9229819,E,4,12,1.25,26.452,M,39.388,M,3.1,0000*5B
$GNGGA,101615.20,3605.0513160,N,14004.9229711,E,4,12,1.25,26.455,M,39.388,M,3.2,0000*52
$GNGGA,101615.40,3605.0511901,N,14004.9229547,E,4,12,1.25,26.442,M,39.388,M,3.4,0000*58
$GNGGA,101615.50,3605.0511208,N,14004.9229478,E,4,12,1.25,26.433,M,39.388,M,3.5,0000*51
$GNGGA,101615.60,3605.0510570,N,14004.9229434,E,4,12,1.25,26.432,M,39.388,M,3.6,0000*51
$GNGGA,101615.70,3605.0509933,N,14004.9229369,E,4,12,1.25,26.430,M,39.388,M,3.7,0000*5F
$GNGGA,101615.80,3605.0509387,N,14004.9229335,E,4,12,1.25,26.437,M,39.388,M,3.8,0000*54
$GNGGA,101615.90,3605.0508747,N,14004.9229199,E,4,12,1.25,26.429,M,39.388,M,3.9,0000*56
$GNGGA,101616.00,3605.0507986,N,14004.9229028,E,4,12,1.25,26.425,M,39.388,M,4.0,0000*59
$GNGGA,101616.10,3605.0507311,N,14004.9228927,E,4,12,1.25,26.418,M,39.388,M,4.1,0000*54
$GNGGA,101616.20,3605.0506692,N,14004.9228860,E,4,12,1.25,26.430,M,39.388,M,4.2,0000*53
$GNGGA,101616.30,3605.0506037,N,14004.9228827,E,4,12,1.25,26.438,M,39.388,M,4.3,0000*51
$GNGGA,101616.40,3605.0505367,N,14004.9228786,E,4,12,1.25,26.443,M,39.388,M,4.4,0000*5C
$GNGGA,101616.50,3605.0504659,N,14004.9228733,E,4,12,1.25,26.435,M,39.388,M,4.5,0000*5A
$GNGGA,101616.60,3605.0503995,N,14004.9228683,E,4,12,1.25,26.429,M,39.388,M,4.6,0000*55
$GNGGA,101616.70,3605.0503338,N,14004.9228656,E,4,12,1.25,26.436,M,39.388,M,4.7,0000*5E
$GNGGA,101616.80,3605.0502744,N,14004.9228640,E,4,12,1.25,26.433,M,39.388,M,4.8,0000*52
$GNGGA,101616.90,3605.0502123,N,14004.9228551,E,4,12,1.25,26.429,M,39.388,M,4.9,0000*5D
$GNGGA,101617.00,3605.0501377,N,14004.9228428,E,4,12,1.25,26.432,M,39.388,M,5.0,0000*58
$GNGGA,101617.10,3605.0500679,N,14004.9228352,E,4,12,1.25,26.420,M,39.388,M,5.1,0000*5B
$GNGGA,101617.20,3605.0500006,N,14004.9228263,E,4,12,1.25,26.428,M,39.388,M,5.2,0000*5E
$GNGGA,101617.30,3605.0499380,N,14004.9228234,E,4,12,1.25,26.434,M,39.388,M,5.3,0000*5D
$GNGGA,101617.40,3605.0498672,N,14004.9228186,E,4,12,1.25,26.432,M,39.388,M,5.4,0000*58
$GNGGA,101617.50,3605.0497980,N,14004.9228149,E,4,12,1.25,26.431,M,39.388,M,5.5,0000*55
$GNGGA,101617.60,3605.0497294,N,14004.9228115,E,4,12,1.25,26.420,M,39.388,M,5.6,0000*52
$GNGGA,101617.70,3605.0496665,N,14004.9228101,E,4,12,1.25,26.416,M,39.388,M,5.7,0000*59
$GNGGA,101617.80,3605.0496053,N,14004.9228109,E,4,12,1.25,26.418,M,39.388,M,5.8,0000*5C
$GNGGA,101617.90,3605.0495417,N,14004.9228069,E,4,12,1.25,26.411,M,39.388,M,5.9,0000*55
$GNGGA,101618.00,3605.0494721,N,14004.9228026,E,4,12,1.25,26.405,M,39.388,M,6.0,0000*50
$GNGGA,101618.10,3605.0494062,N,14004.9227996,E,4,12,1.25,26.403,M,39.388,M,6.1,0000*5B
$GNGGA,101618.20,3605.0493405,N,14004.9227943,E,4,12,1.25,26.399,M,39.388,M,1.2,0000*52
$GNGGA,101618.40,3605.0492169,N,14004.9227885,E,4,12,1.25,26.412,M,39.388,M,1.4,0000*53
$GNGGA,101618.50,3605.0491522,N,14004.9227910,E,4,12,1.25,26.406,M,39.388,M,1.5,0000*53
$GNGGA,101618.60,3605.0490898,N,14004.9227936,E,4,12,1.25,26.403,M,39.388,M,1.6,0000*5F
$GNGGA,101618.70,3605.0490284,N,14004.9227919,E,4,12,1.25,26.398,M,39.388,M,1.7,0000*50
$GNGGA,101618.80,3605.0489678,N,14004.9227919,E,4,12,1.25,26.405,M,39.388,M,1.8,0000*5C
$GNGGA,101618.90,3605.0489081,N,14004.9227938,E,4,12,1.25,26.409,M,39.388,M,1.9,0000*53
$GNGGA,101619.00,3605.0488445,N,14004.9227954,E,4,12,1.25,26.405,M,39.388,M,2.0,0000*5A
$GNGGA,101619.10,3605.0487768,N,14004.9227909,E,4,12,1.25,26.395,M,39.388,M,2.1,0000*5F
$GNGGA,101619.20,3605.0487123,N,14004.9227874,E,4,12,1.25,26.393,M,39.388,M,2.2,0000*5B
$GNGGA,101619.30,3605.0486448,N,14004.9227865,E,4,12,1.25,26.398,M,39.388,M,2.3,0000*59
$GNGGA,101619.40,3605.0485803,N,14004.9227836,E,4,12,1.25,26.409,M,39.388,M,2.4,0000*50
$GNGGA,101619.50,3605.0485152,N,14004.9227799,E,4,12,1.25,26.404,M,39.388,M,2.5,0000*5A
$GNGGA,101619.60,3605.0484484,N,14004.9227805,E,4,12,1.25,26.396,M,39.388,M,2.6,0000*53
$GNGGA,101619.70,3605.0483814,N,14004.9227758,E,4,12,1.25,26.394,M,39.388,M,2.7,0000*54
$GNGGA,101619.80,3605.0483202,N,14004.9227730,E,4,12,1.25,26.392,M,39.388,M,2.8,0000*51
$GNGGA,101619.90,3605.0482586,N,14004.9227683,E,4,12,1.25,26.397,M,39.388,M,2.9,0000*57
$GNGGA,101620.00,3605.0481932,N,14004.9227573,E,4,12,1.25,26.386,M,39.388,M,3.0,0000*50
$GNGGA,101620.10,3605.0481237,N,14004.9227535,E,4,12,1.25,26.377,M,39.388,M,3.1,0000*52
$GNGGA,101620.20,3605.0480564,N,14004.9227455,E,4,12,1.25,26.372,M,39.388,M,3.2,0000*50
$GNGGA,101620.30,3605.0479893,N,14004.9227400,E,4,12,1.25,26.371,M,39.388,M,3.3,0000*50
$GNGGA,101620.40,3605.0479232,N,14004.9227326,E,4,12,1.25,26.381,M,39.388,M,3.4,0000*5D
$GNGGA,101620.50,3605.0478579,N,14004.9227283,E,4,12,1.25,26.380,M,39.388,M,3.5,0000*5B
$GNGGA,101620.60,3605.0477901,N,14004.9227241,E,4,12,1.25,26.380,M,39.388,M,3.6,0000*59
$GNGGA,101620.70,3605.0477285,N,14004.9227232,E,4,12,1.25,26.373,M,39.388,M,3.7,0000*56
$GNGGA,101620.80,3605.0476687,N,14004.9227186,E,4,12,1.25,26.373,M,39.388,M,3.8,0000*5D
$GNGGA,101620.90,3605.0476081,N,14004.9227127,E,4,12,1.25,26.382,M,39.388,M,3.9,0000*58
$GNGGA,101621.00,3605.0475484,N,14004.9227103,E,4,12,1.25,26.381,M,39.388,M,4.0,0000*59
$GNGGA,101621.10,3605.0474848,N,14004.9227076,E,4,12,1.25,26.364,M,39.388,M,4.1,0000*5C
$GNGGA,101621.20,3605.0474204,N,14004.9226967,E,4,12,1.25,26.365,M,39.388,M,4.2,0000*57
$GNGGA,101621.30,3605.0473575,N,14004.9226926,E,4,12,1.25,26.369,M,39.388,M,4.3,0000*58
$GNGGA,101621.40,3605.0472981,N,14004.9226920,E,4,12,1.25,26.380,M,39.388,M,4.4,0000*5F
$GNGGA,101621.50,3605.0472395,N,14004.9226868,E,4,12,1.25,26.389,M,39.388,M,4.5,0000*54
$GNGGA,101621.60,3605.0471756,N,14004.9226831,E,4,12,1.25,26.390,M,39.388,M,4.6,0000*58
$GNGGA,101621.70,3605.0471137,N,14004.9226852,E,4,12,1.25,26.376,M,39.388,M,4.7,0000*54
$GNGGA,101621.80,3605.0470535,N,14004.9226849,E,4,12,1.25,26.376,M,39.388,M,4.8,0000*59
$GNGGA,101621.90,3605.0469919,N,14004.9226805,E,4,12,1.25,26.378,M,39.388,M,4.9,0000*55
$GNGGA,101622.00,3605.0469351,N,14004.9226756,E,4,12,1.25,26.378,M,39.388,M,5.0,0000*58
$GNGGA,101622.10,3605.0468694,N,14004.9226687,E,4,12,1.25,26.377,M,39.388,M,5.1,0000*57
$GNGGA,101622.20,3605.0468020,N,14004.9226599,E,4,12,1.25,26.364,M,39.388,M,5.2,0000*50
$GNGGA,101622.30,3605.0467403,N,14004.9226548,E,4,12,1.25,26.353,M,39.388,M,5.3,0000*52
$GNGGA,101622.40,3605.0466745,N,14004.9226485,E,4,12,1.25,26.353,M,39.388,M,5.4,0000*52
$GNGGA,101622.50,3605.0466146,N,14004.9226434,E,4,12,1.25,26.363,M,39.388,M,5.5,0000*5E
$GNGGA,101622.60,3605.0465545,N,14004.9226339,E,4,12,1.25,26.369,M,39.388,M,5.6,0000*5A
$GNGGA,101622.70,3605.0464941,N,14004.9226309,E,4,12,1.25,26.366,M,39.388,M,5.7,0000*5F
$GNGGA,101622.80,3605.0464347,N,14004.9226304,E,4,12,1.25,26.356,M,39.388,M,5.8,0000*5D
$GNGGA,101622.90,3605.0463730,N,14004.9226274,E,4,12,1.25,26.356,M,39.388,M,5.9,0000*58
$GNGGA,101623.10,3605.0462633,N,14004.9226084,E,4,12,1.25,26.368,M,39.388,M,6.1,0000*59
$GNGGA,101623.20,3605.0462012,N,14004.9225980,E,4,12,1.25,26.360,M,39.388,M,1.2,0000*5D
$GNGGA,101623.40,3605.0460760,N,14004.9225663,E,4,12,1.25,26.352,M,39.388,M,1.4,0000*5E
$GNGGA,101623.50,3605.0460180,N,14004.9225549,E,4,12,1.25,26.360,M,39.388,M,1.5,0000*5C
$GNGGA,101623.60,3605.0459625,N,14004.9225497,E,4,12,1.25,26.348,M,39.388,M,1.6,0000*56
$GNGGA,101623.70,3605.0459026,N,14004.9225412,E,4,12,1.25,26.344,M,39.388,M,1.7,0000*52
$GNGGA,101623.80,3605.0458450,N,14004.9225363,E,4,12,1.25,26.327,M,39.388,M,1.8,0000*52
$GNGGA,101623.90,3605.0457868,N,14004.9225310,E,4,12,1.25,26.320,M,39.388,M,1.9,0000*59
$GNGGA,101624.10,3605.0456826,N,14004.9225228,E,4,12,1.25,26.312,M,39.388,M,2.1,0000*5D
$GNGGA,101624.20,3605.0456284,N,14004.9225144,E,4,12,1.25,26.306,M,39.388,M,2.2,0000*53
$GNGGA,101624.30,3605.0455700,N,14004.9225078,E,4,12,1.25,26.295,M,39.388,M,2.3,0000*5C
$GNGGA,101624.40,3605.0455126,N,14004.9224986,E,4,12,1.25,26.287,M,39.388,M,2.4,0000*54
$GNGGA,101624.60,3605.0454180,N,14004.9224853,E,4,12,1.25,26.297,M,39.388,M,2.6,0000*51
$GNGGA,101624.80,3605.0453388,N,14004.9224925,E,4,12,1.25,26.305,M,39.388,M,2.8,0000*56
$GNGGA,101625.00,3605.0452700,N,14004.9225029,E,4,12,1.25,26.284,M,39.388,M,3.0,0000*5F
$GNGGA,101625.20,3605.0452165,N,14004.9225220,E,4,12,1.25,26.280,M,39.388,M,3.2,0000*55
$GNGGA,101625.50,3605.0451413,N,14004.9225296,E,4,12,1.25,26.259,M,39.388,M,3.5,0000*5B
$GNGGA,101625.80,3605.0450854,N,14004.9225311,E,4,12,1.25,26.256,M,39.388,M,3.8,0000*54
$GNGGA,101626.10,3605.0450273,N,14004.9225544,E,4,12,1.25,26.266,M,39.388,M,4.1,0000*5A
$GNGGA,101626.40,3605.0449653,N,14004.9225902,E,4,12,1.25,26.270,M,39.388,M,4.4,0000*5D
$GNGGA,101626.80,3605.0449024,N,14004.9225849,E,4,12,1.25,26.245,M,39.388,M,4.8,0000*53
$GNGGA,101627.20,3605.0448396,N,14004.9225541,E,4,12,1.25,26.251,M,39.388,M,5.2,0000*58
$GNGGA,101627.50,3605.0447877,N,14004.9225337,E,4,12,1.25,26.248,M,39.388,M,5.5,0000*5C
$GNGGA,101627.80,3605.0447456,N,14004.9224910,E,4,12,1.25,26.260,M,39.388,M,5.8,0000*57
$GNGGA,101628.20,3605.0447184,N,14004.9224228,E,4,12,1.25,26.294,M,39.388,M,1.2,0000*5D
$GNGGA,101628.50,3605.0446939,N,14004.9223627,E,4,12,1.25,26.303,M,39.388,M,1.5,0000*51
$GNGGA,101628.80,3605.0446682,N,14004.9222807,E,4,12,1.25,26.332,M,39.388,M,1.8,0000*51
$GNGGA,101629.20,3605.0446765,N,14004.9221949,E,4,12,1.25,26.266,M,39.388,M,2.2,0000*53
$GNGGA,101629.50,3605.0446993,N,14004.9221209,E,4,12,1.25,26.248,M,39.388,M,2.5,0000*57
$GNGGA,101629.80,3605.0447178,N,14004.9220380,E,4,12,1.25,26.234,M,39.388,M,2.8,0000*51
$GNGGA,101630.10,3605.0447562,N,14004.9219878,E,4,12,1.25,26.240,M,39.388,M,3.1,0000*52
$GNGGA,101630.40,3605.0448109,N,14004.9219615,E,4,12,1.25,26.248,M,39.388,M,3.4,0000*59
$GNGGA,101630.70,3605.0448676,N,14004.9219248,E,4,12,1.25,26.270,M,39.388,M,3.7,0000*51
$GNGGA,101631.10,3605.0449298,N,14004.9218979,E,4,12,1.25,26.297,M,39.388,M,4.1,0000*53
$GNGGA,101631.50,3605.0449803,N,14004.9219343,E,4,12,1.25,26.302,M,39.388,M,4.5,0000*54
$GNGGA,101632.00,3605.0450405,N,14004.9219600,E,4,12,1.25,26.334,M,39.388,M,5.0,0000*53
$GNGGA,101632.40,3605.0450992,N,14004.9219946,E,4,12,1.25,26.301,M,39.388,M,5.4,0000*5B
$GNGGA,101632.80,3605.0451276,N,14004.9220650,E,4,12,1.25,26.254,M,39.388,M,5.8,0000*58
$GNGGA,101633.20,3605.0451655,N,14004.9221380,E,4,12,1.25,26.256,M,39.388,M,1.2,0000*53
$GNGGA,101633.50,3605.0451977,N,14004.9221953,E,4,12,1.25,26.260,M,39.388,M,1.5,0000*5D
$GNGGA,101633.90,3605.0452011,N,14004.9222619,E,4,12,1.25,26.263,M,39.388,M,1.9,0000*56
$GNGGA,101634.40,3605.0451809,N,14004.9223324,E,4,12,1.25,26.289,M,39.388,M,2.4,0000*5E
$GNGGA,101634.80,3605.0451795,N,14004.9224123,E,4,12,1.25,26.280,M,39.388,M,2.8,0000*5F
$GNGGA,101635.30,3605.0451472,N,14004.9224801,E,4,12,1.25,26.276,M,39.388,M,3.3,0000*55
$GNGGA,101635.70,3605.0451003,N,14004.9225208,E,4,12,1.25,26.283,M,39.388,M,3.7,0000*5F
$GNGGA,101636.10,3605.0450552,N,14004.9225784,E,4,12,1.25,26.287,M,39.388,M,4.1,0000*5E
$GNGGA,101636.50,3605.0450062,N,14004.9226237,E,4,12,1.25,26.271,M,39.388,M,4.5,0000*5F
$GNGGA,101637.00,3605.0449415,N,14004.9226162,E,4,12,1.25,26.254,M,39.388,M,5.0,0000*57
$GNGGA,101637.50,3605.0448827,N,14004.9226236,E,4,12,1.25,26.249,M,39.388,M,5.5,0000*55
$GNGGA,101637.90,3605.0448330,N,14004.9225946,E,4,12,1.25,26.253,M,39.388,M,5.9,0000*5C
$GNGGA,101638.20,3605.0448191,N,14004.9225030,E,4,12,1.25,26.254,M,39.388,M,1.2,0000*51
$GNGGA,101638.40,3605.0448126,N,14004.9224109,E,4,12,1.25,26.256,M,39.388,M,1.4,0000*55
$GNGGA,101638.60,3605.0448051,N,14004.9223215,E,4,12,1.25,26.277,M,39.388,M,1.6,0000*5E
$GNGGA,101638.80,3605.0448089,N,14004.9222302,E,4,12,1.25,26.271,M,39.388,M,1.8,0000*5B
$GNGGA,101639.00,3605.0448199,N,14004.9221350,E,4,12,1.25,26.291,M,39.388,M,2.0,0000*53
$GNGGA,101639.20,3605.0448285,N,14004.9220465,E,4,12,1.25,26.280,M,39.388,M,2.2,0000*5D
$GNGGA,101639.40,3605.0448387,N,14004.9219303,E,4,12,1.25,26.270,M,39.388,M,2.4,0000*5C
$GNGGA,101639.60,3605.0448646,N,14004.9218164,E,4,12,1.25,26.254,M,39.388,M,2.6,0000*50
$GNGGA,101639.80,3605.0448927,N,14004.9217073,E,4,12,1.25,26.280,M,39.388,M,2.8,0000*59
$GNGGA,101640.00,3605.0449028,N,14004.9216195,E,4,12,1.25,26.276,M,39.388,M,3.0,0000*50
$GNGGA,101640.20,3605.0449073,N,14004.9215379,E,4,12,1.25,26.264,M,39.388,M,3.2,0000*5E
$GNGGA,101640.50,3605.0449167,N,14004.9214501,E,4,12,1.25,26.237,M,39.388,M,3.5,0000*54
$GNGGA,101640.80,3605.0449232,N,14004.9213689,E,4,12,1.25,26.203,M,39.388,M,3.8,0000*54
$GNGGA,101641.10,3605.0449192,N,14004.9213009,E,4,12,1.25,26.191,M,39.388,M,4.1,0000*5D
$GNGGA,101641.50,3605.0448718,N,14004.9212326,E,4,12,1.25,26.192,M,39.388,M,4.5,0000*54
$GNGGA,101641.80,3605.0448250,N,14004.9211822,E,4,12,1.25,26.207,M,39.388,M,4.8,0000*5E
$GNGGA,101642.20,3605.0448106,N,14004.9211004,E,4,12,1.25,26.211,M,39.388,M,5.2,0000*57
$GNGGA,101642.60,3605.0447986,N,14004.9210132,E,4,12,1.25,26.236,M,39.388,M,5.6,0000*58
$GNGGA,101642.90,3605.0447825,N,14004.9209450,E,4,12,1.25,26.252,M,39.388,M,5.9,0000*5B
$GNGGA,101643.30,3605.0447930,N,14004.9208795,E,4,12,1.25,26.204,M,39.388,M,6.3,0000*54
$GNGGA,101643.80,3605.0448420,N,14004.9208242,E,4,12,1.25,26.176,M,39.388,M,6.8,0000*5E
$GNGGA,101644.20,3605.0448832,N,14004.9207594,E,4,12,1.25,26.163,M,39.388,M,2.2,0000*55
$GNGGA,101644.60,3605.0449394,N,14004.9207450,E,4,12,1.25,26.166,M,39.388,M,2.6,0000*5F
$GNGGA,101645.10,3605.0450015,N,14004.9207674,E,4,12,1.25,26.189,M,39.388,M,3.1,0000*58
$GNGGA,101645.50,3605.0450621,N,14004.9207584,E,4,12,1.25,26.226,M,39.388,M,3.5,0000*53
$GNGGA,101646.00,3605.0451082,N,14004.9208130,E,4,12,1.25,26.249,M,39.388,M,4.0,0000*54
$GNGGA,101646.40,3605.0451463,N,14004.9208724,E,4,12,1.25,26.256,M,39.388,M,4.4,0000*52
$GNGGA,101646.80,3605.0452082,N,14004.9209092,E,4,12,1.25,26.232,M,39.388,M,4.8,0000*53
$GNGGA,101647.30,3605.0452007,N,14004.9209821,E,4,12,1.25,26.197,M,39.388,M,5.3,0000*52
$GNGGA,101647.90,3605.0451813,N,14004.9210520,E,4,12,1.25,26.203,M,39.388,M,5.9,0000*56
$GNGGA,101648.40,3605.0451902,N,14004.9211219,E,4,12,1.25,26.203,M,39.388,M,1.4,0000*50
$GNGGA,101648.90,3605.0451263,N,14004.9211566,E,4,12,1.25,26.156,M,39.388,M,1.9,0000*50
$GNGGA,101649.30,3605.0450814,N,14004.9211940,E,4,12,1.25,26.149,M,39.388,M,2.3,0000*5F
$GNGGA,101649.70,3605.0450351,N,14004.9212484,E,4,12,1.25,26.148,M,39.388,M,2.7,0000*52
$GNGGA,101650.20,3605.0449767,N,14004.9212023,E,4,12,1.25,26.154,M,39.388,M,3.2,0000*56
$GNGGA,101650.50,3605.0449304,N,14004.9211633,E,4,12,1.25,26.170,M,39.388,M,3.5,0000*55
$GNGGA,101650.80,3605.0448856,N,14004.9211205,E,4,12,1.25,26.179,M,39.388,M,3.8,0000*50
$GNGGA,101651.10,3605.0448692,N,14004.9210427,E,4,12,1.25,26.182,M,39.388,M,4.1,0000*53
$GNGGA,101651.30,3605.0448787,N,14004.9209549,E,4,12,1.25,26.167,M,39.388,M,4.3,0000*5C
$GNGGA,101651.50,3605.0448906,N,14004.9208494,E,4,12,1.25,26.161,M,39.388,M,4.5,0000*5D
$GNGGA,101651.70,3605.0448997,N,14004.9207461,E,4,12,1.25,26.174,M,39.388,M,4.7,0000*54
$GNGGA,101651.90,3605.0449086,N,14004.9206362,E,4,12,1.25,26.170,M,39.388,M,4.9,0000*5D
$GNGGA,101652.10,3605.0449094,N,14004.9205386,E,4,12,1.25,26.167,M,39.388,M,5.1,0000*53
$GNGGA,101652.30,3605.0449180,N,14004.9204414,E,4,12,1.25,26.182,M,39.388,M,5.3,0000*51
$GNGGA,101652.50,3605.0449377,N,14004.9203248,E,4,12,1.25,26.174,M,39.388,M,5.5,0000*5A
$GNGGA,101652.70,3605.0449599,N,14004.9202202,E,4,12,1.25,26.163,M,39.388,M,5.7,0000*55
$GNGGA,101652.90,3605.0449843,N,14004.9201282,E,4,12,1.25,26.168,M,39.388,M,5.9,0000*5F
$GNGGA,101653.20,3605.0450058,N,14004.9200123,E,4,12,1.25,26.165,M,39.388,M,1.2,0000*54
$GNGGA,101653.50,3605.0450154,N,14004.9199388,E,4,12,1.25,26.149,M,39.388,M,1.5,0000*57
$GNGGA,101653.90,3605.0450402,N,14004.9198610,E,4,12,1.25,26.152,M,39.388,M,1.9,0000*5E
$GNGGA,101654.30,3605.0450327,N,14004.9197920,E,4,12,1.25,26.171,M,39.388,M,2.3,0000*58
$GNGGA,101654.60,3605.0449913,N,14004.9197313,E,4,12,1.25,26.192,M,39.388,M,2.6,0000*5A
$GNGGA,101655.00,3605.0449644,N,14004.9196659,E,4,12,1.25,26.168,M,39.388,M,3.0,0000*58
$GNGGA,101655.70,3605.0449876,N,14004.9196055,E,4,12,1.25,26.114,M,39.388,M,3.7,0000*56
$GNGGA,101656.10,3605.0450129,N,14004.9195435,E,4,12,1.25,26.103,M,39.388,M,4.1,0000*5E
$GNGGA,101656.90,3605.0450700,N,14004.9195364,E,4,12,1.25,26.170,M,39.388,M,4.9,0000*54
$GNGGA,101657.40,3605.0451293,N,14004.9195219,E,4,12,1.25,26.228,M,39.388,M,5.4,0000*5F
$GNGGA,101658.00,3605.0451740,N,14004.9195706,E,4,12,1.25,26.160,M,39.388,M,6.0,0000*5C
$GNGGA,101658.40,3605.0452136,N,14004.9196174,E,4,12,1.25,26.155,M,39.388,M,1.4,0000*59
$GNGGA,101658.90,3605.0452254,N,14004.9196861,E,4,12,1.25,26.160,M,39.388,M,1.9,0000*55
$GNGGA,101659.50,3605.0451846,N,14004.9197442,E,4,12,1.25,26.140,M,39.388,M,2.5,0000*53
$GNGGA,101700.20,3605.0451640,N,14004.9198148,E,4,12,1.25,26.165,M,39.388,M,3.2,0000*50
$GNGGA,101700.80,3605.0451008,N,14004.9198175,E,4,12,1.25,26.181,M,39.388,M,3.8,0000*5E
$GNGGA,101701.30,3605.0450449,N,14004.9198426,E,4,12,1.25,26.190,M,39.388,M,4.3,0000*5B
$GNGGA,101701.70,3605.0450175,N,14004.9197807,E,4,12,1.25,26.195,M,39.388,M,4.7,0000*54
$GNGGA,101702.00,3605.0450085,N,14004.9196858,E,4,12,1.25,26.198,M,39.388,M,5.0,0000*5E
$GNGGA,101702.30,3605.0450097,N,14004.9195869,E,4,12,1.25,26.202,M,39.388,M,5.3,0000*5C
$GNGGA,101702.50,3605.0450127,N,14004.9194990,E,4,12,1.25,26.189,M,39.388,M,5.5,0000*50
$GNGGA,101702.70,3605.0450198,N,14004.9194122,E,4,12,1.25,26.196,M,39.388,M,5.7,0000*5B
$GNGGA,101702.90,3605.0450378,N,14004.9193025,E,4,12,1.25,26.203,M,39.388,M,5.9,0000*59
$GNGGA,101703.10,3605.0450598,N,14004.9191756,E,4,12,1.25,26.180,M,39.388,M,6.1,0000*5A
$GNGGA,101703.40,3605.0450795,N,14004.9190035,E,4,12,1.25,26.196,M,39.388,M,1.4,0000*56
$GNGGA,101703.60,3605.0450857,N,14004.9188996,E,4,12,1.25,26.217,M,39.388,M,1.6,0000*54
$GNGGA,101703.80,3605.0450833,N,14004.9188157,E,4,12,1.25,26.211,M,39.388,M,1.8,0000*55
$GNGGA,101704.00,3605.0450915,N,14004.9187457,E,4,12,1.25,26.225,M,39.388,M,2.0,0000*59
$GNGGA,101704.20,3605.0451053,N,14004.9186738,E,4,12,1.25,26.205,M,39.388,M,2.2,0000*5A
$GNGGA,101704.50,3605.0451241,N,14004.9185997,E,4,12,1.25,26.180,M,39.388,M,2.5,0000*5D
$GNGGA,101705.00,3605.0451158,N,14004.9185303,E,4,12,1.25,26.210,M,39.388,M,3.0,0000*5B
$GNGGA,101705.30,3605.0450880,N,14004.9184657,E,4,12,1.25,26.235,M,39.388,M,3.3,0000*54
$GNGGA,101705.80,3605.0450860,N,14004.9183927,E,4,12,1.25,26.258,M,39.388,M,3.8,0000*5E
$GNGGA,101706.50,3605.0450640,N,14004.9183207,E,4,12,1.25,26.211,M,39.388,M,4.5,0000*52
$GNGGA,101707.00,3605.0450962,N,14004.9182587,E,4,12,1.25,26.182,M,39.388,M,5.0,0000*5A
$GNGGA,101707.50,3605.0451450,N,14004.9182246,E,4,12,1.25,26.182,M,39.388,M,5.5,0000*5D
$GNGGA,101708.20,3605.0452005,N,14004.9181921,E,4,12,1.25,26.194,M,39.388,M,1.2,0000*5F
$GNGGA,101708.60,3605.0452612,N,14004.9182237,E,4,12,1.25,26.177,M,39.388,M,1.6,0000*5D
$GNGGA,101709.20,3605.0453019,N,14004.9182726,E,4,12,1.25,26.202,M,39.388,M,2.2,0000*57
$GNGGA,101709.70,3605.0452882,N,14004.9183405,E,4,12,1.25,26.197,M,39.388,M,2.7,0000*50
$GNGGA,101710.10,3605.0452969,N,14004.9184117,E,4,12,1.25,26.199,M,39.388,M,3.1,0000*52
$GNGGA,101710.80,3605.0452587,N,14004.9184687,E,4,12,1.25,26.180,M,39.388,M,3.8,0000*58
$GNGGA,101711.30,3605.0452300,N,14004.9185304,E,4,12,1.25,26.194,M,39.388,M,4.3,0000*5D
$GNGGA,101711.80,3605.0451749,N,14004.9185322,E,4,12,1.25,26.191,M,39.388,M,4.8,0000*56
$GNGGA,101712.00,3605.0451333,N,14004.9184854,E,4,12,1.25,26.184,M,39.388,M,5.0,0000*52
$GNGGA,101712.20,3605.0450821,N,14004.9184452,E,4,12,1.25,26.183,M,39.388,M,5.2,0000*56
$GNGGA,101712.40,3605.0450166,N,14004.9184047,E,4,12,1.25,26.196,M,39.388,M,5.4,0000*58
$GNGGA,101712.60,3605.0449327,N,14004.9183567,E,4,12,1.25,26.184,M,39.388,M,5.6,0000*54
$GNGGA,101712.80,3605.0448482,N,14004.9183066,E,4,12,1.25,26.182,M,39.388,M,5.8,0000*5F
$GNGGA,101713.00,3605.0447540,N,14004.9182538,E,4,12,1.25,26.181,M,39.388,M,6.0,0000*51
$GNGGA,101713.10,3605.0447000,N,14004.9182183,E,4,12,1.25,26.181,M,39.388,M,6.1,0000*54
$GNGGA,101713.20,3605.0446456,N,14004.9181807,E,4,12,1.25,26.175,M,39.388,M,6.2,0000*5F
$GNGGA,101713.40,3605.0445440,N,14004.9180958,E,4,12,1.25,26.174,M,39.388,M,6.4,0000*50
$GNGGA,101713.50,3605.0444897,N,14004.9180517,E,4,12,1.25,26.155,M,39.388,M,6.5,0000*53
$GNGGA,101713.60,3605.0444332,N,14004.9180152,E,4,12,1.25,26.156,M,39.388,M,6.6,0000*51
$GNGGA,101713.70,3605.0443780,N,14004.9179738,E,4,12,1.25,26.142,M,39.388,M,6.7,0000*52
$GNGGA,101713.80,3605.0443163,N,14004.9179303,E,4,12,1.25,26.141,M,39.388,M,6.8,0000*56
$GNGGA,101713.90,3605.0442493,N,14004.9179005,E,4,12,1.25,26.120,M,39.388,M,6.9,0000*5F
$GNGGA,101714.00,3605.0441883,N,14004.9178609,E,4,12,1.25,26.132,M,39.388,M,7.0,0000*5F
$GNGGA,101714.10,3605.0441180,N,14004.9178231,E,4,12,1.25,26.125,M,39.388,M,7.1,0000*5C
$GNGGA,101714.20,3605.0440379,N,14004.9177844,E,4,12,1.25,26.102,M,39.388,M,2.2,0000*5E
$GNGGA,101714.40,3605.0438781,N,14004.9177170,E,4,12,1.25,26.087,M,39.388,M,2.4,0000*50
$GNGGA,101714.50,3605.0438002,N,14004.9176856,E,4,12,1.25,26.109,M,39.388,M,2.5,0000*57
$GNGGA,101714.60,3605.0437171,N,14004.9176556,E,4,12,1.25,26.124,M,39.388,M,2.6,0000*5F
$GNGGA,101714.70,3605.0436399,N,14004.9176411,E,4,12,1.25,26.108,M,39.388,M,2.7,0000*56
$GNGGA,101714.80,3605.0435648,N,14004.9176202,E,4,12,1.25,26.107,M,39.388,M,2.8,0000*57
$GNGGA,101714.90,3605.0434880,N,14004.9175985,E,4,12,1.25,26.129,M,39.388,M,2.9,0000*57
$GNGGA,101715.00,3605.0434064,N,14004.9175801,E,4,12,1.25,26.129,M,39.388,M,3.0,0000*58
$GNGGA,101715.10,3605.0433244,N,14004.9175603,E,4,12,1.25,26.131,M,39.388,M,3.1,0000*5A
$GNGGA,101715.20,3605.0432387,N,14004.9175385,E,4,12,1.25,26.121,M,39.388,M,3.2,0000*5F
$GNGGA,101715.40,3605.0430778,N,14004.9175069,E,4,12,1.25,26.137,M,39.388,M,3.4,0000*5F
$GNGGA,101715.50,3605.0430005,N,14004.9174960,E,4,12,1.25,26.155,M,39.388,M,3.5,0000*57
$GNGGA,101715.60,3605.0429211,N,14004.9174754,E,4,12,1.25,26.153,M,39.388,M,3.6,0000*57
$GNGGA,101715.70,3605.0428460,N,14004.9174556,E,4,12,1.25,26.175,M,39.388,M,3.7,0000*52
$GNGGA,101715.80,3605.0427739,N,14004.9174501,E,4,12,1.25,26.151,M,39.388,M,3.8,0000*56
$GNGGA,101715.90,3605.0427025,N,14004.9174348,E,4,12,1.25,26.175,M,39.388,M,3.9,0000*51
$GNGGA,101716.00,3605.0426272,N,14004.9174188,E,4,12,1.25,26.187,M,39.388,M,4.0,0000*57
$GNGGA,101716.20,3605.0424739,N,14004.9173911,E,4,12,1.25,26.190,M,39.388,M,4.2,0000*56
$GNGGA,101716.30,3605.0424017,N,14004.9173770,E,4,12,1.25,26.190,M,39.388,M,4.3,0000*54
$GNGGA,101716.40,3605.0423273,N,14004.9173706,E,4,12,1.25,26.204,M,39.388,M,4.4,0000*5C
$GNGGA,101716.50,3605.0422532,N,14004.9173621,E,4,12,1.25,26.204,M,39.388,M,4.5,0000*5B
$GNGGA,101716.60,3605.0421733,N,14004.9173563,E,4,12,1.25,26.200,M,39.388,M,4.6,0000*5A
$GNGGA,101716.70,3605.0421001,N,14004.9173518,E,4,12,1.25,26.194,M,39.388,M,4.7,0000*5E
$GNGGA,101716.80,3605.0420252,N,14004.9173523,E,4,12,1.25,26.187,M,39.388,M,4.8,0000*51
$GNGGA,101716.90,3605.0419543,N,14004.9173437,E,4,12,1.25,26.204,M,39.388,M,4.9,0000*50
$GNGGA,101717.00,3605.0418773,N,14004.9173372,E,4,12,1.25,26.191,M,39.388,M,5.0,0000*59
$GNGGA,101717.10,3605.0417941,N,14004.9173300,E,4,12,1.25,26.180,M,39.388,M,5.1,0000*5C
$GNGGA,101717.20,3605.0417195,N,14004.9173204,E,4,12,1.25,26.171,M,39.388,M,5.2,0000*56
$GNGGA,101717.30,3605.0416437,N,14004.9173125,E,4,12,1.25,26.183,M,39.388,M,5.3,0000*57
$GNGGA,101717.40,3605.0415680,N,14004.9173058,E,4,12,1.25,26.197,M,39.388,M,5.4,0000*54
$GNGGA,101717.50,3605.0414921,N,14004.9172973,E,4,12,1.25,26.183,M,39.388,M,5.5,0000*55
$GNGGA,101717.60,3605.0414090,N,14004.9172843,E,4,12,1.25,26.190,M,39.388,M,5.6,0000*56
$GNGGA,101717.70,3605.0413417,N,14004.9172737,E,4,12,1.25,26.179,M,39.388,M,5.7,0000*51
$GNGGA,101717.80,3605.0412709,N,14004.9172619,E,4,12,1.25,26.198,M,39.388,M,5.8,0000*5E
$GNGGA,101717.90,3605.0411960,N,14004.9172415,E,4,12,1.25,26.207,M,39.388,M,5.9,0000*57
$GNGGA,101718.00,3605.0411219,N,14004.9172305,E,4,12,1.25,26.192,M,39.388,M,6.0,0000*57
$GNGGA,101718.10,3605.0410468,N,14004.9172156,E,4,12,1.25,26.185,M,39.388,M,6.1,0000*54
$GNGGA,101718.20,3605.0409731,N,14004.9171963,E,4,12,1.25,26.200,M,39.388,M,1.2,0000*57
$GNGGA,101718.40,3605.0408247,N,14004.9171778,E,4,12,1.25,26.209,M,39.388,M,1.4,0000*5F
$GNGGA,101718.50,3605.0407502,N,14004.9171692,E,4,12,1.25,26.208,M,39.388,M,1.5,0000*52
$GNGGA,101718.60,3605.0406741,N,14004.9171587,E,4,12,1.25,26.199,M,39.388,M,1.6,0000*5A
$GNGGA,101718.70,3605.0406060,N,14004.9171520,E,4,12,1.25,26.199,M,39.388,M,1.7,0000*53
$GNGGA,101718.80,3605.0405391,N,14004.9171473,E,4,12,1.25,26.199,M,39.388,M,1.8,0000*5A
$GNGGA,101718.90,3605.0404655,N,14004.9171370,E,4,12,1.25,26.203,M,39.388,M,1.9,0000*52
$GNGGA,101719.00,3605.0403892,N,14004.9171285,E,4,12,1.25,26.184,M,39.388,M,2.0,0000*55
$GNGGA,101719.10,3605.0403150,N,14004.9171185,E,4,12,1.25,26.183,M,39.388,M,2.1,0000*56
$GNGGA,101719.20,3605.0402455,N,14004.9171126,E,4,12,1.25,26.178,M,39.388,M,2.2,0000*5A
$GNGGA,101719.30,3605.0401765,N,14004.9171116,E,4,12,1.25,26.188,M,39.388,M,2.3,0000*55
$GNGGA,101719.40,3605.0401020,N,14004.9171034,E,4,12,1.25,26.193,M,39.388,M,2.4,0000*58
$GNGGA,101719.50,3605.0400294,N,14004.9170948,E,4,12,1.25,26.178,M,39.388,M,2.5,0000*52
$GNGGA,101719.60,3605.0399591,N,14004.9170853,E,4,12,1.25,26.177,M,39.388,M,2.6,0000*53
$GNGGA,101719.70,3605.0398952,N,14004.9170797,E,4,12,1.25,26.172,M,39.388,M,2.7,0000*53
$GNGGA,101719.80,3605.0398288,N,14004.9170747,E,4,12,1.25,26.176,M,39.388,M,2.8,0000*56
$GNGGA,101719.90,3605.0397592,N,14004.9170638,E,4,12,1.25,26.169,M,39.388,M,2.9,0000*52
$GNGGA,101720.00,3605.0396828,N,14004.9170507,E,4,12,1.25,26.154,M,39.388,M,3.0,0000*55
$GNGGA,101720.10,3605.0396207,N,14004.9170383,E,4,12,1.25,26.146,M,39.388,M,3.1,0000*5B
$GNGGA,101720.20,3605.0395476,N,14004.9170194,E,4,12,1.25,26.159,M,39.388,M,3.2,0000*52
$GNGGA,101720.30,3605.0394780,N,14004.9170075,E,4,12,1.25,26.166,M,39.388,M,3.3,0000*5B
$GNGGA,101720.40,3605.0394109,N,14004.9170049,E,4,12,1.25,26.154,M,39.388,M,3.4,0000*52
$GNGGA,101720.50,3605.0393368,N,14004.9169959,E,4,12,1.25,26.159,M,39.388,M,3.5,0000*5D
$GNGGA,101720.60,3605.0392750,N,14004.9169971,E,4,12,1.25,26.154,M,39.388,M,3.6,0000*54
$GNGGA,101720.70,3605.0392134,N,14004.9169875,E,4,12,1.25,26.163,M,39.388,M,3.7,0000*51
$GNGGA,101720.80,3605.0391447,N,14004.9169858,E,4,12,1.25,26.169,M,39.388,M,3.8,0000*56
$GNGGA,101720.90,3605.0390760,N,14004.9169952,E,4,12,1.25,26.168,M,39.388,M,3.9,0000*5B
$GNGGA,101721.00,3605.0390038,N,14004.9169942,E,4,12,1.25,26.155,M,39.388,M,4.0,0000*58
$GNGGA,101721.20,3605.0388731,N,14004.9170208,E,4,12,1.25,26.162,M,39.388,M,4.2,0000*56
$GNGGA,101721.30,3605.0388148,N,14004.9170427,E,4,12,1.25,26.169,M,39.388,M,4.3,0000*5E
$GNGGA,101721.40,3605.0387531,N,14004.9170521,E,4,12,1.25,26.185,M,39.388,M,4.4,0000*5E
$GNGGA,101721.50,3605.0386868,N,14004.9170692,E,4,12,1.25,26.181,M,39.388,M,4.5,0000*51
$GNGGA,101721.70,3605.0385942,N,14004.9170987,E,4,12,1.25,26.193,M,39.388,M,4.7,0000*53
$GNGGA,101721.90,3605.0385075,N,14004.9171446,E,4,12,1.25,26.196,M,39.388,M,4.9,0000*5A
$GNGGA,101722.10,3605.0384161,N,14004.9171915,E,4,12,1.25,26.202,M,39.388,M,5.1,0000*58
$GNGGA,101722.30,3605.0383480,N,14004.9172450,E,4,12,1.25,26.229,M,39.388,M,5.3,0000*53
$GNGGA,101722.50,3605.0382977,N,14004.9172846,E,4,12,1.25,26.248,M,39.388,M,5.5,0000*5B
$GNGGA,101722.80,3605.0382565,N,14004.9173336,E,4,12,1.25,26.254,M,39.388,M,5.8,0000*54
$GNGGA,101723.20,3605.0382143,N,14004.9173989,E,4,12,1.25,26.262,M,39.388,M,1.2,0000*5A
$GNGGA,101725.30,3605.0382699,N,14004.9174204,E,4,12,1.25,26.204,M,39.388,M,3.3,0000*57
$GNGGA,101725.80,3605.0383211,N,14004.9174506,E,4,12,1.25,26.207,M,39.388,M,3.8,0000*54
$GNGGA,101726.20,3605.0383248,N,14004.9175199,E,4,12,1.25,26.204,M,39.388,M,4.2,0000*5C
$GNGGA,101726.40,3605.0383171,N,14004.9175925,E,4,12,1.25,26.193,M,39.388,M,4.4,0000*57
$GNGGA,101726.60,3605.0383032,N,14004.9176965,E,4,12,1.25,26.190,M,39.388,M,4.6,0000*55
$GNGGA,101726.80,3605.0382854,N,14004.9178029,E,4,12,1.25,26.194,M,39.388,M,4.8,0000*57
$GNGGA,101727.00,3605.0382787,N,14004.9179190,E,4,12,1.25,26.191,M,39.388,M,5.0,0000*51
$GNGGA,101727.10,3605.0382779,N,14004.9179874,E,4,12,1.25,26.191,M,39.388,M,5.1,0000*53
$GNGGA,101727.20,3605.0382723,N,14004.9180543,E,4,12,1.25,26.191,M,39.388,M,5.2,0000*53
$GNGGA,101727.40,3605.0382651,N,14004.9181855,E,4,12,1.25,26.196,M,39.388,M,5.4,0000*5B
$GNGGA,101727.60,3605.0382455,N,14004.9183179,E,4,12,1.25,26.190,M,39.388,M,5.6,0000*5E
$GNGGA,101727.70,3605.0382327,N,14004.9183873,E,4,12,1.25,26.186,M,39.388,M,5.7,0000*58
$GNGGA,101727.80,3605.0382172,N,14004.9184625,E,4,12,1.25,26.189,M,39.388,M,5.8,0000*5F
$GNGGA,101728.00,3605.0381982,N,14004.9185920,E,4,12,1.25,26.191,M,39.388,M,6.0,0000*55
$GNGGA,101728.10,3605.0381885,N,14004.9186598,E,4,12,1.25,26.195,M,39.388,M,6.1,0000*5B
$GNGGA,101728.20,3605.0381825,N,14004.9187319,E,4,12,1.25,26.185,M,39.388,M,1.2,0000*59
$GNGGA,101728.40,3605.0381715,N,14004.9188682,E,4,12,1.25,26.176,M,39.388,M,1.4,0000*51
$GNGGA,101728.60,3605.0381560,N,14004.9189903,E,4,12,1.25,26.186,M,39.388,M,1.6,0000*59
$GNGGA,101728.70,3605.0381471,N,14004.9190580,E,4,12,1.25,26.184,M,39.388,M,1.7,0000*55
$GNGGA,101728.80,3605.0381356,N,14004.9191341,E,4,12,1.25,26.180,M,39.388,M,1.8,0000*59
$GNGGA,101728.90,3605.0381248,N,14004.9192040,E,4,12,1.25,26.177,M,39.388,M,1.9,0000*5E
$GNGGA,101729.00,3605.0381153,N,14004.9192704,E,4,12,1.25,26.184,M,39.388,M,2.0,0000*5E
$GNGGA,101729.10,3605.0381098,N,14004.9193379,E,4,12,1.25,26.186,M,39.388,M,2.1,0000*55
$GNGGA,101729.30,3605.0380975,N,14004.9194676,E,4,12,1.25,26.188,M,39.388,M,2.3,0000*5D
$GNGGA,101729.40,3605.0380947,N,14004.9195343,E,4,12,1.25,26.179,M,39.388,M,2.4,0000*50
$GNGGA,101729.60,3605.0380899,N,14004.9196586,E,4,12,1.25,26.175,M,39.388,M,2.6,0000*52
$GNGGA,101729.80,3605.0380774,N,14004.9197818,E,4,12,1.25,26.169,M,39.388,M,2.8,0000*58
$GNGGA,101730.00,3605.0380567,N,14004.9199123,E,4,12,1.25,26.161,M,39.388,M,3.0,0000*56
$GNGGA,101730.20,3605.0380417,N,14004.9200439,E,4,12,1.25,26.173,M,39.388,M,3.2,0000*5E
$GNGGA,101730.40,3605.0380280,N,14004.9201594,E,4,12,1.25,26.177,M,39.388,M,3.4,0000*55
$GNGGA,101730.60,3605.0380204,N,14004.9202871,E,4,12,1.25,26.180,M,39.388,M,3.6,0000*54
$GNGGA,101730.80,3605.0380245,N,14004.9204086,E,4,12,1.25,26.206,M,39.388,M,3.8,0000*5A
$GNGGA,101731.00,3605.0380217,N,14004.9205294,E,4,12,1.25,26.220,M,39.388,M,4.0,0000*5F
$GNGGA,101731.20,3605.0380088,N,14004.9206610,E,4,12,1.25,26.212,M,39.388,M,4.2,0000*51
$GNGGA,101731.40,3605.0380077,N,14004.9207759,E,4,12,1.25,26.224,M,39.388,M,4.4,0000*59
$GNGGA,101731.60,3605.0380064,N,14004.9208691,E,4,12,1.25,26.245,M,39.388,M,4.6,0000*56
$GNGGA,101731.80,3605.0380119,N,14004.9209587,E,4,12,1.25,26.241,M,39.388,M,4.8,0000*5C
$GNGGA,101732.00,3605.0380188,N,14004.9210372,E,4,12,1.25,26.259,M,39.388,M,5.0,0000*5B
$GNGGA,101732.20,3605.0380192,N,14004.9211133,E,4,12,1.25,26.271,M,39.388,M,5.2,0000*5C
$GNGGA,101732.40,3605.0380091,N,14004.9212018,E,4,12,1.25,26.262,M,39.388,M,5.4,0000*57
$GNGGA,101732.60,3605.0379958,N,14004.9212727,E,4,12,1.25,26.250,M,39.388,M,5.6,0000*57
$GNGGA,101732.90,3605.0379868,N,14004.9213573,E,4,12,1.25,26.239,M,39.388,M,5.9,0000*58
$GNGGA,101733.20,3605.0380016,N,14004.9214231,E,4,12,1.25,26.205,M,39.388,M,1.2,0000*53
$GNGGA,101734.00,3605.0379723,N,14004.9214943,E,4,12,1.25,26.145,M,39.388,M,2.0,0000*59
$GNGGA,101734.40,3605.0379246,N,14004.9215300,E,4,12,1.25,26.134,M,39.388,M,2.4,0000*55
$GNGGA,101735.00,3605.0378683,N,14004.9215699,E,4,12,1.25,26.108,M,39.388,M,3.0,0000*53
$GNGGA,101735.20,3605.0378076,N,14004.9215555,E,4,12,1.25,26.100,M,39.388,M,3.2,0000*54
$GNGGA,101735.40,3605.0377106,N,14004.9215353,E,4,12,1.25,26.102,M,39.388,M,3.4,0000*5F
$GNGGA,101735.50,3605.0376554,N,14004.9215215,E,4,12,1.25,26.111,M,39.388,M,3.5,0000*5C
$GNGGA,101735.60,3605.0376015,N,14004.9215087,E,4,12,1.25,26.119,M,39.388,M,3.6,0000*5D
$GNGGA,101735.80,3605.0374907,N,14004.9214853,E,4,12,1.25,26.131,M,39.388,M,3.8,0000*5F
$GNGGA,101735.90,3605.0374225,N,14004.9214755,E,4,12,1.25,26.132,M,39.388,M,3.9,0000*5E
$GNGGA,101736.00,3605.0373562,N,14004.9214619,E,4,12,1.25,26.137,M,39.388,M,4.0,0000*55
$GNGGA,101736.10,3605.0372903,N,14004.9214575,E,4,12,1.25,26.133,M,39.388,M,4.1,0000*52
$GNGGA,101736.20,3605.0372291,N,14004.9214453,E,4,12,1.25,26.153,M,39.388,M,4.2,0000*51
$GNGGA,101736.30,3605.0371638,N,14004.9214278,E,4,12,1.25,26.155,M,39.388,M,4.3,0000*5C
$GNGGA,101736.40,3605.0370900,N,14004.9214157,E,4,12,1.25,26.145,M,39.388,M,4.4,0000*56
$GNGGA,101736.50,3605.0370149,N,14004.9213938,E,4,12,1.25,26.148,M,39.388,M,4.5,0000*58
$GNGGA,101736.60,3605.0369423,N,14004.9213878,E,4,12,1.25,26.149,M,39.388,M,4.6,0000*5D
$GNGGA,101736.70,3605.0368775,N,14004.9213808,E,4,12,1.25,26.162,M,39.388,M,4.7,0000*52
$GNGGA,101736.80,3605.0368085,N,14004.9213706,E,4,12,1.25,26.172,M,39.388,M,4.8,0000*5A
$GNGGA,101736.90,3605.0367322,N,14004.9213644,E,4,12,1.25,26.171,M,39.388,M,4.9,0000*5F
$GNGGA,101737.00,3605.0366612,N,14004.9213622,E,4,12,1.25,26.165,M,39.388,M,5.0,0000*5D
$GNGGA,101737.20,3605.0365285,N,14004.9213593,E,4,12,1.25,26.179,M,39.388,M,5.2,0000*50
$GNGGA,101737.30,3605.0364609,N,14004.9213513,E,4,12,1.25,26.188,M,39.388,M,5.3,0000*57
$GNGGA,101737.40,3605.0363823,N,14004.9213409,E,4,12,1.25,26.183,M,39.388,M,5.4,0000*57
$GNGGA,101737.50,3605.0363075,N,14004.9213333,E,4,12,1.25,26.173,M,39.388,M,5.5,0000*5D
$GNGGA,101737.60,3605.0362381,N,14004.9213284,E,4,12,1.25,26.181,M,39.388,M,5.6,0000*54
$GNGGA,101737.70,3605.0361732,N,14004.9213226,E,4,12,1.25,26.198,M,39.388,M,5.7,0000*5B
$GNGGA,101737.80,3605.0361027,N,14004.9213192,E,4,12,1.25,26.209,M,39.388,M,5.8,0000*5F
$GNGGA,101737.90,3605.0360289,N,14004.9213103,E,4,12,1.25,26.221,M,39.388,M,5.9,0000*5A
$GNGGA,101738.00,3605.0359582,N,14004.9213098,E,4,12,1.25,26.213,M,39.388,M,6.0,0000*52
$GNGGA,101738.10,3605.0358858,N,14004.9213103,E,4,12,1.25,26.216,M,39.388,M,6.1,0000*5F
$GNGGA,101738.20,3605.0358202,N,14004.9213064,E,4,12,1.25,26.231,M,39.388,M,1.2,0000*58
$GNGGA,101738.30,3605.0357526,N,14004.9213023,E,4,12,1.25,26.234,M,39.388,M,1.3,0000*50
$GNGGA,101738.40,3605.0356768,N,14004.9212902,E,4,12,1.25,26.229,M,39.388,M,1.4,0000*5E
$GNGGA,101738.50,3605.0356078,N,14004.9212812,E,4,12,1.25,26.220,M,39.388,M,1.5,0000*51
$GNGGA,101738.60,3605.0355377,N,14004.9212727,E,4,12,1.25,26.222,M,39.388,M,1.6,0000*55
$GNGGA,101738.70,3605.0354701,N,14004.9212666,E,4,12,1.25,26.243,M,39.388,M,1.7,0000*52
$GNGGA,101738.80,3605.0354026,N,14004.9212612,E,4,12,1.25,26.248,M,39.388,M,1.8,0000*58
$GNGGA,101738.90,3605.0353293,N,14004.9212520,E,4,12,1.25,26.246,M,39.388,M,1.9,0000*5F
$GNGGA,101739.00,3605.0352560,N,14004.9212466,E,4,12,1.25,26.237,M,39.388,M,2.0,0000*52
$GNGGA,101739.10,3605.0351896,N,14004.9212410,E,4,12,1.25,26.240,M,39.388,M,2.1,0000*54
$GNGGA,101739.20,3605.0351238,N,14004.9212337,E,4,12,1.25,26.243,M,39.388,M,2.2,0000*5B
$GNGGA,101739.30,3605.0350538,N,14004.9212251,E,4,12,1.25,26.241,M,39.388,M,2.3,0000*5E
$GNGGA,101739.40,3605.0349812,N,14004.9212160,E,4,12,1.25,26.242,M,39.388,M,2.4,0000*51
$GNGGA,101739.50,3605.0349105,N,14004.9211996,E,4,12,1.25,26.234,M,39.388,M,2.5,0000*5D
$GNGGA,101739.60,3605.0348400,N,14004.9211885,E,4,12,1.25,26.237,M,39.388,M,2.6,0000*5C
$GNGGA,101739.70,3605.0347734,N,14004.9211828,E,4,12,1.25,26.249,M,39.388,M,2.7,0000*59
$GNGGA,101739.80,3605.0347067,N,14004.9211767,E,4,12,1.25,26.253,M,39.388,M,2.8,0000*57
$GNGGA,101739.90,3605.0346324,N,14004.9211659,E,4,12,1.25,26.252,M,39.388,M,2.9,0000*5F
$GNGGA,101740.00,3605.0345632,N,14004.9211629,E,4,12,1.25,26.244,M,39.388,M,3.0,0000*51
$GNGGA,101740.10,3605.0344953,N,14004.9211535,E,4,12,1.25,26.256,M,39.388,M,3.1,0000*55
$GNGGA,101740.20,3605.0344303,N,14004.9211477,E,4,12,1.25,26.261,M,39.388,M,3.2,0000*59
$GNGGA,101740.30,3605.0343638,N,14004.9211349,E,4,12,1.25,26.260,M,39.388,M,3.3,0000*58
$GNGGA,101740.40,3605.0342934,N,14004.9211254,E,4,12,1.25,26.254,M,39.388,M,3.4,0000*50
$GNGGA,101740.50,3605.0342203,N,14004.9211134,E,4,12,1.25,26.252,M,39.388,M,3.5,0000*5C
$GNGGA,101740.60,3605.0341546,N,14004.9211045,E,4,12,1.25,26.250,M,39.388,M,3.6,0000*5C
$GNGGA,101740.70,3605.0340910,N,14004.9210999,E,4,12,1.25,26.270,M,39.388,M,3.7,0000*59
$GNGGA,101740.80,3605.0340235,N,14004.9210935,E,4,12,1.25,26.267,M,39.388,M,3.8,0000*55
$GNGGA,101740.90,3605.0339533,N,14004.9210910,E,4,12,1.25,26.251,M,39.388,M,3.9,0000*58
$GNGGA,101741.00,3605.0338837,N,14004.9210850,E,4,12,1.25,26.247,M,39.388,M,4.0,0000*54
$GNGGA,101741.10,3605.0338172,N,14004.9210814,E,4,12,1.25,26.238,M,39.388,M,4.1,0000*54
$GNGGA,101741.20,3605.0337510,N,14004.9210748,E,4,12,1.25,26.250,M,39.388,M,4.2,0000*53
$GNGGA,101741.30,3605.0336851,N,14004.9210742,E,4,12,1.25,26.252,M,39.388,M,4.3,0000*52
$GNGGA,101741.40,3605.0336096,N,14004.9210633,E,4,12,1.25,26.240,M,39.388,M,4.4,0000*55
$GNGGA,101741.50,3605.0335323,N,14004.9210532,E,4,12,1.25,26.227,M,39.388,M,4.5,0000*58
$GNGGA,101741.60,3605.0334613,N,14004.9210470,E,4,12,1.25,26.222,M,39.388,M,4.6,0000*5D
$GNGGA,101741.70,3605.0334001,N,14004.9210443,E,4,12,1.25,26.243,M,39.388,M,4.7,0000*5F
$GNGGA,101741.80,3605.0333273,N,14004.9210393,E,4,12,1.25,26.252,M,39.388,M,4.8,0000*55
$GNGGA,101741.90,3605.0332550,N,14004.9210320,E,4,12,1.25,26.253,M,39.388,M,4.9,0000*5B
$GNGGA,101742.00,3605.0331782,N,14004.9210296,E,4,12,1.25,26.247,M,39.388,M,5.0,0000*5E
$GNGGA,101742.10,3605.0331104,N,14004.9210263,E,4,12,1.25,26.242,M,39.388,M,5.1,0000*59
$GNGGA,101742.20,3605.0330466,N,14004.9210274,E,4,12,1.25,26.240,M,39.388,M,5.2,0000*5D
$GNGGA,101742.30,3605.0329787,N,14004.9210231,E,4,12,1.25,26.247,M,39.388,M,5.3,0000*5F
$GNGGA,101742.40,3605.0329073,N,14004.9210137,E,4,12,1.25,26.244,M,39.388,M,5.4,0000*55
$GNGGA,101742.50,3605.0328326,N,14004.9210093,E,4,12,1.25,26.227,M,39.388,M,5.5,0000*5D
$GNGGA,101742.60,3605.0327624,N,14004.9209967,E,4,12,1.25,26.231,M,39.388,M,5.6,0000*58
$GNGGA,101742.70,3605.0326990,N,14004.9209904,E,4,12,1.25,26.248,M,39.388,M,5.7,0000*52
$GNGGA,101742.80,3605.0326317,N,14004.9209871,E,4,12,1.25,26.254,M,39.388,M,5.8,0000*59
$GNGGA,101742.90,3605.0325590,N,14004.9209819,E,4,12,1.25,26.250,M,39.388,M,5.9,0000*59
